{"id": "9197090961","server": "3731","farm": "4","userId": "33370793@N02","secret": "c2d5a39527","title": "Universal Studios","loc": {"type": "Point","coordinates": [103.821655,1.254486]}} 
{"id": "8977086517","server": "8254","farm": "9","userId": "20834405@N00","secret": "c931df1fec","title": "Cylons, first inversion","loc": {"type": "Point","coordinates": [103.822174,1.253585]}} 
{"id": "9432862230","server": "5441","farm": "6","userId": "35468141938@N01","secret": "5e76036971","title": "Universal, after conquering the Southern Ridges. Taken by @_weili_","loc": {"type": "Point","coordinates": [103.82136,1.25646]}} 
{"id": "9424814927","server": "7305","farm": "8","userId": "84204121@N00","secret": "f49024bbda","title": "The world is so small sometimes!","loc": {"type": "Point","coordinates": [103.82136,1.25646]}} 
{"id": "9418356911","server": "7404","farm": "8","userId": "94346589@N03","secret": "f157185425","title": "#instaplace #instaplaceapp #instagood #photooftheday #instamood #picoftheday #instadaily #photo #instacool #instapic #picture #pic @instaplacemobi #place #earth #world  #singapore #SG #sentosa #farfaraway #shopping #art #street #day","loc": {"type": "Point","coordinates": [103.82361,1.254111]}} 
{"id": "9418338627","server": "7397","farm": "8","userId": "94346589@N03","secret": "41c9f09594","title": "#instaplace #instaplaceapp #instagood #photooftheday #instamood #picoftheday #instadaily #photo #instacool #instapic #picture #pic @instaplacemobi #place #earth #world  #singapore #SG #sentosa #universalstudiossingapore #art #street #cheers #day #again","loc": {"type": "Point","coordinates": [103.82326,1.255312]}} 
{"id": "9413892934","server": "3665","farm": "4","userId": "93109357@N05","secret": "f83c21e900","title": "#jurassicpark #universalsg #乐","loc": {"type": "Point","coordinates": [103.82391,1.253776]}} 
{"id": "9411106379","server": "5519","farm": "6","userId": "93109357@N05","secret": "0f4c9ec99f","title": "#Egypt #universalsg #乐 #onvacation","loc": {"type": "Point","coordinates": [103.82323,1.253998]}} 
{"id": "9411050723","server": "5498","farm": "6","userId": "93109357@N05","secret": "c688b31c6c","title": "#transformerinside #universalsg #funny with #bigbrother #乐","loc": {"type": "Point","coordinates": [103.82165,1.254333]}} 
{"id": "9405280391","server": "5536","farm": "6","userId": "94346589@N03","secret": "67b2acb4b1","title": "#instaplace #instaplaceapp #instagood #photooftheday #instamood #picoftheday #instadaily #photo #instacool #instapic #picture #pic @instaplacemobi #place #earth #world  #singapore #SG #sentosa #revengeofthemummy #food #foodporn #restaurant #art #street #y","loc": {"type": "Point","coordinates": [103.823006,1.253824]}} 
{"id": "9407907546","server": "3709","farm": "4","userId": "93109357@N05","secret": "58c6ce2869","title": "#universalsg #rollercoaster","loc": {"type": "Point","coordinates": [103.82136,1.25646]}} 
{"id": "9407696136","server": "3781","farm": "4","userId": "94346589@N03","secret": "e92c40f2e6","title": "#instaplace #instaplaceapp #instagood #photooftheday #instamood #picoftheday #instadaily #photo #instacool #instapic #picture #pic @instaplacemobi #place #earth #world  #singapore #SG #sentosa #universalstudiossingapore #art #street #day #tour","loc": {"type": "Point","coordinates": [103.82136,1.25646]}} 
{"id": "9407567184","server": "7289","farm": "8","userId": "94346589@N03","secret": "30862f1839","title": "#instaplace #instaplaceapp #instagood #photooftheday #instamood #picoftheday #instadaily #photo #instacool #instapic #picture #pic @instaplacemobi #place #earth #world  #singapore #SG #singapore #cranedance #art #street #day #villagehunting","loc": {"type": "Point","coordinates": [103.8209,1.25631]}} 
{"id": "9391261172","server": "2839","farm": "3","userId": "99530636@N02","secret": "b3c5b6fa71","title": "Accelerator","loc": {"type": "Point","coordinates": [103.82321,1.253982]}} 
{"id": "9391260380","server": "5533","farm": "6","userId": "99530636@N02","secret": "de17598fb9","title": "Into the dark","loc": {"type": "Point","coordinates": [103.8232,1.253982]}} 
{"id": "9391258808","server": "2832","farm": "3","userId": "99530636@N02","secret": "84dbb9a48b","title": "Treasure Hunters","loc": {"type": "Point","coordinates": [103.823235,1.253982]}} 
{"id": "9391259490","server": "2893","farm": "3","userId": "99530636@N02","secret": "5390b04b33","title": "Lost .","loc": {"type": "Point","coordinates": [103.823235,1.254004]}} 
{"id": "9391290772","server": "7360","farm": "8","userId": "99530636@N02","secret": "95450658a8","title": "Battlestar Galactica","loc": {"type": "Point","coordinates": [103.823235,1.254025]}} 
{"id": "9391261956","server": "2843","farm": "3","userId": "99530636@N02","secret": "9336a4ea0b","title": "Events","loc": {"type": "Point","coordinates": [103.8232,1.25409]}} 
{"id": "9379755577","server": "5479","farm": "6","userId": "93109357@N05","secret": "66e984a7f6","title": "#transformer with big brother.. #universalsingapore","loc": {"type": "Point","coordinates": [103.82165,1.254333]}} 
{"id": "9377973814","server": "3783","farm": "4","userId": "84448690@N06","secret": "9fb62a573c","title": "CHOCOLATE !!!","loc": {"type": "Point","coordinates": [103.82333,1.254658]}} 
{"id": "9283280045","server": "3756","farm": "4","userId": "66420192@N05","secret": "f62d64d38c","title": "IMG_2274","loc": {"type": "Point","coordinates": [103.821335,1.254666]}} 
{"id": "9283279935","server": "3690","farm": "4","userId": "66420192@N05","secret": "814e797d22","title": "IMG_2277","loc": {"type": "Point","coordinates": [103.82183,1.255166]}} 
{"id": "9286057272","server": "7445","farm": "8","userId": "66420192@N05","secret": "cfc0077534","title": "IMG_2273","loc": {"type": "Point","coordinates": [103.8215,1.254833]}} 
{"id": "9286058258","server": "3785","farm": "4","userId": "66420192@N05","secret": "e33de8688c","title": "IMG_2275","loc": {"type": "Point","coordinates": [103.821335,1.254666]}} 
{"id": "9272991115","server": "3785","farm": "4","userId": "9076863@N03","secret": "c0b359cd41","title": "Fan mode. Crush daw kasi ni @feistychick27 #streetboys #USS #tomsworld","loc": {"type": "Point","coordinates": [103.82156,1.254398]}} 
{"id": "9271156727","server": "3665","farm": "4","userId": "63067198@N03","secret": "93408a356e","title": "I want that shoes!!!","loc": {"type": "Point","coordinates": [103.82134,1.254739]}} 
{"id": "9269641044","server": "7456","farm": "8","userId": "63067198@N03","secret": "3e06e4dfbe","title": "Sentosa Aquarium","loc": {"type": "Point","coordinates": [103.82134,1.254739]}} 
{"id": "9269531728","server": "2823","farm": "3","userId": "63067198@N03","secret": "316ec4d25b","title": "Sentosa Aquarium","loc": {"type": "Point","coordinates": [103.82134,1.254739]}} 
{"id": "9269531606","server": "2845","farm": "3","userId": "63067198@N03","secret": "2b19cdf1c6","title": "Sentosa Aquarium","loc": {"type": "Point","coordinates": [103.82134,1.254739]}} 
{"id": "9269531162","server": "5550","farm": "6","userId": "63067198@N03","secret": "a5245c9670","title": "xong (43 of 65)","loc": {"type": "Point","coordinates": [103.82134,1.254739]}} 
{"id": "9269531330","server": "3703","farm": "4","userId": "63067198@N03","secret": "39f7cd8724","title": "Sentosa Aquarium","loc": {"type": "Point","coordinates": [103.82134,1.254739]}} 
{"id": "9269531474","server": "5547","farm": "6","userId": "63067198@N03","secret": "62eae51263","title": "Sentosa Aquarium","loc": {"type": "Point","coordinates": [103.82134,1.254739]}} 
{"id": "9269531256","server": "5519","farm": "6","userId": "63067198@N03","secret": "e8d66cfdf1","title": "Sentosa Aquarium","loc": {"type": "Point","coordinates": [103.82134,1.254739]}} 
{"id": "9266527391","server": "7340","farm": "8","userId": "63067198@N03","secret": "82c2cb72e1","title": "Sentosa Aquarium","loc": {"type": "Point","coordinates": [103.82134,1.254739]}} 
{"id": "9268902890","server": "5462","farm": "6","userId": "10300606@N06","secret": "1780189b00","title": "Phải chi...có thể quay lại!!! :) #CáRo #thepast","loc": {"type": "Point","coordinates": [103.822044,1.25522]}} 
{"id": "9264471440","server": "7332","farm": "8","userId": "97705734@N02","secret": "8e3e0af312","title": "IMAG1140","loc": {"type": "Point","coordinates": [103.82381,1.254663]}} 
{"id": "9238211240","server": "7365","farm": "8","userId": "48784929@N03","secret": "77b6e66410","title": "Being 7 is pretty #rad, right @kaiasays?! #365/189","loc": {"type": "Point","coordinates": [103.82286,1.25543]}} 
{"id": "9232538774","server": "2873","farm": "3","userId": "39807435@N08","secret": "0cfd11d529","title": "#uss #universalstudiosingapore #singapore #webstagram #iphonesia #holiday #iphonegraphy #traveling #jj","loc": {"type": "Point","coordinates": [103.82136,1.25646]}} 
{"id": "9228786222","server": "3823","farm": "4","userId": "79808519@N04","secret": "227e5b9014","title": "The Big Globe","loc": {"type": "Point","coordinates": [103.82358,1.254143]}} 
{"id": "9213101439","server": "3668","farm": "4","userId": "48784929@N03","secret": "6c06c727fa","title": "Bye Universal Studios! See you again soon. #365/186","loc": {"type": "Point","coordinates": [103.82136,1.25646]}} 
{"id": "9212713557","server": "7352","farm": "8","userId": "48784929@N03","secret": "5cf9f457a8","title": "Pinocchio, I ain't telling you no lies! #365/186","loc": {"type": "Point","coordinates": [103.82306,1.255149]}} 
{"id": "9179805469","server": "3741","farm": "4","userId": "25563073@N02","secret": "00686cca5d","title": "You can never have too much #flowers Lol  #iphonegraphy #candid #guyswithstyle #tattoo #ink #muertos #rose","loc": {"type": "Point","coordinates": [103.821915,1.255177]}} 
{"id": "9179761695","server": "3809","farm": "4","userId": "25563073@N02","secret": "d1f1dbbe8e","title": "Marilyn's hot great legs! Where you can find big ass turkey legs!","loc": {"type": "Point","coordinates": [103.821915,1.255177]}} 
{"id": "9181928480","server": "5540","farm": "6","userId": "25563073@N02","secret": "67f5ca7a17","title": "#subway in #brooklyn","loc": {"type": "Point","coordinates": [103.82193,1.255095]}} 
{"id": "9175977200","server": "5446","farm": "6","userId": "58072194@N08","secret": "d7788f9172","title": "6_7","loc": {"type": "Point","coordinates": [103.8235,1.254666]}} 
{"id": "9173832576","server": "3703","farm": "4","userId": "27453075@N05","secret": "80d84496a0","title": "兩個小朋友都很有型","loc": {"type": "Point","coordinates": [103.82136,1.25646]}} 
{"id": "9165903573","server": "3761","farm": "4","userId": "98117121@N07","secret": "8a27cfd7ac","title": "Sesame street","loc": {"type": "Point","coordinates": [103.8215,1.255166]}} 
{"id": "9163197573","server": "7327","farm": "8","userId": "55531333@N08","secret": "f908ec290d","title": "film56-16","loc": {"type": "Point","coordinates": [103.82324,1.254347]}} 
{"id": "9165420552","server": "5470","farm": "6","userId": "55531333@N08","secret": "aedf13a374","title": "film56-15","loc": {"type": "Point","coordinates": [103.82324,1.254347]}} 
{"id": "9163198297","server": "7328","farm": "8","userId": "55531333@N08","secret": "52ae4a2dc4","title": "film56-17","loc": {"type": "Point","coordinates": [103.82324,1.254347]}} 
{"id": "9165419846","server": "7284","farm": "8","userId": "55531333@N08","secret": "75ba2a77d7","title": "film56-14","loc": {"type": "Point","coordinates": [103.82324,1.254347]}} 
{"id": "9163188421","server": "2830","farm": "3","userId": "55531333@N08","secret": "32273aaa12","title": "film54-24","loc": {"type": "Point","coordinates": [103.82324,1.254347]}} 
{"id": "9163152689","server": "7391","farm": "8","userId": "55531333@N08","secret": "d4678304f2","title": "film50-07","loc": {"type": "Point","coordinates": [103.82324,1.254347]}} 
{"id": "9165410874","server": "7329","farm": "8","userId": "55531333@N08","secret": "bfd7c155c9","title": "film54-23","loc": {"type": "Point","coordinates": [103.82324,1.254347]}} 
{"id": "9165368996","server": "3754","farm": "4","userId": "55531333@N08","secret": "1e342fca85","title": "film48-12","loc": {"type": "Point","coordinates": [103.82324,1.254347]}} 
{"id": "9163146597","server": "2857","farm": "3","userId": "55531333@N08","secret": "295506799e","title": "film48-15","loc": {"type": "Point","coordinates": [103.82324,1.254347]}} 
{"id": "9163142459","server": "3743","farm": "4","userId": "55531333@N08","secret": "d505beb76c","title": "film48-03","loc": {"type": "Point","coordinates": [103.82324,1.254347]}} 
{"id": "9163144019","server": "3690","farm": "4","userId": "55531333@N08","secret": "3114d5a634","title": "film48-07","loc": {"type": "Point","coordinates": [103.82324,1.254347]}} 
{"id": "9165366234","server": "7455","farm": "8","userId": "55531333@N08","secret": "02bc0a2661","title": "film48-04","loc": {"type": "Point","coordinates": [103.82324,1.254347]}} 
{"id": "9165364778","server": "7388","farm": "8","userId": "55531333@N08","secret": "d456079d85","title": "film48-01","loc": {"type": "Point","coordinates": [103.82324,1.254347]}} 
{"id": "9163145341","server": "7445","farm": "8","userId": "55531333@N08","secret": "09dd14c03a","title": "film48-11","loc": {"type": "Point","coordinates": [103.82324,1.254347]}} 
{"id": "9163144771","server": "7333","farm": "8","userId": "55531333@N08","secret": "cfe5c0fd2d","title": "film48-09","loc": {"type": "Point","coordinates": [103.82324,1.254347]}} 
{"id": "9162182291","server": "7393","farm": "8","userId": "24131681@N00","secret": "585b1749e2","title": "DSC00819","loc": {"type": "Point","coordinates": [103.82171,1.254063]}} 
{"id": "9162190623","server": "2875","farm": "3","userId": "24131681@N00","secret": "3262d319bb","title": "DSC00826","loc": {"type": "Point","coordinates": [103.82194,1.256075]}} 
{"id": "9162172819","server": "5443","farm": "6","userId": "24131681@N00","secret": "567013ecf9","title": "DSC00815","loc": {"type": "Point","coordinates": [103.82186,1.254047]}} 
{"id": "9162148319","server": "2877","farm": "3","userId": "24131681@N00","secret": "824825f35a","title": "DSC00794","loc": {"type": "Point","coordinates": [103.82217,1.253597]}} 
{"id": "9164379606","server": "5532","farm": "6","userId": "24131681@N00","secret": "bc6f13f968","title": "DSC00802","loc": {"type": "Point","coordinates": [103.82184,1.254002]}} 
{"id": "9162130557","server": "7347","farm": "8","userId": "24131681@N00","secret": "f4ef4e751a","title": "DSC00773","loc": {"type": "Point","coordinates": [103.823494,1.253697]}} 
{"id": "9162089533","server": "7381","farm": "8","userId": "24131681@N00","secret": "a75301ac7c","title": "DSC00752","loc": {"type": "Point","coordinates": [103.82313,1.255413]}} 
{"id": "9164337168","server": "3768","farm": "4","userId": "24131681@N00","secret": "7b5bbacb1d","title": "DSC00759","loc": {"type": "Point","coordinates": [103.823845,1.254005]}} 
{"id": "9164346362","server": "3818","farm": "4","userId": "24131681@N00","secret": "eaa97b73c5","title": "DSC00769","loc": {"type": "Point","coordinates": [103.823586,1.253722]}} 
{"id": "9164327344","server": "7370","farm": "8","userId": "24131681@N00","secret": "dc2264956f","title": "DSC00755","loc": {"type": "Point","coordinates": [103.82373,1.254844]}} 
{"id": "9155368715","server": "7460","farm": "8","userId": "40138859@N02","secret": "14cea968cb","title": "Invite to all-you-can-eat durian buffet.","loc": {"type": "Point","coordinates": [103.8209,1.25631]}} 
{"id": "9153076128","server": "2847","farm": "3","userId": "30456413@N00","secret": "385b3e996a","title": "Singapore","loc": {"type": "Point","coordinates": [103.824,1.254666]}} 
{"id": "9150845489","server": "7351","farm": "8","userId": "30456413@N00","secret": "5e290b0cdf","title": "Singapore","loc": {"type": "Point","coordinates": [103.824,1.254666]}} 
{"id": "9153067600","server": "2813","farm": "3","userId": "30456413@N00","secret": "60930eddc0","title": "Singapore","loc": {"type": "Point","coordinates": [103.824,1.254666]}} 
{"id": "9150854247","server": "7407","farm": "8","userId": "30456413@N00","secret": "a20b36688a","title": "Singapore","loc": {"type": "Point","coordinates": [103.824,1.254666]}} 
{"id": "9150857031","server": "3827","farm": "4","userId": "30456413@N00","secret": "f906e3dda3","title": "Singapore","loc": {"type": "Point","coordinates": [103.824,1.254666]}} 
{"id": "9153073342","server": "7412","farm": "8","userId": "30456413@N00","secret": "d9beddf6d5","title": "Singapore","loc": {"type": "Point","coordinates": [103.824,1.254666]}} 
{"id": "9152996662","server": "2890","farm": "3","userId": "30456413@N00","secret": "e05ac7b44c","title": "Singapore","loc": {"type": "Point","coordinates": [103.82367,1.254833]}} 
{"id": "9150694095","server": "7382","farm": "8","userId": "30456413@N00","secret": "5f36c7c380","title": "Singapore","loc": {"type": "Point","coordinates": [103.82166,1.256166]}} 
{"id": "9148768691","server": "7441","farm": "8","userId": "24989432@N06","secret": "c1ac252f1e","title": "Ok so who wants to get high this weekend? #IKnowAGuy #absinthe","loc": {"type": "Point","coordinates": [103.8209,1.25631]}} 
{"id": "9139082794","server": "5453","farm": "6","userId": "38909255@N03","secret": "edc1cec787","title": "Ang init naman. #universalstudiossingapore #sentosa #uss...","loc": {"type": "Point","coordinates": [103.82136,1.25646]}} 
{"id": "9139084096","server": "5536","farm": "6","userId": "38909255@N03","secret": "79f5e0bb85","title": "The nest #transformers","loc": {"type": "Point","coordinates": [103.82136,1.25646]}} 
{"id": "9132843590","server": "5456","farm": "6","userId": "12166501@N00","secret": "a836b5f2f0","title": "#rws","loc": {"type": "Point","coordinates": [103.8209,1.25631]}} 
{"id": "9107656694","server": "5484","farm": "6","userId": "91765621@N04","secret": "353839de8e","title": "","loc": {"type": "Point","coordinates": [103.8209,1.25631]}} 
{"id": "9093087385","server": "7460","farm": "8","userId": "61906471@N00","secret": "8f89ceaf3a","title": "Sentosa Island","loc": {"type": "Point","coordinates": [103.823204,1.254143]}} 
{"id": "9093088571","server": "5523","farm": "6","userId": "61906471@N00","secret": "3b8f63a1a8","title": "Sentosa Island - Universal Studio","loc": {"type": "Point","coordinates": [103.823204,1.254143]}} 
{"id": "9057228877","server": "3795","farm": "4","userId": "91327678@N06","secret": "f0af3fb9da","title": "Pretty good street performance here!","loc": {"type": "Point","coordinates": [103.82136,1.25646]}} 
{"id": "9048950402","server": "2814","farm": "3","userId": "30684698@N02","secret": "8fb71de396","title": "Extreme Universal Gang! เล่นทุกอย่าง ลองทุกเครื่องเล่น ดูทุกโชว์ จนลืมกินข้าว...","loc": {"type": "Point","coordinates": [103.82136,1.25646]}} 
{"id": "9048946406","server": "5524","farm": "6","userId": "30684698@N02","secret": "72eea9c7d6","title": "Extreme Universal Gang! เล่นทุกอย่าง ลองทุกเครื่องเล่น ดูทุกโชว์ จนลืมกินข้าว...","loc": {"type": "Point","coordinates": [103.82136,1.25646]}} 
{"id": "9045972183","server": "5535","farm": "6","userId": "30684698@N02","secret": "17c4ab13ca","title": "with Shrek","loc": {"type": "Point","coordinates": [103.82378,1.254768]}} 
{"id": "9048192250","server": "5473","farm": "6","userId": "30684698@N02","secret": "32f4b28c7e","title": "with Shrek","loc": {"type": "Point","coordinates": [103.82378,1.254768]}} 
{"id": "9048067044","server": "3825","farm": "4","userId": "93492589@N07","secret": "df786d2032","title": "Singapore (My 29th) 7-10/06/13-77","loc": {"type": "Point","coordinates": [103.82166,1.255166]}} 
{"id": "9048068184","server": "5453","farm": "6","userId": "93492589@N07","secret": "86a91e28fd","title": "Singapore (My 29th) 7-10/06/13-78","loc": {"type": "Point","coordinates": [103.82166,1.255166]}} 
{"id": "9048070888","server": "7458","farm": "8","userId": "93492589@N07","secret": "fec8d5b044","title": "Singapore (My 29th) 7-10/06/13-80","loc": {"type": "Point","coordinates": [103.82166,1.255166]}} 
{"id": "9045839477","server": "5462","farm": "6","userId": "93492589@N07","secret": "eee1c5a2e4","title": "Singapore (My 29th) 7-10/06/13-75","loc": {"type": "Point","coordinates": [103.82166,1.255166]}} 
{"id": "9048069656","server": "7346","farm": "8","userId": "93492589@N07","secret": "354cf0e707","title": "Singapore (My 29th) 7-10/06/13-79","loc": {"type": "Point","coordinates": [103.82166,1.255166]}} 
{"id": "9045819817","server": "3707","farm": "4","userId": "93492589@N07","secret": "0937b56b4e","title": "Singapore (My 29th) 7-10/06/13-58","loc": {"type": "Point","coordinates": [103.82166,1.255166]}} 
{"id": "9048024268","server": "2852","farm": "3","userId": "93492589@N07","secret": "1b06977f6f","title": "Singapore (My 29th) 7-10/06/13-42","loc": {"type": "Point","coordinates": [103.82166,1.255166]}} 
{"id": "9048028318","server": "5530","farm": "6","userId": "93492589@N07","secret": "6ee90b6462","title": "Singapore (My 29th) 7-10/06/13-45","loc": {"type": "Point","coordinates": [103.82166,1.255166]}} 
{"id": "9045823151","server": "3712","farm": "4","userId": "93492589@N07","secret": "4175ed4699","title": "Singapore (My 29th) 7-10/06/13-61","loc": {"type": "Point","coordinates": [103.82166,1.255166]}} 
{"id": "9045826627","server": "5483","farm": "6","userId": "93492589@N07","secret": "4372bf24cf","title": "Singapore (My 29th) 7-10/06/13-64","loc": {"type": "Point","coordinates": [103.82166,1.255166]}} 
{"id": "9045835739","server": "7319","farm": "8","userId": "93492589@N07","secret": "f8220cae3a","title": "Singapore (My 29th) 7-10/06/13-72","loc": {"type": "Point","coordinates": [103.82166,1.255166]}} 
{"id": "9045807315","server": "5493","farm": "6","userId": "93492589@N07","secret": "2228d30a14","title": "Singapore (My 29th) 7-10/06/13-48","loc": {"type": "Point","coordinates": [103.82166,1.255166]}} 
{"id": "9045832039","server": "7420","farm": "8","userId": "93492589@N07","secret": "c945ba904d","title": "Singapore (My 29th) 7-10/06/13-69","loc": {"type": "Point","coordinates": [103.82166,1.255166]}} 
{"id": "9048043702","server": "7356","farm": "8","userId": "93492589@N07","secret": "68c02c15d9","title": "Singapore (My 29th) 7-10/06/13-57","loc": {"type": "Point","coordinates": [103.82166,1.255166]}} 
{"id": "9045794945","server": "5343","farm": "6","userId": "93492589@N07","secret": "ac4430e816","title": "Singapore (My 29th) 7-10/06/13-39","loc": {"type": "Point","coordinates": [103.82166,1.255166]}} 
{"id": "9045824263","server": "2841","farm": "3","userId": "93492589@N07","secret": "a147d1fd19","title": "Singapore (My 29th) 7-10/06/13-62","loc": {"type": "Point","coordinates": [103.82166,1.255166]}} 
{"id": "9048041540","server": "3671","farm": "4","userId": "93492589@N07","secret": "e8cbf7e054","title": "Singapore (My 29th) 7-10/06/13-55","loc": {"type": "Point","coordinates": [103.82166,1.255166]}} 
{"id": "9048042626","server": "2860","farm": "3","userId": "93492589@N07","secret": "2af8fb7042","title": "Singapore (My 29th) 7-10/06/13-56","loc": {"type": "Point","coordinates": [103.82166,1.255166]}} 
{"id": "9045814119","server": "3749","farm": "4","userId": "93492589@N07","secret": "1ffa9a3ef6","title": "Singapore (My 29th) 7-10/06/13-53","loc": {"type": "Point","coordinates": [103.82166,1.255166]}} 
{"id": "9045793431","server": "3709","farm": "4","userId": "93492589@N07","secret": "f4dde11939","title": "Singapore (My 29th) 7-10/06/13-38","loc": {"type": "Point","coordinates": [103.82166,1.255166]}} 
{"id": "9048022722","server": "7416","farm": "8","userId": "93492589@N07","secret": "9c3b4f1c10","title": "Singapore (My 29th) 7-10/06/13-41","loc": {"type": "Point","coordinates": [103.82166,1.255166]}} 
{"id": "9048055550","server": "3743","farm": "4","userId": "93492589@N07","secret": "51e0b12190","title": "Singapore (My 29th) 7-10/06/13-67","loc": {"type": "Point","coordinates": [103.82166,1.255166]}} 
{"id": "9048036320","server": "5545","farm": "6","userId": "93492589@N07","secret": "653d17646d","title": "Singapore (My 29th) 7-10/06/13-51","loc": {"type": "Point","coordinates": [103.82166,1.255166]}} 
{"id": "9045815281","server": "2849","farm": "3","userId": "93492589@N07","secret": "4d85764608","title": "Singapore (My 29th) 7-10/06/13-54","loc": {"type": "Point","coordinates": [103.82166,1.255166]}} 
{"id": "9045800699","server": "3788","farm": "4","userId": "93492589@N07","secret": "8e2d3b7de3","title": "Singapore (My 29th) 7-10/06/13-43","loc": {"type": "Point","coordinates": [103.82166,1.255166]}} 
{"id": "9048058018","server": "7390","farm": "8","userId": "93492589@N07","secret": "84640ddbfa","title": "Singapore (My 29th) 7-10/06/13-70","loc": {"type": "Point","coordinates": [103.82166,1.255166]}} 
{"id": "9045804833","server": "7291","farm": "8","userId": "93492589@N07","secret": "a8caf00321","title": "Singapore (My 29th) 7-10/06/13-46","loc": {"type": "Point","coordinates": [103.82166,1.255166]}} 
{"id": "9048047126","server": "3711","farm": "4","userId": "93492589@N07","secret": "0b4f51928b","title": "Singapore (My 29th) 7-10/06/13-60","loc": {"type": "Point","coordinates": [103.82166,1.255166]}} 
{"id": "9045829439","server": "3728","farm": "4","userId": "93492589@N07","secret": "74b4e5c146","title": "Singapore (My 29th) 7-10/06/13-66","loc": {"type": "Point","coordinates": [103.82166,1.255166]}} 
{"id": "9045808619","server": "2859","farm": "3","userId": "93492589@N07","secret": "79d3c112c4","title": "Singapore (My 29th) 7-10/06/13-49","loc": {"type": "Point","coordinates": [103.82166,1.255166]}} 
{"id": "9045834563","server": "3715","farm": "4","userId": "93492589@N07","secret": "b9f9e9fe81","title": "Singapore (My 29th) 7-10/06/13-71","loc": {"type": "Point","coordinates": [103.82166,1.255166]}} 
{"id": "9048052926","server": "5481","farm": "6","userId": "93492589@N07","secret": "4ee3101c55","title": "Singapore (My 29th) 7-10/06/13-65","loc": {"type": "Point","coordinates": [103.82166,1.255166]}} 
{"id": "9045838139","server": "5526","farm": "6","userId": "93492589@N07","secret": "af643cbb58","title": "Singapore (My 29th) 7-10/06/13-74","loc": {"type": "Point","coordinates": [103.82166,1.255166]}} 
{"id": "9045820943","server": "2839","farm": "3","userId": "93492589@N07","secret": "42eef9bc91","title": "Singapore (My 29th) 7-10/06/13-59","loc": {"type": "Point","coordinates": [103.82166,1.255166]}} 
{"id": "9048003412","server": "2817","farm": "3","userId": "93492589@N07","secret": "a4e678cca2","title": "Singapore (My 29th) 7-10/06/13-22","loc": {"type": "Point","coordinates": [103.822,1.253666]}} 
{"id": "9045772195","server": "2888","farm": "3","userId": "93492589@N07","secret": "de479cd9a4","title": "Singapore (My 29th) 7-10/06/13-17","loc": {"type": "Point","coordinates": [103.822,1.255333]}} 
{"id": "9048000842","server": "3813","farm": "4","userId": "93492589@N07","secret": "326a418dbb","title": "Singapore (My 29th) 7-10/06/13-20","loc": {"type": "Point","coordinates": [103.822,1.253666]}} 
{"id": "9045773373","server": "5332","farm": "6","userId": "93492589@N07","secret": "766e489820","title": "Singapore (My 29th) 7-10/06/13-18","loc": {"type": "Point","coordinates": [103.822,1.255333]}} 
{"id": "9048009010","server": "3798","farm": "4","userId": "93492589@N07","secret": "2ee8da4b3a","title": "Singapore (My 29th) 7-10/06/13-29","loc": {"type": "Point","coordinates": [103.82217,1.253666]}} 
{"id": "9047999822","server": "3787","farm": "4","userId": "93492589@N07","secret": "c352f282bd","title": "Singapore (My 29th) 7-10/06/13-19","loc": {"type": "Point","coordinates": [103.822,1.255333]}} 
{"id": "9047992318","server": "3787","farm": "4","userId": "93492589@N07","secret": "7667893629","title": "Singapore (My 29th) 7-10/06/13-13","loc": {"type": "Point","coordinates": [103.82217,1.2555]}} 
{"id": "9047984768","server": "7353","farm": "8","userId": "93492589@N07","secret": "547925ef25","title": "Singapore (My 29th) 7-10/06/13-7","loc": {"type": "Point","coordinates": [103.8215,1.254666]}} 
{"id": "9047987166","server": "3806","farm": "4","userId": "93492589@N07","secret": "96e05b3f4d","title": "Singapore (My 29th) 7-10/06/13-9","loc": {"type": "Point","coordinates": [103.82117,1.254333]}} 
{"id": "9045762665","server": "7291","farm": "8","userId": "93492589@N07","secret": "2350d0d0c7","title": "Singapore (My 29th) 7-10/06/13-10","loc": {"type": "Point","coordinates": [103.822,1.2555]}} 
{"id": "9045781479","server": "2890","farm": "3","userId": "93492589@N07","secret": "13a307080e","title": "Singapore (My 29th) 7-10/06/13-25","loc": {"type": "Point","coordinates": [103.822,1.253666]}} 
{"id": "9048004446","server": "2855","farm": "3","userId": "93492589@N07","secret": "1b6af13cf5","title": "Singapore (My 29th) 7-10/06/13-23","loc": {"type": "Point","coordinates": [103.822,1.253666]}} 
{"id": "9045786697","server": "3689","farm": "4","userId": "93492589@N07","secret": "3ab92a1665","title": "Singapore (My 29th) 7-10/06/13-32","loc": {"type": "Point","coordinates": [103.822334,1.253666]}} 
{"id": "9047989650","server": "3697","farm": "4","userId": "93492589@N07","secret": "588f35ddce","title": "Singapore (My 29th) 7-10/06/13-11","loc": {"type": "Point","coordinates": [103.822,1.2555]}} 
{"id": "9048009964","server": "5511","farm": "6","userId": "93492589@N07","secret": "a3b067d4fd","title": "Singapore (My 29th) 7-10/06/13-30","loc": {"type": "Point","coordinates": [103.82217,1.253666]}} 
{"id": "9048010908","server": "2851","farm": "3","userId": "93492589@N07","secret": "15a920115c","title": "Singapore (My 29th) 7-10/06/13-31","loc": {"type": "Point","coordinates": [103.82217,1.253666]}} 
{"id": "9048016524","server": "2843","farm": "3","userId": "93492589@N07","secret": "fc5fa54d70","title": "Singapore (My 29th) 7-10/06/13-36","loc": {"type": "Point","coordinates": [103.82166,1.255166]}} 
{"id": "9048014250","server": "7304","farm": "8","userId": "93492589@N07","secret": "d5c6781fe2","title": "Singapore (My 29th) 7-10/06/13-34","loc": {"type": "Point","coordinates": [103.82166,1.254833]}} 
{"id": "9047995230","server": "7326","farm": "8","userId": "93492589@N07","secret": "a28d151465","title": "Singapore (My 29th) 7-10/06/13-15","loc": {"type": "Point","coordinates": [103.822,1.255333]}} 
{"id": "9047983696","server": "7451","farm": "8","userId": "93492589@N07","secret": "97645e23b8","title": "Singapore (My 29th) 7-10/06/13-6","loc": {"type": "Point","coordinates": [103.8215,1.254666]}} 
{"id": "9045771011","server": "7426","farm": "8","userId": "93492589@N07","secret": "e0e442f449","title": "Singapore (My 29th) 7-10/06/13-16","loc": {"type": "Point","coordinates": [103.822,1.2555]}} 
{"id": "9047991006","server": "5532","farm": "6","userId": "93492589@N07","secret": "25a1e2a275","title": "Singapore (My 29th) 7-10/06/13-12","loc": {"type": "Point","coordinates": [103.822,1.2555]}} 
{"id": "9045792277","server": "2851","farm": "3","userId": "93492589@N07","secret": "cc4c5f24f3","title": "Singapore (My 29th) 7-10/06/13-37","loc": {"type": "Point","coordinates": [103.82166,1.255166]}} 
{"id": "9045787847","server": "7282","farm": "8","userId": "93492589@N07","secret": "f33fba33a4","title": "Singapore (My 29th) 7-10/06/13-33","loc": {"type": "Point","coordinates": [103.82166,1.254833]}} 
{"id": "9045029299","server": "5519","farm": "6","userId": "93492589@N07","secret": "733dc92b1c","title": "Last Import-2","loc": {"type": "Point","coordinates": [103.82217,1.253666]}} 
{"id": "9045034041","server": "7342","farm": "8","userId": "93492589@N07","secret": "0db37e0a82","title": "Last Import-6","loc": {"type": "Point","coordinates": [103.82166,1.255166]}} 
{"id": "9047257076","server": "7292","farm": "8","userId": "93492589@N07","secret": "f3f32befe8","title": "Last Import-5","loc": {"type": "Point","coordinates": [103.82166,1.255166]}} 
{"id": "9047259434","server": "3701","farm": "4","userId": "93492589@N07","secret": "bcacea82e9","title": "Last Import-7","loc": {"type": "Point","coordinates": [103.82166,1.255166]}} 
{"id": "9047262146","server": "3710","farm": "4","userId": "93492589@N07","secret": "6c35b86b1d","title": "Last Import-9","loc": {"type": "Point","coordinates": [103.82166,1.255166]}} 
{"id": "9047252392","server": "5350","farm": "6","userId": "93492589@N07","secret": "89f68afb1e","title": "Last Import-1","loc": {"type": "Point","coordinates": [103.82217,1.253666]}} 
{"id": "9047254586","server": "2832","farm": "3","userId": "93492589@N07","secret": "11eaafc277","title": "Last Import-3","loc": {"type": "Point","coordinates": [103.82166,1.254833]}} 
{"id": "9045036547","server": "7445","farm": "8","userId": "93492589@N07","secret": "ca6def4dbc","title": "Last Import-8","loc": {"type": "Point","coordinates": [103.82166,1.255166]}} 
{"id": "9047210148","server": "2829","farm": "3","userId": "30684698@N02","secret": "aceb97cb75","title": "Let's Fun!!!","loc": {"type": "Point","coordinates": [103.82136,1.25646]}} 
{"id": "8996512581","server": "8403","farm": "9","userId": "54530665@N08","secret": "feed0cfe7d","title": "Time to see reality #weekend over  #sg #singapore #travel #jurassicpark #jurassic #picoftheday #followtofollow #bestoftheday #lovely #me #ios #iphone #instapic #universal #studios #universalstudios","loc": {"type": "Point","coordinates": [103.82391,1.253776]}} 
{"id": "8993794637","server": "3774","farm": "4","userId": "69379954@N08","secret": "f0eceb871d","title": "Tired","loc": {"type": "Point","coordinates": [103.821815,1.25561]}} 
{"id": "8973207600","server": "3677","farm": "4","userId": "94460638@N08","secret": "b815d58b23","title": "Fun of us","loc": {"type": "Point","coordinates": [103.823,1.253833]}} 
{"id": "8972015379","server": "5444","farm": "6","userId": "94460638@N08","secret": "3715212f80","title": "Fun of us","loc": {"type": "Point","coordinates": [103.82383,1.2545]}} 
{"id": "8966357637","server": "7426","farm": "8","userId": "94346589@N03","secret": "067663c9fc","title": "#instaplace #instaplaceapp #instagood #photooftheday #instamood #picoftheday #instadaily #photo  #instacool #instapic #picture #pic @instaplacemobi #place #earth #world  #singapore #SG #sentosa #goldilocks@universalstudios #food #foodporn #restaurant #str","loc": {"type": "Point","coordinates": [103.82387,1.254699]}} 
{"id": "8967563090","server": "3689","farm": "4","userId": "94346589@N03","secret": "776a81ae8d","title": "(Made with #NoCrop) #dessert #ben&jerry #chocolatefudgebrownie","loc": {"type": "Point","coordinates": [103.824104,1.254622]}} 
{"id": "8965742101","server": "2874","farm": "3","userId": "94346589@N03","secret": "602e6b7136","title": "While #waiting","loc": {"type": "Point","coordinates": [103.823685,1.254894]}} 
{"id": "8966364772","server": "7420","farm": "8","userId": "94346589@N03","secret": "af56c84b8b","title": "#instaplace #instaplaceapp #instagood #photooftheday #instamood #picoftheday #instadaily #photo #instacool #instapic #picture #pic @instaplacemobi #place #earth #world  #singapore #SG #sentosa #madagaskarattraction #art #zoo #street #day","loc": {"type": "Point","coordinates": [103.8231,1.255861]}} 
{"id": "8966323004","server": "5343","farm": "6","userId": "94346589@N03","secret": "855ef87c41","title": "upload","loc": {"type": "Point","coordinates": [103.82136,1.25646]}} 
{"id": "8966256216","server": "5340","farm": "6","userId": "94346589@N03","secret": "8277472d53","title": "#instaplace #instaplaceapp #instagood #photooftheday #instamood #picoftheday #instadaily #photo #instacool #instapic #picture #pic @instaplacemobi #place #earth #world  #singapore #SG #sentosa #universalstudiossingapore #art #street #day","loc": {"type": "Point","coordinates": [103.82136,1.25646]}} 
{"id": "8965007173","server": "3693","farm": "4","userId": "94346589@N03","secret": "5602fb4bf0","title": "Yeape...","loc": {"type": "Point","coordinates": [103.82136,1.25646]}} 
{"id": "8924017443","server": "2890","farm": "3","userId": "83592540@N07","secret": "6f2b8a32e3","title": "Mixed Photo in Singapore","loc": {"type": "Point","coordinates": [103.821,1.256333]}} 
{"id": "8924625650","server": "5469","farm": "6","userId": "83592540@N07","secret": "2ecdca0076","title": "Mixed Photo in Singapore","loc": {"type": "Point","coordinates": [103.82117,1.256333]}} 
{"id": "8923587536","server": "7303","farm": "8","userId": "27193031@N05","secret": "347ce7b410","title": "IMG_0547","loc": {"type": "Point","coordinates": [103.82273,1.253757]}} 
{"id": "8898779371","server": "7434","farm": "8","userId": "94317876@N03","secret": "1aa7197711","title": "IMAG0578","loc": {"type": "Point","coordinates": [103.82214,1.255452]}} 
{"id": "8898776031","server": "8552","farm": "9","userId": "94317876@N03","secret": "3144203eac","title": "IMAG0576","loc": {"type": "Point","coordinates": [103.82201,1.255283]}} 
{"id": "8899385976","server": "2869","farm": "3","userId": "94317876@N03","secret": "2abba22213","title": "IMAG0573","loc": {"type": "Point","coordinates": [103.821724,1.254161]}} 
{"id": "8898777945","server": "8125","farm": "9","userId": "94317876@N03","secret": "b5319eed3e","title": "IMAG0577","loc": {"type": "Point","coordinates": [103.82218,1.255469]}} 
{"id": "8899388866","server": "7361","farm": "8","userId": "94317876@N03","secret": "5155a82b02","title": "IMAG0575","loc": {"type": "Point","coordinates": [103.82227,1.255436]}} 
{"id": "8899332336","server": "3688","farm": "4","userId": "94317876@N03","secret": "37fc7e2fea","title": "IMAG0567","loc": {"type": "Point","coordinates": [103.822075,1.254894]}} 
{"id": "8898713121","server": "3703","farm": "4","userId": "94317876@N03","secret": "bffaefdccf","title": "IMAG0560","loc": {"type": "Point","coordinates": [103.823906,1.254555]}} 
{"id": "8899330580","server": "7409","farm": "8","userId": "94317876@N03","secret": "b7a50b723f","title": "IMAG0561","loc": {"type": "Point","coordinates": [103.82379,1.2549]}} 
{"id": "8870138122","server": "7291","farm": "8","userId": "91323720@N04","secret": "0fbc5069ca","title": "Looking on you","loc": {"type": "Point","coordinates": [103.82316,1.254486]}} 
{"id": "8864262360","server": "3819","farm": "4","userId": "54530665@N08","secret": "a94e1a817b","title": "Transformers one of the best days after soo long  #sg #sunny #travel #transformers #singapore #lovely #love #picoftheday #bestoftheday #ios #iphone #instagramers #ootd #asian #fun #robots #optimus #prime","loc": {"type": "Point","coordinates": [103.82183,1.254395]}} 
{"id": "8863368355","server": "7418","farm": "8","userId": "52407560@N00","secret": "c675a7dbb2","title": "Because we need to be inspired by tomorrow ;)","loc": {"type": "Point","coordinates": [103.82136,1.25646]}} 
{"id": "8863266603","server": "5335","farm": "6","userId": "52407560@N00","secret": "b74926cb81","title": "An empty universal studios. I am so fucking happy right now.","loc": {"type": "Point","coordinates": [103.82257,1.255606]}} 
{"id": "8861960780","server": "7362","farm": "8","userId": "54530665@N08","secret": "f2f0325eb6","title": "I like to move it,move it  You like to ('move it')  #me #singapore #madagascar #moveit #cartool #sg #universalstudios #travel #today #fun #awesome #awesomeplaces #bestoftheday #picoftheday #ios #iphone #instagrammers #funny #creative #pose #sunny #life","loc": {"type": "Point","coordinates": [103.82286,1.25543]}} 
{"id": "8841427799","server": "7414","farm": "8","userId": "8870193@N03","secret": "8e4d7cff49","title": "Will never get sick of riding this baby. #AdrenalineIsMyThing #USS","loc": {"type": "Point","coordinates": [103.82136,1.25646]}} 
{"id": "8841225197","server": "3707","farm": "4","userId": "8870193@N03","secret": "663a704885","title": "It's like I went to Camp Giza and Camp Magma again hahaha #USS","loc": {"type": "Point","coordinates": [103.82136,1.25646]}} 
{"id": "8831655118","server": "5465","farm": "6","userId": "79102856@N00","secret": "d193bd1bbd","title": "Wedding/Honeymoon","loc": {"type": "Point","coordinates": [103.82383,1.254833]}} 
{"id": "8817590051","server": "2876","farm": "3","userId": "79102856@N00","secret": "c3e399f3fc","title": "Wedding/Honeymoon","loc": {"type": "Point","coordinates": [103.82383,1.254666]}} 
{"id": "8817589165","server": "5330","farm": "6","userId": "79102856@N00","secret": "5f4df92497","title": "Wedding/Honeymoon","loc": {"type": "Point","coordinates": [103.82166,1.256166]}} 
{"id": "8817590963","server": "3732","farm": "4","userId": "79102856@N00","secret": "650a18004d","title": "Wedding/Honeymoon","loc": {"type": "Point","coordinates": [103.8215,1.255]}} 
{"id": "8825316062","server": "5455","farm": "6","userId": "45145143@N08","secret": "97ac262022","title": "18","loc": {"type": "Point","coordinates": [103.8224,1.254413]}} 
{"id": "8814751471","server": "5341","farm": "6","userId": "45145143@N08","secret": "c2e7ecd220","title": "11","loc": {"type": "Point","coordinates": [103.82133,1.254722]}} 
{"id": "8825365372","server": "8128","farm": "9","userId": "45145143@N08","secret": "41bdc8c8d7","title": "6","loc": {"type": "Point","coordinates": [103.82312,1.254227]}} 
{"id": "8825335970","server": "8552","farm": "9","userId": "45145143@N08","secret": "d52cd0ed5d","title": "12","loc": {"type": "Point","coordinates": [103.82139,1.254741]}} 
{"id": "8825324780","server": "3698","farm": "4","userId": "45145143@N08","secret": "3b596c8b5e","title": "16","loc": {"type": "Point","coordinates": [103.82185,1.254902]}} 
{"id": "8825387332","server": "3704","farm": "4","userId": "45145143@N08","secret": "bba97bff4c","title": "1","loc": {"type": "Point","coordinates": [103.82371,1.25475]}} 
{"id": "8756126067","server": "5464","farm": "6","userId": "36055891@N08","secret": "d017a02f99","title": "Yesss! We're here!!! #sentosa #singapore #uss #universalstudios #costasands #pinoysg #amazing #roadtrip #tourist #iloilo #albay #cebu #manila #instaplace #staycation #beach #siloso","loc": {"type": "Point","coordinates": [103.8209,1.25631]}} 
{"id": "8750632646","server": "7354","farm": "8","userId": "51854834@N00","secret": "105a39806b","title": "Because of this I am now under arrest.","loc": {"type": "Point","coordinates": [103.82136,1.25646]}} 
{"id": "8627286589","server": "8102","farm": "9","userId": "66919430@N00","secret": "ccb2afa9ed","title": "The Kungfu Panda","loc": {"type": "Point","coordinates": [103.823784,1.254927]}} 
{"id": "8614208340","server": "8117","farm": "9","userId": "24455170@N03","secret": "223e467519","title": "IMG_0757","loc": {"type": "Point","coordinates": [103.823975,1.254505]}} 
{"id": "8614208268","server": "8261","farm": "9","userId": "24455170@N03","secret": "efa1bd86c6","title": "IMG_0764","loc": {"type": "Point","coordinates": [103.823166,1.255827]}} 
{"id": "8611174328","server": "8253","farm": "9","userId": "21603194@N06","secret": "be8f369e63","title": "The Universal Studios in Singapore","loc": {"type": "Point","coordinates": [103.82329,1.255259]}} 
{"id": "8609971901","server": "8384","farm": "9","userId": "21603194@N06","secret": "505fa1d4dc","title": "The Universal Studios in Singapore","loc": {"type": "Point","coordinates": [103.82329,1.255259]}} 
{"id": "8606494976","server": "8249","farm": "9","userId": "14932826@N05","secret": "621ef2ee9d","title": "the taste of Singapore /3","loc": {"type": "Point","coordinates": [103.821945,1.255945]}} 
{"id": "8554547032","server": "8370","farm": "9","userId": "24455170@N03","secret": "e7f46417dd","title": "Парк был почти пустой, очередей на аттракционы вообще не было.. Всегда бы так..","loc": {"type": "Point","coordinates": [103.82375,1.254518]}} 
{"id": "8553414987","server": "8391","farm": "9","userId": "24455170@N03","secret": "852ed3f96d","title": "say hi!","loc": {"type": "Point","coordinates": [103.82375,1.254518]}} 
{"id": "8519954761","server": "8086","farm": "9","userId": "87803880@N07","secret": "139927a89f","title": "yalgashgui","loc": {"type": "Point","coordinates": [103.8209,1.25631]}} 
{"id": "8814761103","server": "7295","farm": "8","userId": "45145143@N08","secret": "4406dca36d","title": "9","loc": {"type": "Point","coordinates": [103.82284,1.253747]}} 
{"id": "8825344962","server": "7388","farm": "8","userId": "45145143@N08","secret": "245ed5a36e","title": "10","loc": {"type": "Point","coordinates": [103.821304,1.254719]}} 
{"id": "8825375790","server": "2832","farm": "3","userId": "45145143@N08","secret": "b9f20855cb","title": "4","loc": {"type": "Point","coordinates": [103.823425,1.253761]}} 
{"id": "8814723493","server": "5329","farm": "6","userId": "45145143@N08","secret": "13344d7a40","title": "19","loc": {"type": "Point","coordinates": [103.82225,1.25563]}} 
{"id": "8825329352","server": "5454","farm": "6","userId": "45145143@N08","secret": "060c0712d1","title": "15","loc": {"type": "Point","coordinates": [103.82157,1.254766]}} 
{"id": "8825110980","server": "5457","farm": "6","userId": "45145143@N08","secret": "abf18fa7ba","title": "26","loc": {"type": "Point","coordinates": [103.82135,1.254486]}} 
{"id": "8825154488","server": "3753","farm": "4","userId": "45145143@N08","secret": "5eb436dfa1","title": "13","loc": {"type": "Point","coordinates": [103.82156,1.254447]}} 
{"id": "8814518231","server": "7360","farm": "8","userId": "45145143@N08","secret": "61840a9f48","title": "27","loc": {"type": "Point","coordinates": [103.821304,1.254477]}} 
{"id": "8814526009","server": "7298","farm": "8","userId": "45145143@N08","secret": "8045b5dd9b","title": "25","loc": {"type": "Point","coordinates": [103.82138,1.254366]}} 
{"id": "8814551881","server": "8271","farm": "9","userId": "45145143@N08","secret": "d7ea32df51","title": "17","loc": {"type": "Point","coordinates": [103.82136,1.254361]}} 
{"id": "8814599013","server": "7323","farm": "8","userId": "45145143@N08","secret": "7ec2e36b52","title": "4","loc": {"type": "Point","coordinates": [103.82122,1.254411]}} 
{"id": "8814515323","server": "3790","farm": "4","userId": "45145143@N08","secret": "1b5128ec1d","title": "28","loc": {"type": "Point","coordinates": [103.82115,1.254436]}} 
{"id": "8825196516","server": "7345","farm": "8","userId": "45145143@N08","secret": "7d7deded03","title": "2","loc": {"type": "Point","coordinates": [103.82151,1.254391]}} 
{"id": "8814586919","server": "7356","farm": "8","userId": "45145143@N08","secret": "21abbe69fb","title": "8","loc": {"type": "Point","coordinates": [103.82141,1.254333]}} 
{"id": "8814558479","server": "5347","farm": "6","userId": "45145143@N08","secret": "65e5579912","title": "15","loc": {"type": "Point","coordinates": [103.82126,1.254416]}} 
{"id": "8825262618","server": "7342","farm": "8","userId": "45145143@N08","secret": "b99e7d101b","title": "1","loc": {"type": "Point","coordinates": [103.824135,1.254183]}} 
{"id": "8814532779","server": "3819","farm": "4","userId": "45145143@N08","secret": "49a7b755ed","title": "23","loc": {"type": "Point","coordinates": [103.82126,1.254361]}} 
{"id": "8814535915","server": "5455","farm": "6","userId": "45145143@N08","secret": "bec32497e8","title": "22","loc": {"type": "Point","coordinates": [103.821495,1.25438]}} 
{"id": "8814547521","server": "7309","farm": "8","userId": "45145143@N08","secret": "24e4e5ff07","title": "18","loc": {"type": "Point","coordinates": [103.82138,1.254338]}} 
{"id": "8814669931","server": "7297","farm": "8","userId": "45145143@N08","secret": "3c5958a384","title": "2","loc": {"type": "Point","coordinates": [103.82582,1.253402]}} 
{"id": "8825181622","server": "7319","farm": "8","userId": "45145143@N08","secret": "7b10506c01","title": "6","loc": {"type": "Point","coordinates": [103.82165,1.254219]}} 
{"id": "8814609293","server": "5335","farm": "6","userId": "45145143@N08","secret": "324487d675","title": "1","loc": {"type": "Point","coordinates": [103.822105,1.254536]}} 
{"id": "8825099516","server": "3678","farm": "4","userId": "45145143@N08","secret": "e040ddcc40","title": "30","loc": {"type": "Point","coordinates": [103.82108,1.25438]}} 
{"id": "8814579133","server": "7413","farm": "8","userId": "45145143@N08","secret": "b7ffd450f5","title": "10","loc": {"type": "Point","coordinates": [103.82133,1.254313]}} 
{"id": "8825152068","server": "5446","farm": "6","userId": "45145143@N08","secret": "f384376cb7","title": "14","loc": {"type": "Point","coordinates": [103.821396,1.25443]}} 
{"id": "8814529297","server": "5461","farm": "6","userId": "45145143@N08","secret": "9e2efca78b","title": "24","loc": {"type": "Point","coordinates": [103.82114,1.254411]}} 
{"id": "8810664363","server": "3743","farm": "4","userId": "54530665@N08","secret": "fb8ba26a03","title": "Here I am universal studio #singapore #uss #bestofheday #picoftheday #asia #apple #amazing #universalstudio #awesome #love #ios #iphone #iphone5 #instagramers #gonnabefun #fun","loc": {"type": "Point","coordinates": [103.82136,1.25646]}} 
{"id": "8769426977","server": "8557","farm": "9","userId": "38276735@N04","secret": "ef6d38e675","title": "IMG_2991","loc": {"type": "Point","coordinates": [103.82383,1.256333]}} 
{"id": "8750633760","server": "7350","farm": "8","userId": "51854834@N00","secret": "f45089bb76","title": "Polis nya boleh di runding","loc": {"type": "Point","coordinates": [103.82136,1.25646]}} 
{"id": "8735707234","server": "7303","farm": "8","userId": "45609158@N03","secret": "ca50f021a5","title": "Autobots, transform & roll out!","loc": {"type": "Point","coordinates": [103.82251,1.255528]}} 
{"id": "8730838077","server": "7319","farm": "8","userId": "8495712@N02","secret": "cbecd3060c","title": "Madagascar, Universal studio Singapore [4 May 2013]","loc": {"type": "Point","coordinates": [103.82286,1.25543]}} 
{"id": "8731968830","server": "7449","farm": "8","userId": "8495712@N02","secret": "acc7a9f63b","title": "Shot near New York area, Universal studio Singapore [4 May 2013]","loc": {"type": "Point","coordinates": [103.82204,1.25445]}} 
{"id": "8731973962","server": "7366","farm": "8","userId": "8495712@N02","secret": "cfeb4505aa","title": "Transformers the ride, Universal Studio Singapore [4 May 2013]","loc": {"type": "Point","coordinates": [103.82183,1.254395]}} 
{"id": "8731974182","server": "7330","farm": "8","userId": "99942665@N00","secret": "1cc19ba4b1","title": "P1180275","loc": {"type": "Point","coordinates": [103.82571,1.253522]}} 
{"id": "8730851515","server": "7294","farm": "8","userId": "99942665@N00","secret": "3ce91232c0","title": "P1180257","loc": {"type": "Point","coordinates": [103.82571,1.253522]}} 
{"id": "8730844237","server": "7321","farm": "8","userId": "8495712@N02","secret": "802f796eaa","title": "Shot near New York area, Universal studio Singapore [4 May 2013]","loc": {"type": "Point","coordinates": [103.82204,1.25445]}} 
{"id": "8731974848","server": "7378","farm": "8","userId": "99942665@N00","secret": "201bf3cd69","title": "P1180273","loc": {"type": "Point","coordinates": [103.82571,1.253522]}} 
{"id": "8730828069","server": "7441","farm": "8","userId": "8495712@N02","secret": "f31a71a0c3","title": "Landmark in the central lake, Universal Studio Singapore [4 May 2013]","loc": {"type": "Point","coordinates": [103.82372,1.254324]}} 
{"id": "8730834189","server": "7333","farm": "8","userId": "8495712@N02","secret": "dd4123d505","title": "Shot near Hollywood area, Universal studio Singapore [4 May 2013]","loc": {"type": "Point","coordinates": [103.82372,1.254324]}} 
{"id": "8730818667","server": "7364","farm": "8","userId": "8495712@N02","secret": "4b7b4f7f12","title": "Universal studio Singapore [4 May 2013]","loc": {"type": "Point","coordinates": [103.82372,1.254324]}} 
{"id": "8723069542","server": "7362","farm": "8","userId": "57629484@N03","secret": "db0e519c68","title": "mmm...where's the fire?","loc": {"type": "Point","coordinates": [103.82136,1.25646]}} 
{"id": "8719186730","server": "7393","farm": "8","userId": "36919220@N00","secret": "b4f90902ec","title": "Pinocchio","loc": {"type": "Point","coordinates": [103.82136,1.25646]}} 
{"id": "8717347834","server": "7455","farm": "8","userId": "90713883@N03","secret": "ee855c0f27","title": "poster","loc": {"type": "Point","coordinates": [103.82324,1.253929]}} 
{"id": "8714186663","server": "7306","farm": "8","userId": "45456612@N07","secret": "3682cd181f","title": "IMG_2041","loc": {"type": "Point","coordinates": [103.82321,1.254014]}} 
{"id": "8715310518","server": "7458","farm": "8","userId": "45456612@N07","secret": "f0b637b446","title": "IMG_2012","loc": {"type": "Point","coordinates": [103.82321,1.254014]}} 
{"id": "8714189317","server": "7453","farm": "8","userId": "45456612@N07","secret": "0d61324586","title": "IMG_2016","loc": {"type": "Point","coordinates": [103.82321,1.254014]}} 
{"id": "8715312826","server": "7324","farm": "8","userId": "45456612@N07","secret": "d5b03dcf25","title": "IMG_1974","loc": {"type": "Point","coordinates": [103.82321,1.254014]}} 
{"id": "8714185941","server": "7318","farm": "8","userId": "45456612@N07","secret": "a2fa1c25f5","title": "IMG_2043","loc": {"type": "Point","coordinates": [103.82321,1.254014]}} 
{"id": "8715311036","server": "7450","farm": "8","userId": "45456612@N07","secret": "11742a5aa1","title": "IMG_2009","loc": {"type": "Point","coordinates": [103.82321,1.254014]}} 
{"id": "8714188767","server": "7455","farm": "8","userId": "45456612@N07","secret": "4e8cb0e679","title": "IMG_2021","loc": {"type": "Point","coordinates": [103.82321,1.254014]}} 
{"id": "8714184785","server": "7299","farm": "8","userId": "45456612@N07","secret": "0e89101ff9","title": "IMG_2058","loc": {"type": "Point","coordinates": [103.82321,1.254014]}} 
{"id": "8715305466","server": "7440","farm": "8","userId": "45456612@N07","secret": "028c31586e","title": "IMG_2065","loc": {"type": "Point","coordinates": [103.82321,1.254014]}} 
{"id": "8714186761","server": "7358","farm": "8","userId": "45456612@N07","secret": "8a89ca65a1","title": "IMG_2040","loc": {"type": "Point","coordinates": [103.82321,1.254014]}} 
{"id": "8714187629","server": "7348","farm": "8","userId": "45456612@N07","secret": "1a4a3ca28a","title": "IMG_2033","loc": {"type": "Point","coordinates": [103.82321,1.254014]}} 
{"id": "8714188421","server": "7410","farm": "8","userId": "45456612@N07","secret": "971c3e2032","title": "IMG_2023","loc": {"type": "Point","coordinates": [103.82321,1.254014]}} 
{"id": "8715306964","server": "7347","farm": "8","userId": "45456612@N07","secret": "658de82863","title": "IMG_2045","loc": {"type": "Point","coordinates": [103.82321,1.254014]}} 
{"id": "8714186389","server": "7402","farm": "8","userId": "45456612@N07","secret": "79ded093ed","title": "IMG_2042","loc": {"type": "Point","coordinates": [103.82321,1.254014]}} 
{"id": "8714189597","server": "7357","farm": "8","userId": "45456612@N07","secret": "787a75eedb","title": "IMG_2011","loc": {"type": "Point","coordinates": [103.82321,1.254014]}} 
{"id": "8715306304","server": "7304","farm": "8","userId": "45456612@N07","secret": "a1f8cc909c","title": "IMG_2051","loc": {"type": "Point","coordinates": [103.82321,1.254014]}} 
{"id": "8715311274","server": "7297","farm": "8","userId": "45456612@N07","secret": "1113522c17","title": "IMG_2006","loc": {"type": "Point","coordinates": [103.82321,1.254014]}} 
{"id": "8715311978","server": "7389","farm": "8","userId": "45456612@N07","secret": "34d68d8213","title": "IMG_2004","loc": {"type": "Point","coordinates": [103.82321,1.254014]}} 
{"id": "8715311072","server": "7302","farm": "8","userId": "45456612@N07","secret": "3e9f2ed6bc","title": "IMG_2008","loc": {"type": "Point","coordinates": [103.82321,1.254014]}} 
{"id": "8715306866","server": "7403","farm": "8","userId": "45456612@N07","secret": "84c0753d5e","title": "IMG_2046","loc": {"type": "Point","coordinates": [103.82321,1.254014]}} 
{"id": "8715309296","server": "7425","farm": "8","userId": "45456612@N07","secret": "b65732632f","title": "IMG_2028","loc": {"type": "Point","coordinates": [103.82321,1.254014]}} 
{"id": "8714189685","server": "7421","farm": "8","userId": "45456612@N07","secret": "363d8e874b","title": "IMG_2010","loc": {"type": "Point","coordinates": [103.82321,1.254014]}} 
{"id": "8715309398","server": "7441","farm": "8","userId": "45456612@N07","secret": "70d1042ecd","title": "IMG_2026","loc": {"type": "Point","coordinates": [103.82321,1.254014]}} 
{"id": "8715312544","server": "7401","farm": "8","userId": "45456612@N07","secret": "970f5212bc","title": "IMG_1975","loc": {"type": "Point","coordinates": [103.82321,1.254014]}} 
{"id": "8714187861","server": "7393","farm": "8","userId": "45456612@N07","secret": "7f04f5db3c","title": "IMG_2029","loc": {"type": "Point","coordinates": [103.82321,1.254014]}} 
{"id": "8714186839","server": "7405","farm": "8","userId": "45456612@N07","secret": "de48daf539","title": "IMG_2038","loc": {"type": "Point","coordinates": [103.82321,1.254014]}} 
{"id": "8715306446","server": "7302","farm": "8","userId": "45456612@N07","secret": "f1a366176b","title": "IMG_2050","loc": {"type": "Point","coordinates": [103.82321,1.254014]}} 
{"id": "8715308726","server": "7433","farm": "8","userId": "45456612@N07","secret": "d8c9327bca","title": "IMG_2032","loc": {"type": "Point","coordinates": [103.82321,1.254014]}} 
{"id": "8714189189","server": "7299","farm": "8","userId": "45456612@N07","secret": "57e69a28af","title": "IMG_2018","loc": {"type": "Point","coordinates": [103.82321,1.254014]}} 
{"id": "8715311336","server": "7419","farm": "8","userId": "45456612@N07","secret": "9b52518af7","title": "IMG_2005","loc": {"type": "Point","coordinates": [103.82321,1.254014]}} 
{"id": "8714184917","server": "7286","farm": "8","userId": "45456612@N07","secret": "92826c57ef","title": "IMG_2055","loc": {"type": "Point","coordinates": [103.82321,1.254014]}} 
{"id": "8715307068","server": "7402","farm": "8","userId": "45456612@N07","secret": "46a6369f65","title": "IMG_2044","loc": {"type": "Point","coordinates": [103.82321,1.254014]}} 
{"id": "8714187053","server": "7308","farm": "8","userId": "45456612@N07","secret": "d43e070296","title": "IMG_2036","loc": {"type": "Point","coordinates": [103.82321,1.254014]}} 
{"id": "8714187159","server": "7328","farm": "8","userId": "45456612@N07","secret": "08394b6fea","title": "IMG_2035","loc": {"type": "Point","coordinates": [103.82321,1.254014]}} 
{"id": "8714190933","server": "7285","farm": "8","userId": "45456612@N07","secret": "41026cf96d","title": "IMG_1976","loc": {"type": "Point","coordinates": [103.82321,1.254014]}} 
{"id": "8714190753","server": "7410","farm": "8","userId": "45456612@N07","secret": "49a0378802","title": "IMG_1985","loc": {"type": "Point","coordinates": [103.82321,1.254014]}} 
{"id": "8714185423","server": "7348","farm": "8","userId": "45456612@N07","secret": "4e82477bef","title": "IMG_2049","loc": {"type": "Point","coordinates": [103.82321,1.254014]}} 
{"id": "8714184495","server": "7437","farm": "8","userId": "45456612@N07","secret": "8a368b0e8a","title": "IMG_2060","loc": {"type": "Point","coordinates": [103.82321,1.254014]}} 
{"id": "8708888367","server": "8548","farm": "9","userId": "95461212@N02","secret": "951620c9c0","title": "","loc": {"type": "Point","coordinates": [103.82283,1.254333]}} 
{"id": "8708889835","server": "8139","farm": "9","userId": "95461212@N02","secret": "6677b20efc","title": "","loc": {"type": "Point","coordinates": [103.824165,1.254833]}} 
{"id": "8705702465","server": "8404","farm": "9","userId": "36919220@N00","secret": "d0ec6e4fbe","title": "Pinocchio","loc": {"type": "Point","coordinates": [103.82373,1.254703]}} 
{"id": "8705233889","server": "8274","farm": "9","userId": "13137527@N07","secret": "d3a610f0a5","title": "Egypt, Singapore","loc": {"type": "Point","coordinates": [103.82234,1.255859]}} 
{"id": "8706242308","server": "8267","farm": "9","userId": "13137527@N07","secret": "273284e5e8","title": "Waterworld","loc": {"type": "Point","coordinates": [103.82209,1.256203]}} 
{"id": "8704030947","server": "8131","farm": "9","userId": "12166501@N00","secret": "ef131b5485","title": "upload","loc": {"type": "Point","coordinates": [103.8209,1.25631]}} 
{"id": "8684190287","server": "8524","farm": "9","userId": "24773033@N02","secret": "718a773852","title": "With the Sesame Street characters.","loc": {"type": "Point","coordinates": [103.82136,1.25646]}} 
{"id": "8685309556","server": "8542","farm": "9","userId": "24773033@N02","secret": "752ccf4016","title": "FamBam","loc": {"type": "Point","coordinates": [103.82136,1.25646]}} 
{"id": "8681185882","server": "8399","farm": "9","userId": "56517476@N07","secret": "35e93f58c0","title": "旅游°是一种追寻","loc": {"type": "Point","coordinates": [103.8209,1.25631]}} 
{"id": "8677163607","server": "8124","farm": "9","userId": "56517476@N07","secret": "0918f5072d","title": "Smile ; )","loc": {"type": "Point","coordinates": [103.82172,1.256105]}} 
{"id": "8674293666","server": "8524","farm": "9","userId": "46577167@N00","secret": "f7a42e5bd1","title": "A large dancing bird","loc": {"type": "Point","coordinates": [103.82166,1.255]}} 
{"id": "8673189287","server": "8524","farm": "9","userId": "46577167@N00","secret": "37bd108c48","title": "Mana potion","loc": {"type": "Point","coordinates": [103.82283,1.2555]}} 
{"id": "8665162848","server": "8242","farm": "9","userId": "98544088@N00","secret": "0f4ee5a005","title": "星光咖啡館","loc": {"type": "Point","coordinates": [103.822,1.256166]}} 
{"id": "8665166518","server": "8246","farm": "9","userId": "98544088@N00","secret": "b6ac23139c","title": "星光咖啡館","loc": {"type": "Point","coordinates": [103.82166,1.256]}} 
{"id": "8664991292","server": "8261","farm": "9","userId": "62158995@N08","secret": "dd87bcc18d","title": "At last, after living in Singapore for almost a year, USS for the first time :D","loc": {"type": "Point","coordinates": [103.82136,1.256461]}} 
{"id": "8653516215","server": "8105","farm": "9","userId": "94712905@N05","secret": "68375b716d","title": "A Natural Fibonacci: 'It is funny on discovering how our nature works. Such as this nautilus shell, that look very simple, but actually followed a sequence called golden spiral, which contain a mathematic proportion in it. These proportion also often use","loc": {"type": "Point","coordinates": [103.82571,1.253521]}} 
{"id": "8635954599","server": "8113","farm": "9","userId": "48784929@N03","secret": "c0265965a3","title": "This! @intrepidteacher aka intrepidgrouch. #365/100","loc": {"type": "Point","coordinates": [103.82136,1.25646]}} 
{"id": "8637052908","server": "8520","farm": "9","userId": "48784929@N03","secret": "881c213a48","title": "Reservoir Puppies @mairinraisdana @davecaleb #365/100","loc": {"type": "Point","coordinates": [103.82136,1.25646]}} 
{"id": "8631429226","server": "8545","farm": "9","userId": "15170730@N07","secret": "3e11a5480f","title": "oscar♻","loc": {"type": "Point","coordinates": [103.82136,1.25646]}} 
{"id": "8630315003","server": "8265","farm": "9","userId": "15170730@N07","secret": "6fc7a77a4a","title": "bumble bee","loc": {"type": "Point","coordinates": [103.82136,1.25646]}} 
{"id": "8629517363","server": "8541","farm": "9","userId": "15170730@N07","secret": "c14985f395","title": "xform","loc": {"type": "Point","coordinates": [103.82183,1.254395]}} 
{"id": "8630497692","server": "8123","farm": "9","userId": "15170730@N07","secret": "67482eb4a3","title": "mummy","loc": {"type": "Point","coordinates": [103.8228,1.253811]}} 
{"id": "8627303697","server": "8542","farm": "9","userId": "66919430@N00","secret": "8e509ed1a7","title": "'A kid like me belongs in Universal Studios'","loc": {"type": "Point","coordinates": [103.823784,1.254927]}} 
{"id": "8627315705","server": "8240","farm": "9","userId": "66919430@N00","secret": "30a71777b5","title": "Feeding Yeh Yeh","loc": {"type": "Point","coordinates": [103.823784,1.254927]}} 
{"id": "8627307577","server": "8114","farm": "9","userId": "66919430@N00","secret": "9159209c36","title": "'3 times a year, I need to go at least 3 times a year'","loc": {"type": "Point","coordinates": [103.823784,1.254927]}} 
{"id": "8628414236","server": "8397","farm": "9","userId": "66919430@N00","secret": "7b6acbc6dc","title": "'What's the point of coming all the way here but not going to Universal Studios?'","loc": {"type": "Point","coordinates": [103.823784,1.254927]}} 
{"id": "8627312999","server": "8392","farm": "9","userId": "66919430@N00","secret": "d12c72ba6c","title": "Feasting on free samples","loc": {"type": "Point","coordinates": [103.823784,1.254927]}} 
{"id": "8628419614","server": "8529","farm": "9","userId": "66919430@N00","secret": "c6a572f620","title": "'Must….have…..popcorn'","loc": {"type": "Point","coordinates": [103.823784,1.254927]}} 
{"id": "8627288039","server": "8253","farm": "9","userId": "66919430@N00","secret": "e1afa6c116","title": "Bye-bye….my shift is over","loc": {"type": "Point","coordinates": [103.823784,1.254927]}} 
{"id": "8628408450","server": "8543","farm": "9","userId": "66919430@N00","secret": "7991be44f9","title": "'I've been a good boy all day, I deserve to go'","loc": {"type": "Point","coordinates": [103.823784,1.254927]}} 
{"id": "8628404888","server": "8527","farm": "9","userId": "66919430@N00","secret": "19ae80ed9d","title": "'I don't understand why I can't go to Universal Studios, Yeh Yeh'","loc": {"type": "Point","coordinates": [103.823784,1.254927]}} 
{"id": "8628403106","server": "8383","farm": "9","userId": "66919430@N00","secret": "e29ef93405","title": "DIssapointed that they couldn't go inside","loc": {"type": "Point","coordinates": [103.823784,1.254927]}} 
{"id": "8628393230","server": "8119","farm": "9","userId": "66919430@N00","secret": "4126b8e2a6","title": "She doesn't know Po's behind her","loc": {"type": "Point","coordinates": [103.823784,1.254927]}} 
{"id": "8628386888","server": "8380","farm": "9","userId": "66919430@N00","secret": "e96cf2022a","title": "Erin's forecast for the year","loc": {"type": "Point","coordinates": [103.823784,1.254927]}} 
{"id": "8627280957","server": "8391","farm": "9","userId": "66919430@N00","secret": "a041fe0e4a","title": "Ethan's not a big fan of the spinning globe","loc": {"type": "Point","coordinates": [103.823784,1.254927]}} 
{"id": "8627282983","server": "8394","farm": "9","userId": "66919430@N00","secret": "cc79646628","title": "Cherry blossoms…..fake","loc": {"type": "Point","coordinates": [103.823784,1.254927]}} 
{"id": "8628383862","server": "8242","farm": "9","userId": "66919430@N00","secret": "c363b8d844","title": "Nicely decorated, as always","loc": {"type": "Point","coordinates": [103.823784,1.254927]}} 
{"id": "8627289147","server": "8386","farm": "9","userId": "66919430@N00","secret": "0aa3d7330b","title": "'See yuh, kids'","loc": {"type": "Point","coordinates": [103.823784,1.254927]}} 
{"id": "8627266209","server": "8115","farm": "9","userId": "66919430@N00","secret": "33e6ba47e7","title": "We're at Resorts World Sentosa to find some lunch","loc": {"type": "Point","coordinates": [103.823784,1.254927]}} 
{"id": "8617898497","server": "8382","farm": "9","userId": "12166501@N00","secret": "fecf93e9de","title": "Zzzzz","loc": {"type": "Point","coordinates": [103.8209,1.25631]}} 
{"id": "8616613396","server": "8260","farm": "9","userId": "93109357@N05","secret": "7440d17351","title": "#เก็บตก very cute street #sentosa #sesamestreet #funny","loc": {"type": "Point","coordinates": [103.82136,1.25646]}} 
{"id": "8614676299","server": "8405","farm": "9","userId": "21603194@N06","secret": "62f8eac3a9","title": "Sesame Street in Universal Studios","loc": {"type": "Point","coordinates": [103.82329,1.255259]}} 
{"id": "8615783242","server": "8103","farm": "9","userId": "21603194@N06","secret": "7970be85d2","title": "Sesame Street in Universal Studios","loc": {"type": "Point","coordinates": [103.82329,1.255259]}} 
{"id": "8613220091","server": "8396","farm": "9","userId": "21603194@N06","secret": "5a6308fde9","title": "The Universal Studios in Singapore","loc": {"type": "Point","coordinates": [103.82329,1.255259]}} 
{"id": "8613214313","server": "8379","farm": "9","userId": "21603194@N06","secret": "8fd174d642","title": "The Universal Studios in Singapore","loc": {"type": "Point","coordinates": [103.82329,1.255259]}} 
{"id": "8614318014","server": "8528","farm": "9","userId": "21603194@N06","secret": "84925e9a61","title": "The Universal Studios in Singapore","loc": {"type": "Point","coordinates": [103.82329,1.255259]}} 
{"id": "8613188921","server": "8265","farm": "9","userId": "21603194@N06","secret": "12783d1f14","title": "The Universal Studios in Singapore","loc": {"type": "Point","coordinates": [103.82329,1.255259]}} 
{"id": "8614311378","server": "8528","farm": "9","userId": "21603194@N06","secret": "4b62a3e7e3","title": "The Universal Studios in Singapore","loc": {"type": "Point","coordinates": [103.82329,1.255259]}} 
{"id": "8613198993","server": "8109","farm": "9","userId": "21603194@N06","secret": "e5a77368be","title": "The Universal Studios in Singapore","loc": {"type": "Point","coordinates": [103.82329,1.255259]}} 
{"id": "8614290788","server": "8521","farm": "9","userId": "21603194@N06","secret": "5ab0845f3a","title": "The Universal Studios in Singapore","loc": {"type": "Point","coordinates": [103.82329,1.255259]}} 
{"id": "8614278252","server": "8113","farm": "9","userId": "21603194@N06","secret": "5c494a8399","title": "The Universal Studios in Singapore","loc": {"type": "Point","coordinates": [103.82329,1.255259]}} 
{"id": "8610113139","server": "8520","farm": "9","userId": "21603194@N06","secret": "94ebfd3510","title": "The Universal Studios in Singapore","loc": {"type": "Point","coordinates": [103.82329,1.255259]}} 
{"id": "8611208298","server": "8527","farm": "9","userId": "21603194@N06","secret": "0cdc01e016","title": "The Universal Studios in Singapore","loc": {"type": "Point","coordinates": [103.82329,1.255259]}} 
{"id": "8611194672","server": "8255","farm": "9","userId": "21603194@N06","secret": "2a5701a633","title": "The Universal Studios in Singapore","loc": {"type": "Point","coordinates": [103.82329,1.255259]}} 
{"id": "8611182986","server": "8529","farm": "9","userId": "21603194@N06","secret": "4f95c7a4a2","title": "The Unversal Studios in Sinagpore","loc": {"type": "Point","coordinates": [103.82329,1.255259]}} 
{"id": "8610051547","server": "8520","farm": "9","userId": "21603194@N06","secret": "a66933d340","title": "The Universal Studios in Singapore","loc": {"type": "Point","coordinates": [103.82329,1.255259]}} 
{"id": "8610027331","server": "8125","farm": "9","userId": "21603194@N06","secret": "52ba49c9ee","title": "The Universal Studios in Singapore","loc": {"type": "Point","coordinates": [103.82329,1.255259]}} 
{"id": "8611124858","server": "8258","farm": "9","userId": "21603194@N06","secret": "1e46885d08","title": "The Universal Studios in Singapore","loc": {"type": "Point","coordinates": [103.82329,1.255259]}} 
{"id": "8611149578","server": "8400","farm": "9","userId": "21603194@N06","secret": "3f22f939a9","title": "The Universal Studios in Singapore","loc": {"type": "Point","coordinates": [103.82329,1.255259]}} 
{"id": "8610035191","server": "8247","farm": "9","userId": "21603194@N06","secret": "ab3efcf1e5","title": "The Universal Studios in Singapore","loc": {"type": "Point","coordinates": [103.82329,1.255259]}} 
{"id": "8611109782","server": "8395","farm": "9","userId": "21603194@N06","secret": "8cb62f9e3e","title": "The Universal Studios in Singapore","loc": {"type": "Point","coordinates": [103.82329,1.255259]}} 
{"id": "8611118296","server": "8252","farm": "9","userId": "21603194@N06","secret": "0f40dd529b","title": "The Universal Studios in Singapore","loc": {"type": "Point","coordinates": [103.82329,1.255259]}} 
{"id": "8609996401","server": "8535","farm": "9","userId": "21603194@N06","secret": "d2a07393f2","title": "The Universal Studios in Singapore","loc": {"type": "Point","coordinates": [103.82329,1.255259]}} 
{"id": "8609986701","server": "8121","farm": "9","userId": "21603194@N06","secret": "c5dd273e5b","title": "The Universal Studios in Singapore","loc": {"type": "Point","coordinates": [103.82329,1.255259]}} 
{"id": "8611061630","server": "8529","farm": "9","userId": "21603194@N06","secret": "bbca39e1c9","title": "The Universal Studios in Singapore","loc": {"type": "Point","coordinates": [103.82329,1.255259]}} 
{"id": "8604694049","server": "8252","farm": "9","userId": "93109357@N05","secret": "4a03eba3d3","title": "My own street..!! :P  #universalsg","loc": {"type": "Point","coordinates": [103.82136,1.25646]}} 
{"id": "8601659981","server": "8112","farm": "9","userId": "42987207@N03","secret": "df705750fe","title": "At Universal Studios in Singapore. Carl in front of the globe thing. #universal #singapore","loc": {"type": "Point","coordinates": [103.82136,1.25646]}} 
{"id": "8597021439","server": "8381","farm": "9","userId": "54037109@N05","secret": "1cb1c4067b","title": "Depart:back to Singapore again universal studio we love 01","loc": {"type": "Point","coordinates": [103.82136,1.25646]}} 
{"id": "8593712217","server": "8090","farm": "9","userId": "23436061@N00","secret": "2b90419e43","title": "So say we all #bsg #battlestargalactica #rollercoasters #justonemoreepisode #singapore #cylon","loc": {"type": "Point","coordinates": [103.82136,1.25646]}} 
{"id": "8591776304","server": "8377","farm": "9","userId": "94377283@N03","secret": "11505b1470","title": "DSC06079","loc": {"type": "Point","coordinates": [103.82316,1.254055]}} 
{"id": "8590675993","server": "8235","farm": "9","userId": "94377283@N03","secret": "7ea69c0bbc","title": "DSC06076","loc": {"type": "Point","coordinates": [103.823166,1.254063]}} 
{"id": "8590674875","server": "8088","farm": "9","userId": "94377283@N03","secret": "0c2f702658","title": "DSC06135","loc": {"type": "Point","coordinates": [103.82339,1.254719]}} 
{"id": "8590676749","server": "8245","farm": "9","userId": "94377283@N03","secret": "29e888103f","title": "DSC06032","loc": {"type": "Point","coordinates": [103.82317,1.254452]}} 
{"id": "8591774840","server": "8094","farm": "9","userId": "94377283@N03","secret": "45fa6c384d","title": "DSC06186","loc": {"type": "Point","coordinates": [103.82283,1.255786]}} 
{"id": "8590674667","server": "8101","farm": "9","userId": "94377283@N03","secret": "42e38c7c62","title": "DSC06169","loc": {"type": "Point","coordinates": [103.823326,1.25538]}} 
{"id": "8591775614","server": "8391","farm": "9","userId": "94377283@N03","secret": "d894b0b750","title": "DSC06117","loc": {"type": "Point","coordinates": [103.82314,1.254088]}} 
{"id": "8590676511","server": "8093","farm": "9","userId": "94377283@N03","secret": "0a54c62852","title": "DSC06040","loc": {"type": "Point","coordinates": [103.82404,1.25375]}} 
{"id": "8591756080","server": "8088","farm": "9","userId": "94377283@N03","secret": "659f26bdec","title": "DSC06005","loc": {"type": "Point","coordinates": [103.82285,1.253852]}} 
{"id": "8591778016","server": "8516","farm": "9","userId": "94377283@N03","secret": "288ebc4898","title": "DSC05991","loc": {"type": "Point","coordinates": [103.82214,1.254133]}} 
{"id": "8591775074","server": "8371","farm": "9","userId": "94377283@N03","secret": "c6865fd053","title": "DSC06174","loc": {"type": "Point","coordinates": [103.8232,1.255405]}} 
{"id": "8590675319","server": "8515","farm": "9","userId": "94377283@N03","secret": "b15a26a066","title": "DSC06100","loc": {"type": "Point","coordinates": [103.82311,1.254075]}} 
{"id": "8590677955","server": "8236","farm": "9","userId": "94377283@N03","secret": "3700a4b8d3","title": "DSC05950","loc": {"type": "Point","coordinates": [103.821724,1.254055]}} 
{"id": "8591776050","server": "8376","farm": "9","userId": "94377283@N03","secret": "1dd548d74f","title": "DSC06088","loc": {"type": "Point","coordinates": [103.82311,1.254072]}} 
{"id": "8590677063","server": "8383","farm": "9","userId": "94377283@N03","secret": "7a7ba816cd","title": "DSC06002","loc": {"type": "Point","coordinates": [103.82247,1.25358]}} 
{"id": "8590676219","server": "8225","farm": "9","userId": "94377283@N03","secret": "5e23c7c1e1","title": "DSC06046","loc": {"type": "Point","coordinates": [103.82416,1.253666]}} 
{"id": "8590636655","server": "8247","farm": "9","userId": "94377283@N03","secret": "96a5a9eb61","title": "DSC05944","loc": {"type": "Point","coordinates": [103.82182,1.255216]}} 
{"id": "8582097077","server": "8226","farm": "9","userId": "93109357@N05","secret": "17b4f8a4ac","title": "#manchester #manunited #universal #singapore","loc": {"type": "Point","coordinates": [103.82136,1.256461]}} 
{"id": "8579647438","server": "8373","farm": "9","userId": "93109357@N05","secret": "c7edca2b36","title": "สนุ๊กกมว๊ากก มากี่รอบก็ไม่เบื่อ  รถไฟเหาะช๊อปๆ ชอบ","loc": {"type": "Point","coordinates": [103.8223,1.254008]}} 
{"id": "8579592250","server": "8102","farm": "9","userId": "93109357@N05","secret": "7c1780a357","title": "Fish Berger not full 4 me :P .. ฉันเริ่มอยู่ยาก เบอร์เกอร์ 1 เซ็ท ไม่อิ่ม อิอิ ณ จุดนี้ หน้าเริ่มแน่น 55+","loc": {"type": "Point","coordinates": [103.82355,1.254724]}} 
{"id": "8561203145","server": "8111","farm": "9","userId": "60026216@N00","secret": "ba2e54e835","title": "The Forum.","loc": {"type": "Point","coordinates": [103.8209,1.25631]}} 
{"id": "8561831786","server": "8245","farm": "9","userId": "60026216@N00","secret": "f2ae278af6","title": "Taking #shuttle #bus service between hotels.","loc": {"type": "Point","coordinates": [103.8209,1.25631]}} 
{"id": "8561394004","server": "8109","farm": "9","userId": "88140054@N04","secret": "8d5b6e345a","title": "USSSSS","loc": {"type": "Point","coordinates": [103.82217,1.253666]}} 
{"id": "8560281657","server": "8252","farm": "9","userId": "88140054@N04","secret": "2b021d3def","title": "USSSSS","loc": {"type": "Point","coordinates": [103.82183,1.254]}} 
{"id": "8560278243","server": "8377","farm": "9","userId": "88140054@N04","secret": "62cccb51a8","title": "USSSSS","loc": {"type": "Point","coordinates": [103.82367,1.254833]}} 
{"id": "8533008309","server": "8251","farm": "9","userId": "58716938@N00","secret": "949c4278f6","title": "Universal Studio Singapore","loc": {"type": "Point","coordinates": [103.82136,1.25646]}} 
{"id": "8502514968","server": "8383","farm": "9","userId": "26846793@N08","secret": "6d26ddc2ea","title": "IMG_0161","loc": {"type": "Point","coordinates": [103.82501,1.253631]}} 
{"id": "8502530168","server": "8525","farm": "9","userId": "26846793@N08","secret": "bbd3997eb0","title": "IMG_0157","loc": {"type": "Point","coordinates": [103.82501,1.253631]}} 
{"id": "8502543518","server": "8232","farm": "9","userId": "26846793@N08","secret": "c4d225c200","title": "IMG_0152","loc": {"type": "Point","coordinates": [103.82501,1.253631]}} 
{"id": "8501440851","server": "8381","farm": "9","userId": "26846793@N08","secret": "6232f789b6","title": "IMG_0151","loc": {"type": "Point","coordinates": [103.82501,1.253631]}} 
{"id": "8502540938","server": "8374","farm": "9","userId": "26846793@N08","secret": "dc7d00e662","title": "IMG_0153","loc": {"type": "Point","coordinates": [103.82501,1.253631]}} 
{"id": "8501422211","server": "8098","farm": "9","userId": "26846793@N08","secret": "990c58ccac","title": "IMG_0158","loc": {"type": "Point","coordinates": [103.82501,1.253631]}} 
{"id": "8501432609","server": "8100","farm": "9","userId": "26846793@N08","secret": "132496b5bd","title": "IMG_0154","loc": {"type": "Point","coordinates": [103.82501,1.253631]}} 
{"id": "8502532970","server": "8518","farm": "9","userId": "26846793@N08","secret": "e7cd48fb80","title": "IMG_0156","loc": {"type": "Point","coordinates": [103.82501,1.253631]}} 
{"id": "8501413411","server": "8240","farm": "9","userId": "26846793@N08","secret": "0960d28cca","title": "IMG_0160","loc": {"type": "Point","coordinates": [103.82501,1.253631]}} 
{"id": "8502524462","server": "8240","farm": "9","userId": "26846793@N08","secret": "0a7778558c","title": "IMG_0159","loc": {"type": "Point","coordinates": [103.82501,1.253631]}} 
{"id": "8501406935","server": "8103","farm": "9","userId": "26846793@N08","secret": "6791446b68","title": "IMG_0162","loc": {"type": "Point","coordinates": [103.82501,1.253631]}} 
{"id": "8501401785","server": "8241","farm": "9","userId": "26846793@N08","secret": "dfb40f1319","title": "IMG_0164","loc": {"type": "Point","coordinates": [103.82501,1.253631]}} 
{"id": "8500904682","server": "8513","farm": "9","userId": "81682538@N03","secret": "6392a2ccc0","title": "No entry (Moscow)","loc": {"type": "Point","coordinates": [103.82469,1.253683]}} 
{"id": "8498762169","server": "8530","farm": "9","userId": "87772066@N05","secret": "5211cf077e","title": "Singapore","loc": {"type": "Point","coordinates": [103.82492,1.253541]}} 
{"id": "8498762287","server": "8242","farm": "9","userId": "87772066@N05","secret": "60c3453beb","title": "Singapore","loc": {"type": "Point","coordinates": [103.82492,1.253541]}} 
{"id": "8459909225","server": "8250","farm": "9","userId": "86611549@N00","secret": "da24716730","title": "Universal Studios - Mel's Dinettes","loc": {"type": "Point","coordinates": [103.82189,1.255188]}} 
{"id": "8461009196","server": "8518","farm": "9","userId": "86611549@N00","secret": "ef89e8723d","title": "Universal Studios - Mel's Dinettes","loc": {"type": "Point","coordinates": [103.82189,1.255188]}} 
{"id": "8417078010","server": "8227","farm": "9","userId": "9036889@N06","secret": "88d9362c30","title": "image (18)","loc": {"type": "Point","coordinates": [103.82183,1.254166]}} 
{"id": "8374094693","server": "8494","farm": "9","userId": "10757800@N00","secret": "a37f13ba0a","title": "Universal Studios Singapore | Sentosa, Singapore","loc": {"type": "Point","coordinates": [103.823,1.255988]}} 
{"id": "8372420003","server": "8046","farm": "9","userId": "10757800@N00","secret": "542d20f13e","title": "Universal Studios Singapore | Sentosa, Singapore","loc": {"type": "Point","coordinates": [103.82229,1.255967]}} 
{"id": "8352554227","server": "8183","farm": "9","userId": "10757800@N00","secret": "c62f5bd72d","title": "Universal Studios Singapore | Sentosa, Singapore","loc": {"type": "Point","coordinates": [103.82289,1.25601]}} 
{"id": "8352505803","server": "8194","farm": "9","userId": "10757800@N00","secret": "9065f2129e","title": "Universal Studios Singapore | Sentosa, Singapore","loc": {"type": "Point","coordinates": [103.822395,1.255216]}} 
{"id": "8321730093","server": "8499","farm": "9","userId": "91153975@N05","secret": "25d70ab968","title": "Pre-New Year Fireworks","loc": {"type": "Point","coordinates": [103.822205,1.255945]}} 
{"id": "8257663010","server": "8479","farm": "9","userId": "78958621@N04","secret": "8fef6c36fd","title": "DSC08048","loc": {"type": "Point","coordinates": [103.82225,1.255833]}} 
{"id": "8500332256","server": "8247","farm": "9","userId": "54048808@N00","secret": "9707b16e0b","title": "Skyelar and I having a moment.","loc": {"type": "Point","coordinates": [103.824165,1.253666]}} 
{"id": "8499032609","server": "8517","farm": "9","userId": "48784929@N03","secret": "765098bc2b","title": "Baby dinosaur. They are not entirely sure if it is real or not... #365/54","loc": {"type": "Point","coordinates": [103.82391,1.253776]}} 
{"id": "8493929707","server": "8374","farm": "9","userId": "25843819@N03","secret": "783ea9f725","title": "lmao","loc": {"type": "Point","coordinates": [103.8209,1.25631]}} 
{"id": "8494682438","server": "8096","farm": "9","userId": "87232327@N04","secret": "2a66782190","title": "S.E.A Aquarium","loc": {"type": "Point","coordinates": [103.8212,1.254813]}} 
{"id": "8494682334","server": "8508","farm": "9","userId": "87232327@N04","secret": "33dd6b9aae","title": "S.E.A Aquarium","loc": {"type": "Point","coordinates": [103.821175,1.255764]}} 
{"id": "8490789661","server": "8237","farm": "9","userId": "92919639@N03","secret": "1f454cc8be","title": "2012-10-06 Singapore - 00095","loc": {"type": "Point","coordinates": [103.82324,1.254347]}} 
{"id": "8491889370","server": "8250","farm": "9","userId": "92919639@N03","secret": "3c05c0aab9","title": "2012-10-06 Singapore - 00091","loc": {"type": "Point","coordinates": [103.82324,1.254347]}} 
{"id": "8490790679","server": "8384","farm": "9","userId": "92919639@N03","secret": "2e980fa370","title": "2012-10-06 Singapore - 00100","loc": {"type": "Point","coordinates": [103.82324,1.254347]}} 
{"id": "8481578756","server": "8252","farm": "9","userId": "19454593@N00","secret": "b6280e95d4","title": "IMG_0763_F","loc": {"type": "Point","coordinates": [103.82097,1.255533]}} 
{"id": "8479745797","server": "8101","farm": "9","userId": "54572649@N08","secret": "0513fa7477","title": "27 01 13_SX200_0450_edited-FB","loc": {"type": "Point","coordinates": [103.82303,1.255495]}} 
{"id": "8479746027","server": "8241","farm": "9","userId": "54572649@N08","secret": "7602163e16","title": "27 01 13_SX200_0435_edited-FB","loc": {"type": "Point","coordinates": [103.82303,1.255495]}} 
{"id": "8480835778","server": "8085","farm": "9","userId": "54572649@N08","secret": "8b9dda92df","title": "27 01 13_SX200_0404_edited-FB","loc": {"type": "Point","coordinates": [103.82303,1.255495]}} 
{"id": "8480835652","server": "8107","farm": "9","userId": "54572649@N08","secret": "8796eea67c","title": "27 01 13_SX200_0410_edited-FB","loc": {"type": "Point","coordinates": [103.82303,1.255495]}} 
{"id": "8480835192","server": "8112","farm": "9","userId": "54572649@N08","secret": "32b60e9a80","title": "27 01 13_SX200_0485_edited-FB","loc": {"type": "Point","coordinates": [103.82303,1.255495]}} 
{"id": "8480835356","server": "8518","farm": "9","userId": "54572649@N08","secret": "d55b7c58cf","title": "27 01 13_SX200_0443_edited-FB","loc": {"type": "Point","coordinates": [103.82303,1.255495]}} 
{"id": "8479746005","server": "8097","farm": "9","userId": "54572649@N08","secret": "663d21b9ba","title": "27 01 13_SX200_0427_edited-FB","loc": {"type": "Point","coordinates": [103.82303,1.255495]}} 
{"id": "8474593487","server": "8243","farm": "9","userId": "54048808@N00","secret": "2660bd3f80","title": "Good to see my angel again","loc": {"type": "Point","coordinates": [103.82136,1.256461]}} 
{"id": "8474585157","server": "8238","farm": "9","userId": "54048808@N00","secret": "7216f684cc","title": "Good to be home.","loc": {"type": "Point","coordinates": [103.822334,1.255666]}} 
{"id": "8472456750","server": "8233","farm": "9","userId": "19454593@N00","secret": "ff769f44c6","title": "IMG_0726_F","loc": {"type": "Point","coordinates": [103.82115,1.256477]}} 
{"id": "8466266198","server": "8520","farm": "9","userId": "78377898@N07","secret": "66ec113a58","title": "Color 6","loc": {"type": "Point","coordinates": [103.8216,1.25484]}} 
{"id": "8465168567","server": "8240","farm": "9","userId": "78377898@N07","secret": "50b32f7019","title": "Color 7","loc": {"type": "Point","coordinates": [103.8216,1.25484]}} 
{"id": "8464896453","server": "8523","farm": "9","userId": "78377898@N07","secret": "b20062a562","title": "Walking Down the Memory Lane....Cont.","loc": {"type": "Point","coordinates": [103.8216,1.25484]}} 
{"id": "8465997358","server": "8094","farm": "9","userId": "78377898@N07","secret": "0724001865","title": "Walking Down the Memory Lane....Cont.","loc": {"type": "Point","coordinates": [103.8216,1.25484]}} 
{"id": "8464886115","server": "8390","farm": "9","userId": "78377898@N07","secret": "9a1c73f28f","title": "Walking Down the Memory Lane....Cont.","loc": {"type": "Point","coordinates": [103.8216,1.25484]}} 
{"id": "8464899115","server": "8505","farm": "9","userId": "78377898@N07","secret": "10ae4059c1","title": "Walking Down the Memory Lane....Cont.","loc": {"type": "Point","coordinates": [103.8216,1.25484]}} 
{"id": "8465984700","server": "8532","farm": "9","userId": "78377898@N07","secret": "a89578cd6d","title": "Walking Down the Memory Lane....Cont.","loc": {"type": "Point","coordinates": [103.8216,1.25484]}} 
{"id": "8465999916","server": "8086","farm": "9","userId": "78377898@N07","secret": "358a47e5df","title": "Walking Down the Memory Lane....Cont.","loc": {"type": "Point","coordinates": [103.8216,1.25484]}} 
{"id": "8464889897","server": "8510","farm": "9","userId": "78377898@N07","secret": "b20d754536","title": "Classic","loc": {"type": "Point","coordinates": [103.8216,1.25484]}} 
{"id": "8465986412","server": "8252","farm": "9","userId": "78377898@N07","secret": "987a517b4b","title": "Yey Hollywood !!","loc": {"type": "Point","coordinates": [103.8216,1.25484]}} 
{"id": "8466003708","server": "8365","farm": "9","userId": "78377898@N07","secret": "795bd0d61c","title": "Walking Down the Memory Lane....Cont.","loc": {"type": "Point","coordinates": [103.8216,1.25484]}} 
{"id": "8465988362","server": "8106","farm": "9","userId": "78377898@N07","secret": "4ef782a835","title": "Ultimate Fashion Destination","loc": {"type": "Point","coordinates": [103.8216,1.25484]}} 
{"id": "8466104080","server": "8366","farm": "9","userId": "78377898@N07","secret": "e28cda39b0","title": "Ice Anyone?","loc": {"type": "Point","coordinates": [103.8216,1.25484]}} 
{"id": "8466012976","server": "8242","farm": "9","userId": "78377898@N07","secret": "b012048b2b","title": "Walking Down the Memory Lane","loc": {"type": "Point","coordinates": [103.8216,1.25484]}} 
{"id": "8464912333","server": "8517","farm": "9","userId": "78377898@N07","secret": "70eab6c3f4","title": "Great Combination","loc": {"type": "Point","coordinates": [103.8216,1.25484]}} 
{"id": "8464908279","server": "8523","farm": "9","userId": "78377898@N07","secret": "dea75d7dd6","title": "Action Center","loc": {"type": "Point","coordinates": [103.8216,1.25484]}} 
{"id": "8464897693","server": "8108","farm": "9","userId": "78377898@N07","secret": "fdb49a9ac7","title": "Walking Down the Memory Lane....Cont.","loc": {"type": "Point","coordinates": [103.8216,1.25484]}} 
{"id": "8466102912","server": "8231","farm": "9","userId": "78377898@N07","secret": "5346c70f30","title": "Fun Friends","loc": {"type": "Point","coordinates": [103.8216,1.25484]}} 
{"id": "8466007834","server": "8521","farm": "9","userId": "78377898@N07","secret": "4c45c12050","title": "Walking Down the Memory Lane.....Cont.","loc": {"type": "Point","coordinates": [103.8216,1.25484]}} 
{"id": "8465992522","server": "8111","farm": "9","userId": "78377898@N07","secret": "10a75409a8","title": "Living on the Street","loc": {"type": "Point","coordinates": [103.8216,1.25484]}} 
{"id": "8465991590","server": "8391","farm": "9","userId": "78377898@N07","secret": "a953917f4c","title": "Walking Down the Memory Lane....Cont.","loc": {"type": "Point","coordinates": [103.8216,1.25484]}} 
{"id": "8466006630","server": "8391","farm": "9","userId": "78377898@N07","secret": "6393bc5f0c","title": "Walking Down the Memory Lane.....Cont.","loc": {"type": "Point","coordinates": [103.8216,1.25484]}} 
{"id": "8466010638","server": "8238","farm": "9","userId": "78377898@N07","secret": "84e6685d09","title": "Walking Down the Memory Lane.....Cont.","loc": {"type": "Point","coordinates": [103.8216,1.25484]}} 
{"id": "8464892625","server": "8518","farm": "9","userId": "78377898@N07","secret": "1db618c2e4","title": "Escape Stairs for Lovers & Thieves","loc": {"type": "Point","coordinates": [103.8216,1.25484]}} 
{"id": "8466001196","server": "8231","farm": "9","userId": "78377898@N07","secret": "63c2cb9087","title": "Walking Down the Memory Lane....Cont.","loc": {"type": "Point","coordinates": [103.8216,1.25484]}} 
{"id": "8464884623","server": "8112","farm": "9","userId": "78377898@N07","secret": "38b7a9a7e2","title": "Walking Down the Memory Lane....Cont.","loc": {"type": "Point","coordinates": [103.8216,1.25484]}} 
{"id": "8465998762","server": "8226","farm": "9","userId": "78377898@N07","secret": "4e87ed042f","title": "Walking Down the Memory Lane....Cont.","loc": {"type": "Point","coordinates": [103.8216,1.25484]}} 
{"id": "8465316264","server": "8093","farm": "9","userId": "33677923@N05","secret": "b1d29f0a2b","title": "Bright Sunny 2nd Day of Water Snake Year @ Resorts World Sentosa","loc": {"type": "Point","coordinates": [103.82184,1.256203]}} 
{"id": "8463768179","server": "8519","farm": "9","userId": "60026216@N00","secret": "365b8eccfc","title": "Historic harbour ship.","loc": {"type": "Point","coordinates": [103.8209,1.25631]}} 
{"id": "8464855768","server": "8237","farm": "9","userId": "60026216@N00","secret": "de9e817ac2","title": "Malaysian Food Street.","loc": {"type": "Point","coordinates": [103.8209,1.25631]}} 
{"id": "8464762778","server": "8366","farm": "9","userId": "60026216@N00","secret": "e7167c3bdd","title": "#Sentosa gateway.","loc": {"type": "Point","coordinates": [103.8209,1.25631]}} 
{"id": "8463588337","server": "8517","farm": "9","userId": "33677923@N05","secret": "0240ae3f0c","title": "Happy Lunar New Year 2013","loc": {"type": "Point","coordinates": [103.82147,1.255945]}} 
{"id": "8460477219","server": "8526","farm": "9","userId": "32387758@N02","secret": "a65a2558d9","title": "beehhh!!! @nvclado @riaburce @erikkito @akositetetet  and kakurt!!!","loc": {"type": "Point","coordinates": [103.8209,1.25631]}} 
{"id": "8459911539","server": "8237","farm": "9","userId": "86611549@N00","secret": "b589a57abb","title": "Universal Studios Singapore -","loc": {"type": "Point","coordinates": [103.82276,1.254163]}} 
{"id": "8459912011","server": "8226","farm": "9","userId": "86611549@N00","secret": "32b3cce786","title": "Universal Studios Singapore - The Lost World","loc": {"type": "Point","coordinates": [103.82322,1.253783]}} 
{"id": "8459911295","server": "8104","farm": "9","userId": "86611549@N00","secret": "f6b3f05a20","title": "Universal Studios Singapore -","loc": {"type": "Point","coordinates": [103.82214,1.253816]}} 
{"id": "8459910741","server": "8508","farm": "9","userId": "86611549@N00","secret": "68e25deb48","title": "Universal Studios Singapore - Palace Theatre and Broadway","loc": {"type": "Point","coordinates": [103.82139,1.254577]}} 
{"id": "8459912543","server": "8103","farm": "9","userId": "86611549@N00","secret": "f4cab3c4ff","title": "Universal Studios Singapore - Welcome to Far Far Away","loc": {"type": "Point","coordinates": [103.82379,1.255013]}} 
{"id": "8459909777","server": "8513","farm": "9","userId": "86611549@N00","secret": "127f9a23d2","title": "Universal Studios Singapore - Academy Awards","loc": {"type": "Point","coordinates": [103.821976,1.255372]}} 
{"id": "8461011428","server": "8385","farm": "9","userId": "86611549@N00","secret": "31326e63f6","title": "Universal Studios Singapore - Bumblebee","loc": {"type": "Point","coordinates": [103.821945,1.254147]}} 
{"id": "8461010314","server": "8382","farm": "9","userId": "86611549@N00","secret": "0bec5069bb","title": "Universal Studios Singapore - Pantages Theatre","loc": {"type": "Point","coordinates": [103.8219,1.255341]}} 
{"id": "8459909461","server": "8085","farm": "9","userId": "86611549@N00","secret": "0ca29fdab4","title": "Universal Studios Singapore - New York Subway","loc": {"type": "Point","coordinates": [103.82121,1.254461]}} 
{"id": "8459909659","server": "8392","farm": "9","userId": "86611549@N00","secret": "fb7554c354","title": "Universal Studios Singapore - Shrek's House","loc": {"type": "Point","coordinates": [103.823425,1.255216]}} 
{"id": "8459911751","server": "8517","farm": "9","userId": "86611549@N00","secret": "6dc702c76f","title": "Universal Studios Singapore -","loc": {"type": "Point","coordinates": [103.82295,1.253725]}} 
{"id": "8461012384","server": "8095","farm": "9","userId": "86611549@N00","secret": "fa0f423751","title": "Universal Studios Singapore - Jurassic","loc": {"type": "Point","coordinates": [103.82373,1.254088]}} 
{"id": "8461010936","server": "8521","farm": "9","userId": "86611549@N00","secret": "091ef9e2d4","title": "Universal Studios Singapore - Palace Theatre","loc": {"type": "Point","coordinates": [103.82139,1.254577]}} 
{"id": "8459852845","server": "8376","farm": "9","userId": "46600493@N05","secret": "ae215bd96b","title": "upload","loc": {"type": "Point","coordinates": [103.82136,1.25646]}} 
{"id": "8458693964","server": "8532","farm": "9","userId": "79808519@N04","secret": "f014d8e5cb","title": "Wonders of Penang","loc": {"type": "Point","coordinates": [103.823975,1.255302]}} 
{"id": "8440435122","server": "8356","farm": "9","userId": "77261899@N02","secret": "125db643fd","title": "","loc": {"type": "Point","coordinates": [103.8209,1.25631]}} 
{"id": "8437407245","server": "8327","farm": "9","userId": "91955862@N08","secret": "66bd2c6275","title": "","loc": {"type": "Point","coordinates": [103.82375,1.254734]}} 
{"id": "8438487102","server": "8081","farm": "9","userId": "91955862@N08","secret": "db459e81d8","title": "","loc": {"type": "Point","coordinates": [103.82375,1.254734]}} 
{"id": "8432673510","server": "8188","farm": "9","userId": "67851013@N02","secret": "829a0f7c4a","title": "#Arty in the #city 17/01/13.","loc": {"type": "Point","coordinates": [103.8209,1.25631]}} 
{"id": "8432673236","server": "8517","farm": "9","userId": "67851013@N02","secret": "869d08a0ea","title": "#Arty in the #city 17/01/13.","loc": {"type": "Point","coordinates": [103.8209,1.25631]}} 
{"id": "8432673898","server": "8352","farm": "9","userId": "67851013@N02","secret": "95b8859d05","title": "#Arty in the #city 17/01/13.","loc": {"type": "Point","coordinates": [103.8209,1.25631]}} 
{"id": "8431588963","server": "8517","farm": "9","userId": "67851013@N02","secret": "6376ff906b","title": "#Arty in the #city 17/01/13.","loc": {"type": "Point","coordinates": [103.8209,1.25631]}} 
{"id": "8431814666","server": "8476","farm": "9","userId": "8931509@N02","secret": "9692e8fd35","title": "im here at USS #sentosa #singapore","loc": {"type": "Point","coordinates": [103.82136,1.25646]}} 
{"id": "8430785930","server": "8374","farm": "9","userId": "74006149@N07","secret": "90becd9d0b","title": "Spinosaurus!!! Come to mommy #uss @hiiragishi","loc": {"type": "Point","coordinates": [103.82366,1.253769]}} 
{"id": "8430763032","server": "8334","farm": "9","userId": "74006149@N07","secret": "c6a0b67e63","title": "Finally uploading the #instagrams of my day at #USS .... tbh it been open so long yet it was my first time going in for the rides!","loc": {"type": "Point","coordinates": [103.82136,1.25646]}} 
{"id": "8430780930","server": "8077","farm": "9","userId": "26031812@N05","secret": "d1407ce6ce","title": "#singapore #trip #singaporetrip #universalstudio #universalstudiosingapore #uss #transformer #kids #bumblebee #performance #costume #photo #street #act #streetperformance #sentosa #sentosaisland #holiday","loc": {"type": "Point","coordinates": [103.82183,1.254395]}} 
{"id": "8430756456","server": "8377","farm": "9","userId": "26031812@N05","secret": "dd06eb793f","title": "#singapore #trip #singaporetrip #universalstudio #universalstudiosingapore #uss #hollywood #hollywoodstreet #street #performance","loc": {"type": "Point","coordinates": [103.821915,1.255177]}} 
{"id": "8429590053","server": "8497","farm": "9","userId": "26031812@N05","secret": "37664dd438","title": "@friskawidya #marilynmonroe #uss #singaporetrip #singapore #universalstudio #universalstudiosingapore #trip","loc": {"type": "Point","coordinates": [103.821915,1.255177]}} 
{"id": "8425823187","server": "8360","farm": "9","userId": "69921557@N00","secret": "b9f819c3ba","title": "Good fellas!","loc": {"type": "Point","coordinates": [103.82136,1.25646]}} 
{"id": "8419744964","server": "8358","farm": "9","userId": "74980912@N08","secret": "fd8b3b7bf6","title": "","loc": {"type": "Point","coordinates": [103.82183,1.254395]}} 
{"id": "8418615967","server": "8185","farm": "9","userId": "74980912@N08","secret": "09f4d32c6d","title": "","loc": {"type": "Point","coordinates": [103.82183,1.254395]}} 
{"id": "8419447104","server": "8467","farm": "9","userId": "74980912@N08","secret": "f6d0794bae","title": "","loc": {"type": "Point","coordinates": [103.82361,1.254976]}} 
{"id": "8418293527","server": "8083","farm": "9","userId": "74980912@N08","secret": "c3c3d063e6","title": "Chaplin !","loc": {"type": "Point","coordinates": [103.82136,1.25646]}} 
{"id": "8418290595","server": "8097","farm": "9","userId": "74980912@N08","secret": "e38c203d6f","title": "","loc": {"type": "Point","coordinates": [103.82136,1.25646]}} 
