{"id": "9297350119","server": "5452","farm": "6","userId": "55234719@N05","secret": "2cf275587d","title": "McD's Beef Rendang Burger and Curry Shaker Fries. :-)","loc": {"type": "Point","coordinates": [103.845665,1.275166]}} 
{"id": "9193265756","server": "3757","farm": "4","userId": "63209542@N08","secret": "7441180320","title": "Ready for a ride???","loc": {"type": "Point","coordinates": [103.84783,1.2765]}} 
{"id": "9172961196","server": "5461","farm": "6","userId": "61943224@N04","secret": "4def282ac7","title": "Singapore - Cilindrical High-Rise","loc": {"type": "Point","coordinates": [103.847084,1.27596]}} 
{"id": "9162419641","server": "5452","farm": "6","userId": "63209542@N08","secret": "588812d1bd","title": "There's a Babo on my flowers....","loc": {"type": "Point","coordinates": [103.848,1.277499]}} 
{"id": "8855317888","server": "7356","farm": "8","userId": "37147643@N02","secret": "1678af9722","title": "27May2013s","loc": {"type": "Point","coordinates": [103.84754,1.275841]}} 
{"id": "8771144493","server": "3756","farm": "4","userId": "63209542@N08","secret": "7624b2005f","title": "Dwarf of Asparagus","loc": {"type": "Point","coordinates": [103.84783,1.276833]}} 
{"id": "8755983723","server": "3684","farm": "4","userId": "63209542@N08","secret": "1c409a0e13","title": "New KZ arrivals.....","loc": {"type": "Point","coordinates": [103.84783,1.276833]}} 
{"id": "8749666653","server": "7435","farm": "8","userId": "37147643@N02","secret": "aa11c1952f","title": "18May2013s","loc": {"type": "Point","coordinates": [103.84549,1.27528]}} 
{"id": "8735801836","server": "7290","farm": "8","userId": "37147643@N02","secret": "b0b5a0c2f8","title": "13May2013s","loc": {"type": "Point","coordinates": [103.84833,1.276582]}} 
{"id": "8715814357","server": "7288","farm": "8","userId": "63209542@N08","secret": "e241c8c7ee","title": "Vintage Japanese White Dog Football Player & Coach Coin Banks","loc": {"type": "Point","coordinates": [103.847,1.277666]}} 
{"id": "8713031127","server": "8405","farm": "9","userId": "63209542@N08","secret": "1a8622323b","title": "7-11 Hello Kitty x Tokidoki","loc": {"type": "Point","coordinates": [103.847664,1.275499]}} 
{"id": "8707732604","server": "8556","farm": "9","userId": "37147643@N02","secret": "59e55be3ea","title": "4May2013s","loc": {"type": "Point","coordinates": [103.84822,1.276389]}} 
{"id": "8702289248","server": "8128","farm": "9","userId": "37147643@N02","secret": "09c26691c0","title": "2May2013","loc": {"type": "Point","coordinates": [103.84314,1.275982]}} 
{"id": "8701276204","server": "8262","farm": "9","userId": "40011875@N00","secret": "87876c877d","title": "Japanese lunch","loc": {"type": "Point","coordinates": [103.84692,1.276045]}} 
{"id": "8616102080","server": "8115","farm": "9","userId": "92593934@N04","secret": "8b757351b0","title": "Chef Nobu brings to life a vibrant spring with his new Spring Kaiseki menu. More on Six&Seven!","loc": {"type": "Point","coordinates": [103.844635,1.276687]}} 
{"id": "8586341856","server": "8387","farm": "9","userId": "37147643@N02","secret": "62ec216c8f","title": "24Mar2013s","loc": {"type": "Point","coordinates": [103.84509,1.275424]}} 
{"id": "8581880655","server": "8102","farm": "9","userId": "40381455@N00","secret": "31fc2af15f","title": "Barnacles, interesting!","loc": {"type": "Point","coordinates": [103.843925,1.277044]}} 
{"id": "8581847708","server": "8107","farm": "9","userId": "37147643@N02","secret": "a0befb6e44","title": "22Mar2013","loc": {"type": "Point","coordinates": [103.84711,1.276604]}} 
{"id": "8579895018","server": "8505","farm": "9","userId": "61587929@N06","secret": "83558f6fcf","title": "Dancing Weaver ant.","loc": {"type": "Point","coordinates": [103.843864,1.27787]}} 
{"id": "8556848306","server": "8252","farm": "9","userId": "63209542@N08","secret": "aed33557a9","title": "Going somewhere?","loc": {"type": "Point","coordinates": [103.845,1.276666]}} 
{"id": "8555585165","server": "8513","farm": "9","userId": "59545292@N07","secret": "db5f91eb71","title": "Buildings","loc": {"type": "Point","coordinates": [103.847206,1.277408]}} 
{"id": "8552062284","server": "8095","farm": "9","userId": "19109134@N00","secret": "d0d08bc0bf","title": "Setting Up","loc": {"type": "Point","coordinates": [103.84423,1.277784]}} 
{"id": "8535391401","server": "8100","farm": "9","userId": "63209542@N08","secret": "60353208d8","title": "Sweets ReMent","loc": {"type": "Point","coordinates": [103.84783,1.276333]}} 
{"id": "8536497822","server": "8365","farm": "9","userId": "63209542@N08","secret": "c49554a069","title": "Aloha Rilakkuma ReMent","loc": {"type": "Point","coordinates": [103.84783,1.2765]}} 
{"id": "8517182303","server": "8382","farm": "9","userId": "63209542@N08","secret": "57bdb73d64","title": "Kinder No Joy 2","loc": {"type": "Point","coordinates": [103.848335,1.276666]}} 
{"id": "8514784249","server": "8521","farm": "9","userId": "41298448@N08","secret": "be3a24bc6a","title": "Repair","loc": {"type": "Point","coordinates": [103.84571,1.276438]}} 
{"id": "8511570921","server": "8230","farm": "9","userId": "63209542@N08","secret": "a584b242a0","title": "Elly loves Jelly","loc": {"type": "Point","coordinates": [103.846664,1.275666]}} 
{"id": "8493272715","server": "8093","farm": "9","userId": "62375235@N00","secret": "d39d7695fd","title": "view from my flat","loc": {"type": "Point","coordinates": [103.84473,1.275445]}} 
{"id": "8491440023","server": "8248","farm": "9","userId": "37147643@N02","secret": "f140c8b352","title": "20Feb2013s","loc": {"type": "Point","coordinates": [103.84751,1.27536]}} 
{"id": "8488424705","server": "8103","farm": "9","userId": "37147643@N02","secret": "9fb9f30d3f","title": "19Feb2013s","loc": {"type": "Point","coordinates": [103.84393,1.276947]}} 
{"id": "8485747680","server": "8384","farm": "9","userId": "92923304@N08","secret": "a233b35847","title": "Korean BBQ @ Super Star K Korean BBQ","loc": {"type": "Point","coordinates": [103.84385,1.277967]}} 
{"id": "8485678568","server": "8518","farm": "9","userId": "92923304@N08","secret": "0aa723e6bc","title": "Korean BBQ @ Super Star K Korean BBQ","loc": {"type": "Point","coordinates": [103.84385,1.277967]}} 
{"id": "8485661156","server": "8518","farm": "9","userId": "92923304@N08","secret": "fe4a00226c","title": "Ban Chan @ Super Star K Korean BBQ","loc": {"type": "Point","coordinates": [103.84385,1.277967]}} 
{"id": "8485647242","server": "8507","farm": "9","userId": "92923304@N08","secret": "dda06521eb","title": "Korean BBQ @ Super Star K Korean BBQ","loc": {"type": "Point","coordinates": [103.84385,1.277967]}} 
{"id": "8484548479","server": "8387","farm": "9","userId": "92923304@N08","secret": "d085199c82","title": "Korean BBQ @ Super Star K Korean BBQ","loc": {"type": "Point","coordinates": [103.84385,1.277967]}} 
{"id": "8485643938","server": "8369","farm": "9","userId": "92923304@N08","secret": "0e7f20fea2","title": "Korean BBQ @ Super Star K Korean BBQ","loc": {"type": "Point","coordinates": [103.84385,1.277967]}} 
{"id": "8460266877","server": "8094","farm": "9","userId": "23215539@N04","secret": "59f2f46c59","title": "Blick auf einen Teil vom Hafen","loc": {"type": "Point","coordinates": [103.84713,1.275767]}} 
{"id": "8461364950","server": "8101","farm": "9","userId": "23215539@N04","secret": "926f6b8f22","title": "hoch oben in Singapur","loc": {"type": "Point","coordinates": [103.84706,1.275789]}} 
{"id": "8444743700","server": "8334","farm": "9","userId": "29817125@N05","secret": "26c01e65c2","title": "Apple IMG_9183","loc": {"type": "Point","coordinates": [103.84319,1.275519]}} 
{"id": "8426276493","server": "8373","farm": "9","userId": "19109134@N00","secret": "034bcbe165","title": "Leaving","loc": {"type": "Point","coordinates": [103.844376,1.277709]}} 
{"id": "8425400011","server": "8509","farm": "9","userId": "63209542@N08","secret": "7ec08d37ae","title": "Would you like a candy Mr Cat from Next Door?","loc": {"type": "Point","coordinates": [103.847664,1.276833]}} 
{"id": "8425381531","server": "8475","farm": "9","userId": "63209542@N08","secret": "459955cf31","title": "A Rody Line","loc": {"type": "Point","coordinates": [103.84583,1.276]}} 
{"id": "8395953214","server": "8044","farm": "9","userId": "19109134@N00","secret": "8116b50bc8","title": "Scene From a Restaurant","loc": {"type": "Point","coordinates": [103.84433,1.277837]}} 
{"id": "8392822610","server": "8359","farm": "9","userId": "37147643@N02","secret": "cf385c79eb","title": "18Jan2013s","loc": {"type": "Point","coordinates": [103.84773,1.275617]}} 
{"id": "8391738089","server": "8467","farm": "9","userId": "37147643@N02","secret": "86012f6fe1","title": "18Jan2013","loc": {"type": "Point","coordinates": [103.84773,1.275639]}} 
{"id": "8389978698","server": "8376","farm": "9","userId": "19109134@N00","secret": "719522668a","title": "Dragon","loc": {"type": "Point","coordinates": [103.84431,1.277837]}} 
{"id": "8384364122","server": "8226","farm": "9","userId": "23215539@N04","secret": "7aa30c0bc8","title": "Singapore 2012","loc": {"type": "Point","coordinates": [103.84367,1.276926]}} 
{"id": "8383278245","server": "8329","farm": "9","userId": "23215539@N04","secret": "ca4c90a7e1","title": "Singapore 2012","loc": {"type": "Point","coordinates": [103.84397,1.277119]}} 
{"id": "8384361262","server": "8518","farm": "9","userId": "23215539@N04","secret": "e93f476a22","title": "Singapore 2012","loc": {"type": "Point","coordinates": [103.8446,1.277741]}} 
{"id": "8382847478","server": "8184","farm": "9","userId": "63209542@N08","secret": "de73c17ecf","title": "Cookie Break at the Office","loc": {"type": "Point","coordinates": [103.84817,1.277167]}} 
{"id": "8376636224","server": "8193","farm": "9","userId": "23215539@N04","secret": "bb22b317de","title": "Singapore 2012","loc": {"type": "Point","coordinates": [103.84367,1.277011]}} 
{"id": "8376637694","server": "8221","farm": "9","userId": "23215539@N04","secret": "f9ab0f4e91","title": "Singapore 2012","loc": {"type": "Point","coordinates": [103.84385,1.277569]}} 
{"id": "8372608103","server": "8082","farm": "9","userId": "37147643@N02","secret": "43febbea81","title": "12Jan2013s","loc": {"type": "Point","coordinates": [103.84464,1.275681]}} 
{"id": "8366956484","server": "8358","farm": "9","userId": "63209542@N08","secret": "3ec5d4a1f3","title": "Smile World","loc": {"type": "Point","coordinates": [103.848,1.276667]}} 
{"id": "9412414412","server": "7303","farm": "8","userId": "24773033@N02","secret": "4410a73d8a","title": "Set a guard over my mouth, O Lord; keep watch over the door of my lips. - Psalm 141:3 #hebreo12 #proverbs31 #trainmoment #shutupifyoumust #zipthoselips #heart #lips #thoughts #emotion #selfcontrol #galatians5 #fruitsofthespirit #guiltyofthisattimes #grace","loc": {"type": "Point","coordinates": [103.8457,1.276432]}} 
{"id": "9321037932","server": "5466","farm": "6","userId": "30436867@N00","secret": "c840e6db0b","title": "Beautifully everywhere","loc": {"type": "Point","coordinates": [103.845116,1.276665]}} 
{"id": "9302357923","server": "5496","farm": "6","userId": "91030800@N04","secret": "41f25ae218","title": "#Wednesday is the best breakfast day at Yahoo!","loc": {"type": "Point","coordinates": [103.84589,1.276356]}} 
{"id": "9288523834","server": "7443","farm": "8","userId": "25530545@N04","secret": "6b8c01a2f7","title": "2013-06-26 at 12-22-35","loc": {"type": "Point","coordinates": [103.847336,1.277667]}} 
{"id": "9285747789","server": "2835","farm": "3","userId": "25530545@N04","secret": "1d521ebbd3","title": "2013-06-26 at 12-23-52","loc": {"type": "Point","coordinates": [103.84717,1.277833]}} 
{"id": "9285749369","server": "3781","farm": "4","userId": "25530545@N04","secret": "40aa1e4de8","title": "2013-06-26 at 12-24-05","loc": {"type": "Point","coordinates": [103.84717,1.2765]}} 
{"id": "9288529396","server": "3709","farm": "4","userId": "25530545@N04","secret": "03061a61f2","title": "2013-06-26 at 12-24-21","loc": {"type": "Point","coordinates": [103.84683,1.276667]}} 
{"id": "9288524448","server": "7340","farm": "8","userId": "25530545@N04","secret": "b62b661e03","title": "2013-06-26 at 12-22-39","loc": {"type": "Point","coordinates": [103.847336,1.277667]}} 
{"id": "9285755113","server": "3830","farm": "4","userId": "25530545@N04","secret": "499002527a","title": "2013-06-26 at 12-36-49","loc": {"type": "Point","coordinates": [103.847,1.276333]}} 
{"id": "9288530078","server": "7427","farm": "8","userId": "25530545@N04","secret": "6f3c7176f4","title": "2013-06-26 at 12-28-07","loc": {"type": "Point","coordinates": [103.84683,1.276667]}} 
{"id": "9285753417","server": "3707","farm": "4","userId": "25530545@N04","secret": "87c188a4ec","title": "2013-06-26 at 12-35-15","loc": {"type": "Point","coordinates": [103.8465,1.277667]}} 
{"id": "9288527774","server": "5330","farm": "6","userId": "25530545@N04","secret": "7f9f44fdac","title": "2013-06-26 at 12-24-10","loc": {"type": "Point","coordinates": [103.84717,1.2765]}} 
{"id": "9288533242","server": "3751","farm": "4","userId": "25530545@N04","secret": "99ec350844","title": "2013-06-26 at 12-37-03","loc": {"type": "Point","coordinates": [103.8465,1.277333]}} 
{"id": "9285750893","server": "2838","farm": "3","userId": "25530545@N04","secret": "ab0cfaa2ef","title": "2013-06-26 at 12-24-16","loc": {"type": "Point","coordinates": [103.84683,1.276667]}} 
{"id": "9285748617","server": "7351","farm": "8","userId": "25530545@N04","secret": "e96072c0da","title": "2013-06-26 at 12-23-59","loc": {"type": "Point","coordinates": [103.84717,1.277833]}} 
{"id": "9281760814","server": "5523","farm": "6","userId": "92593934@N04","secret": "411500ff43","title": "Cheeky 3D graffiti wall art--even the frame is spray painted on--of a cherubic wine-drink, pissing boy by a local artist.","loc": {"type": "Point","coordinates": [103.84347,1.275499]}} 
{"id": "9268850062","server": "2809","farm": "3","userId": "92593934@N04","secret": "46725dec83","title": "Above You Vol. 127","loc": {"type": "Point","coordinates": [103.84347,1.275499]}} 
{"id": "9266695014","server": "7429","farm": "8","userId": "92593934@N04","secret": "2f0a9fee79","title": "Unassuming but tasty Braised Pork Belly Bun, layered with house-pickled cucumber, leeks and espellette pepper.","loc": {"type": "Point","coordinates": [103.84347,1.275499]}} 
{"id": "9260078544","server": "7324","farm": "8","userId": "96909191@N06","secret": "e8ebcf7639","title": "Train sketch with a seat is luxurious !!Singapore #subway #mrt #singaporeartists #sketching #drawing #urbansketch #art #female #people #doodles #commute #drawings #sketchbook #sketchoftheday","loc": {"type": "Point","coordinates": [103.84664,1.276852]}} 
{"id": "9255525658","server": "5342","farm": "6","userId": "92593934@N04","secret": "5e879c6779","title": "8-day old restaurant!","loc": {"type": "Point","coordinates": [103.84347,1.275499]}} 
{"id": "9228426492","server": "3826","farm": "4","userId": "14385475@N05","secret": "b9bb3c979c","title": "IMG_8608","loc": {"type": "Point","coordinates": [103.84533,1.275333]}} 
{"id": "9225650239","server": "3721","farm": "4","userId": "14385475@N05","secret": "25bb1943ac","title": "IMG_8611","loc": {"type": "Point","coordinates": [103.84333,1.275]}} 
{"id": "9175974936","server": "3698","farm": "4","userId": "58072194@N08","secret": "07183d932b","title": "6_22","loc": {"type": "Point","coordinates": [103.847,1.276]}} 
{"id": "9166187135","server": "3731","farm": "4","userId": "41894167963@N01","secret": "74e79617ce","title": "Teppei Omakase","loc": {"type": "Point","coordinates": [103.843666,1.276333]}} 
{"id": "9168426174","server": "7361","farm": "8","userId": "41894167963@N01","secret": "4fd5818913","title": "Teppei Omakase","loc": {"type": "Point","coordinates": [103.843834,1.276333]}} 
{"id": "9166190787","server": "7319","farm": "8","userId": "41894167963@N01","secret": "f5c187f273","title": "Teppei Omakase","loc": {"type": "Point","coordinates": [103.843834,1.276333]}} 
{"id": "9168419734","server": "5542","farm": "6","userId": "41894167963@N01","secret": "0fdf9cd606","title": "Teppei Omakase","loc": {"type": "Point","coordinates": [103.843834,1.276333]}} 
{"id": "9159761326","server": "7333","farm": "8","userId": "91963736@N02","secret": "68d3b27611","title": "Last night at Icon","loc": {"type": "Point","coordinates": [103.8449,1.275725]}} 
{"id": "9149273659","server": "3725","farm": "4","userId": "46163453@N06","secret": "4b28b577e4","title": "Capital Tower","loc": {"type": "Point","coordinates": [103.84719,1.277168]}} 
{"id": "9132545802","server": "7448","farm": "8","userId": "96466248@N05","secret": "019a1505ff","title": "","loc": {"type": "Point","coordinates": [103.84719,1.277168]}} 
{"id": "9113628773","server": "7367","farm": "8","userId": "84069145@N00","secret": "013120d873","title": "A glimpse of old Singapore","loc": {"type": "Point","coordinates": [103.84336,1.278044]}} 
{"id": "9102067770","server": "3805","farm": "4","userId": "41894167963@N01","secret": "d3debb2fbc","title": "This morning's haze","loc": {"type": "Point","coordinates": [103.847336,1.277833]}} 
{"id": "9100458306","server": "3780","farm": "4","userId": "55234719@N05","secret": "83b7ab26da","title": "Tontoro Ramen!!!","loc": {"type": "Point","coordinates": [103.8442,1.275574]}} 
{"id": "9073059448","server": "7411","farm": "8","userId": "95040365@N05","secret": "ddbb0e578d","title": "2013-05-11 13.44.41","loc": {"type": "Point","coordinates": [103.8435,1.277333]}} 
{"id": "9065522838","server": "3676","farm": "4","userId": "21997205@N00","secret": "14ee942d98","title": "With the current haze situation, it doesn't matter whether I'm wearing my glasses or contacts, or not. Everything looks the same: an overwhelming murky milky blur.","loc": {"type": "Point","coordinates": [103.847984,1.277364]}} 
{"id": "9048491132","server": "7395","farm": "8","userId": "92993390@N00","secret": "e3ec8685e6","title": "The pulled pork sandwich is consistently good here! @twoblurguys","loc": {"type": "Point","coordinates": [103.8434,1.276835]}} 
{"id": "9045770493","server": "3804","farm": "4","userId": "92993390@N00","secret": "c6e98c4af2","title": "My neighbourhood. 'The purple place' is closed. No more cheap beer. :(","loc": {"type": "Point","coordinates": [103.84311,1.277923]}} 
{"id": "9040721996","server": "5500","farm": "6","userId": "30684698@N02","secret": "93a96772d1","title": "Visiting Dentsu SG Office","loc": {"type": "Point","coordinates": [103.848,1.277896]}} 
{"id": "9040724894","server": "2871","farm": "3","userId": "30684698@N02","secret": "aabd6b69db","title": "Visiting Dentsu SG Office","loc": {"type": "Point","coordinates": [103.848,1.277896]}} 
{"id": "9029942325","server": "2833","farm": "3","userId": "92993390@N00","secret": "1e4df1f9a7","title": "Monster fruit!","loc": {"type": "Point","coordinates": [103.84308,1.275558]}} 
{"id": "9013080049","server": "2862","farm": "3","userId": "97308809@N08","secret": "94d843544d","title": "Workshop di Singapura","loc": {"type": "Point","coordinates": [103.84562,1.275993]}} 
{"id": "9014277278","server": "5338","farm": "6","userId": "97308809@N08","secret": "df54be73d3","title": "Workshop di Singapura","loc": {"type": "Point","coordinates": [103.84562,1.275993]}} 
{"id": "8984816760","server": "5444","farm": "6","userId": "30305407@N00","secret": "27be17bf71","title": "Earlier this week: a SERIOUSLY yum dinner with @klbeasley. Look at that #burrata. zomg. at Latteria Mozzarella Bar","loc": {"type": "Point","coordinates": [103.84533,1.276]}} 
{"id": "8956311338","server": "8276","farm": "9","userId": "60428944@N00","secret": "b61cca2a40","title": "Later!","loc": {"type": "Point","coordinates": [103.845665,1.275]}} 
{"id": "8948101246","server": "7360","farm": "8","userId": "48889054224@N01","secret": "9c7c749bfe","title": "Oh my god save me from this omakase","loc": {"type": "Point","coordinates": [103.843925,1.277044]}} 
{"id": "8933248689","server": "7299","farm": "8","userId": "55234719@N05","secret": "55dec6c7bc","title": "Sad! Favorite ramen place near the SG office is CLOSED!","loc": {"type": "Point","coordinates": [103.8443,1.275326]}} 
{"id": "8916625355","server": "3805","farm": "4","userId": "26687436@N06","secret": "ce03484629","title": "Singapore is very much a construction zone. Tall cranes extend skyward.","loc": {"type": "Point","coordinates": [103.843575,1.276287]}} 
{"id": "8916572111","server": "8274","farm": "9","userId": "26687436@N06","secret": "fc6da55f3c","title": "Dinner time Singapore - one of my local eating places. It has lots of variety and is inexpensive. Open air eating :-)","loc": {"type": "Point","coordinates": [103.84308,1.275558]}} 
{"id": "8899614243","server": "8137","farm": "9","userId": "92993390@N00","secret": "cd0290253a","title": "Botak daddy God be crawlin wit da chilrenz!","loc": {"type": "Point","coordinates": [103.84327,1.276497]}} 
{"id": "8896548753","server": "5452","farm": "6","userId": "92993390@N00","secret": "30bc421e22","title": "Ahhh, the shared toilet. Too small to show you the stall door. Cracks me up.","loc": {"type": "Point","coordinates": [103.843605,1.276679]}} 
{"id": "8890426152","server": "3766","farm": "4","userId": "41088951@N00","secret": "720e860118","title": "--","loc": {"type": "Point","coordinates": [103.84417,1.277819]}} 
{"id": "8888302580","server": "5342","farm": "6","userId": "92993390@N00","secret": "e83a15d6d7","title": "Pimped out bicycle even has luche libre figurine masks!","loc": {"type": "Point","coordinates": [103.843605,1.276679]}} 
{"id": "8888290394","server": "3745","farm": "4","userId": "92993390@N00","secret": "847e14749c","title": "Escaping the paint fumes in my flat and met the owner of this bike after drinking a pint of Kirin. He rocks!","loc": {"type": "Point","coordinates": [103.843605,1.276679]}} 
{"id": "8888315032","server": "2857","farm": "3","userId": "92993390@N00","secret": "26070dafd5","title": "Did I mention it has music coming out of the back? The dude must be like 70. Love it!","loc": {"type": "Point","coordinates": [103.843605,1.276679]}} 
{"id": "8867954467","server": "5460","farm": "6","userId": "86532654@N03","secret": "2db621e554","title": "puffer fish","loc": {"type": "Point","coordinates": [103.84356,1.276683]}} 
{"id": "8838414794","server": "3770","farm": "4","userId": "12164554@N04","secret": "50252ea09b","title": "Tanjong Pagar","loc": {"type": "Point","coordinates": [103.84565,1.276196]}} 
{"id": "8838411022","server": "3671","farm": "4","userId": "12164554@N04","secret": "bacb22ef1c","title": "Tanjong Pagar","loc": {"type": "Point","coordinates": [103.84565,1.276196]}} 
{"id": "8838409722","server": "8550","farm": "9","userId": "12164554@N04","secret": "35c98c0847","title": "The Pinnacle, Tanjong Pagar","loc": {"type": "Point","coordinates": [103.84565,1.276196]}} 
{"id": "8799898611","server": "2874","farm": "3","userId": "8905247@N08","secret": "cefb5b809d","title": "Public holiday #sandwich drop-off!","loc": {"type": "Point","coordinates": [103.84625,1.275853]}} 
{"id": "8761319693","server": "5464","farm": "6","userId": "52537869@N00","secret": "67480479d3","title": "豚骨王拉麵","loc": {"type": "Point","coordinates": [103.84417,1.276499]}} 
{"id": "8756546231","server": "5458","farm": "6","userId": "55844827@N00","secret": "b155378e61","title": "DSC_1571","loc": {"type": "Point","coordinates": [103.84704,1.276819]}} 
{"id": "8752809151","server": "8398","farm": "9","userId": "91030800@N04","secret": "2dae1e9bd1","title": "#Sunday #work","loc": {"type": "Point","coordinates": [103.8443,1.275326]}} 
{"id": "8730467167","server": "7429","farm": "8","userId": "30436867@N00","secret": "ceb0056b34","title": "Pork ribeye part II","loc": {"type": "Point","coordinates": [103.84467,1.275895]}} 
{"id": "8731579366","server": "7362","farm": "8","userId": "30436867@N00","secret": "b15e09e40a","title": "Pork rib-eye","loc": {"type": "Point","coordinates": [103.84467,1.275895]}} 
{"id": "8730455721","server": "7452","farm": "8","userId": "30436867@N00","secret": "20cb87aa3e","title": "Bacalao a la parrilla","loc": {"type": "Point","coordinates": [103.84467,1.275895]}} 
{"id": "8730433841","server": "7437","farm": "8","userId": "30436867@N00","secret": "c48e89bda0","title": "Roquefort y Apio Empanadas","loc": {"type": "Point","coordinates": [103.84467,1.275895]}} 
{"id": "8730435527","server": "7448","farm": "8","userId": "30436867@N00","secret": "9b8fd2435b","title": "Pollo Empanadas","loc": {"type": "Point","coordinates": [103.84467,1.275895]}} 
{"id": "8731532980","server": "7404","farm": "8","userId": "30436867@N00","secret": "cd7ea963cc","title": "Salta dining table","loc": {"type": "Point","coordinates": [103.84467,1.275895]}} 
{"id": "8731532542","server": "7401","farm": "8","userId": "30436867@N00","secret": "13e4315e88","title": "Complimentary starter","loc": {"type": "Point","coordinates": [103.84467,1.275895]}} 
{"id": "8716694439","server": "7362","farm": "8","userId": "92993390@N00","secret": "eda13dc0bd","title": "Looks like laminator two is headed for the rubbish heap today. Why can't they design these things to last?!!!","loc": {"type": "Point","coordinates": [103.843,1.278]}} 
{"id": "8717469410","server": "7349","farm": "8","userId": "63209542@N08","secret": "06799d38ff","title": "Fresh and Cute Mushroom","loc": {"type": "Point","coordinates": [103.84717,1.277499]}} 
{"id": "8711830739","server": "8545","farm": "9","userId": "8150902@N02","secret": "5ebb084572","title": "'A Congregation' #lookup series - 5. Have a good start of the week!","loc": {"type": "Point","coordinates": [103.8474,1.277193]}} 
{"id": "8707042068","server": "8403","farm": "9","userId": "30305407@N00","secret": "091a49cbd8","title": "scenes from last night at Otto @ red dot","loc": {"type": "Point","coordinates": [103.84533,1.275499]}} 
{"id": "8705915043","server": "8255","farm": "9","userId": "30305407@N00","secret": "1711d19c22","title": "scenes from last night at Artery","loc": {"type": "Point","coordinates": [103.84533,1.275499]}} 
{"id": "8703465365","server": "8128","farm": "9","userId": "92993390@N00","secret": "c7b5fb895d","title": "Strange illustrations on side of a van.","loc": {"type": "Point","coordinates": [103.84327,1.276497]}} 
{"id": "8691941440","server": "8546","farm": "9","userId": "89975165@N07","secret": "895d30daa1","title": "Black Spicy Tonkotsu Ramen with Flavoured Egg.","loc": {"type": "Point","coordinates": [103.84378,1.275789]}} 
{"id": "8684337677","server": "8261","farm": "9","userId": "76804634@N00","secret": "0338759abf","title": "Been looking forward to this for a while","loc": {"type": "Point","coordinates": [103.84346,1.276844]}} 
{"id": "8664837129","server": "8252","farm": "9","userId": "32980384@N05","secret": "89416fe0c1","title": "_DSC6108","loc": {"type": "Point","coordinates": [103.84727,1.276669]}} 
{"id": "8653515574","server": "8258","farm": "9","userId": "79503469@N00","secret": "1ecfed3091","title": "Fluffy Taiwanese","loc": {"type": "Point","coordinates": [103.84356,1.277387]}} 
{"id": "8652413997","server": "8240","farm": "9","userId": "79503469@N00","secret": "b8735b6afc","title": "Faces at the window","loc": {"type": "Point","coordinates": [103.84356,1.277387]}} 
{"id": "8644329481","server": "8385","farm": "9","userId": "61670399@N07","secret": "3a178125d4","title": "Burgers 4 din","loc": {"type": "Point","coordinates": [103.84334,1.276842]}} 
{"id": "8639829168","server": "8263","farm": "9","userId": "24358066@N08","secret": "e69efd2318","title": "Tropical fruit","loc": {"type": "Point","coordinates": [103.843124,1.275038]}} 
{"id": "8634984384","server": "8523","farm": "9","userId": "67851013@N02","secret": "97a4f4312f","title": "#Food heals the #world 09/04/13.","loc": {"type": "Point","coordinates": [103.84298,1.277125]}} 
{"id": "8633875537","server": "8115","farm": "9","userId": "67851013@N02","secret": "6fe0d0727a","title": "#Food heals the #world 09/04/13.","loc": {"type": "Point","coordinates": [103.84298,1.277125]}} 
{"id": "8631460492","server": "8397","farm": "9","userId": "60428944@N00","secret": "86213313e6","title": "Stormy Monday","loc": {"type": "Point","coordinates": [103.84625,1.275854]}} 
{"id": "8621962773","server": "8404","farm": "9","userId": "34865466@N05","secret": "eb9f7cb698","title": "Stunning @roxxi1993 Alphabet hangout with @erickzq @gracietan21 @alex_xuanhong","loc": {"type": "Point","coordinates": [103.84351,1.275134]}} 
{"id": "8616975884","server": "8394","farm": "9","userId": "92993390@N00","secret": "0f6b03cf16","title": "You don't know how much restraint it took not to buy one of these!","loc": {"type": "Point","coordinates": [103.84292,1.277538]}} 
{"id": "8616980508","server": "8388","farm": "9","userId": "92993390@N00","secret": "dacde6de82","title": "Is riding a camel similar to riding an elephant? I'd think there would be more spitting involved.","loc": {"type": "Point","coordinates": [103.84292,1.277538]}} 
{"id": "8614006530","server": "8533","farm": "9","userId": "13310626@N08","secret": "bf7a25d497","title": "Sigma dp2 Merrill close up 'kit'","loc": {"type": "Point","coordinates": [103.843666,1.276833]}} 
{"id": "8582979340","server": "8373","farm": "9","userId": "52135377@N05","secret": "3c14812571","title": "Lou Pa Sat","loc": {"type": "Point","coordinates": [103.84702,1.275713]}} 
{"id": "8581023161","server": "8528","farm": "9","userId": "91405201@N04","secret": "69618c8005","title": "","loc": {"type": "Point","coordinates": [103.848,1.275333]}} 
{"id": "8580989615","server": "8089","farm": "9","userId": "76804634@N00","secret": "349ed86be4","title": "The 35. #leica #summarit #35mm","loc": {"type": "Point","coordinates": [103.84627,1.277221]}} 
{"id": "8580973871","server": "8087","farm": "9","userId": "10966331@N04","secret": "ff2cb19a81","title": "","loc": {"type": "Point","coordinates": [103.8435,1.276166]}} 
{"id": "8573371923","server": "8249","farm": "9","userId": "9676284@N03","secret": "705c9dd2a6","title": "upload","loc": {"type": "Point","coordinates": [103.84755,1.277441]}} 
{"id": "8568047965","server": "8521","farm": "9","userId": "92993390@N00","secret": "174c6c6755","title": "Ye ye! Thumbs up dude.","loc": {"type": "Point","coordinates": [103.84327,1.276497]}} 
{"id": "8564766428","server": "8112","farm": "9","userId": "24773033@N02","secret": "c5d9257003","title": "LG mates - let's get the ball rolling and continue to meet, pray & encourage each other over our LG materials and a newly pressed coffee!!!!  #investingonfriendship #discipleship #lifegroup #friendship #thankful #coffee #starbucks #espresso #excitedmuch","loc": {"type": "Point","coordinates": [103.84719,1.277372]}} 
{"id": "8553003359","server": "8524","farm": "9","userId": "40011875@N00","secret": "c85749dca8","title": "Grilled snapper","loc": {"type": "Point","coordinates": [103.84567,1.275413]}} 
{"id": "8538848970","server": "8385","farm": "9","userId": "92593934@N04","secret": "00e9c733e7","title": "Above You Vol. 72","loc": {"type": "Point","coordinates": [103.84514,1.275819]}} 
{"id": "8535017305","server": "8111","farm": "9","userId": "41933249@N08","secret": "b8faf45926","title": "Nice Argentina restaurant. Not sure about the food","loc": {"type": "Point","coordinates": [103.84475,1.275167]}} 
{"id": "8536122544","server": "8385","farm": "9","userId": "41933249@N08","secret": "9492837c3e","title": "Lunching at SALTA #argentinarestaurant","loc": {"type": "Point","coordinates": [103.84467,1.275895]}} 
{"id": "8524467010","server": "8523","farm": "9","userId": "92993390@N00","secret": "c9b7078270","title": "Breakfast for dinner.","loc": {"type": "Point","coordinates": [103.84286,1.27788]}} 
{"id": "8518297366","server": "8526","farm": "9","userId": "63209542@N08","secret": "c081e646ea","title": "Kinder No Joy 3","loc": {"type": "Point","coordinates": [103.84817,1.277166]}} 
{"id": "8517185673","server": "8524","farm": "9","userId": "63209542@N08","secret": "fbf9a4a5ee","title": "Kinder Dog Stars","loc": {"type": "Point","coordinates": [103.84817,1.276666]}} 
{"id": "8517186097","server": "8247","farm": "9","userId": "63209542@N08","secret": "8695bf45e3","title": "Kinder Beaver","loc": {"type": "Point","coordinates": [103.848,1.2765]}} 
{"id": "8516364914","server": "8509","farm": "9","userId": "40138859@N02","secret": "1632b5dc04","title": "Why eat, just shoot.","loc": {"type": "Point","coordinates": [103.8436,1.277971]}} 
{"id": "8505656185","server": "8228","farm": "9","userId": "63209542@N08","secret": "904bb4ee8e","title": "Kinder Chimp","loc": {"type": "Point","coordinates": [103.84817,1.277]}} 
{"id": "8506766296","server": "8238","farm": "9","userId": "63209542@N08","secret": "1b582e1740","title": "Kinder Chimp","loc": {"type": "Point","coordinates": [103.848,1.276833]}} 
{"id": "8497103557","server": "8102","farm": "9","userId": "17528871@N00","secret": "e30d3057b1","title": "My word. Would you look at that?","loc": {"type": "Point","coordinates": [103.8436,1.277971]}} 
{"id": "8497027005","server": "8529","farm": "9","userId": "17528871@N00","secret": "49da326c5b","title": "Fuel for the fire.","loc": {"type": "Point","coordinates": [103.8436,1.277971]}} 
{"id": "8493848807","server": "8095","farm": "9","userId": "92923304@N08","secret": "d35bee19c0","title": "Basic Ramen @ Tonkotsu King","loc": {"type": "Point","coordinates": [103.84404,1.276278]}} 
{"id": "8494944676","server": "8233","farm": "9","userId": "92923304@N08","secret": "8730f197d4","title": "Spicy Red Ramen @ Tonkotsu King","loc": {"type": "Point","coordinates": [103.84404,1.276278]}} 
{"id": "8494927582","server": "8232","farm": "9","userId": "92923304@N08","secret": "8d73881038","title": "Spicy Red Ramen @ Tonkotsu King","loc": {"type": "Point","coordinates": [103.84404,1.276278]}} 
{"id": "8488508353","server": "8095","farm": "9","userId": "91396114@N07","secret": "3cb56f0d85","title": "Korean Fried Chicken","loc": {"type": "Point","coordinates": [103.84431,1.277908]}} 
{"id": "8489030060","server": "8513","farm": "9","userId": "51188012@N00","secret": "b4ae4f8035","title": "Singapore sunset from the 19th floor.","loc": {"type": "Point","coordinates": [103.8452,1.276678]}} 
{"id": "8485695484","server": "8509","farm": "9","userId": "92923304@N08","secret": "591e37d583","title": "Ban Chan @ Super Star K Korean BBQ","loc": {"type": "Point","coordinates": [103.84385,1.277967]}} 
{"id": "8484583699","server": "8517","farm": "9","userId": "92923304@N08","secret": "9b058d1f68","title": "Korean BBQ @ Super Star K Korean BBQ","loc": {"type": "Point","coordinates": [103.84385,1.277967]}} 
{"id": "8485672392","server": "8516","farm": "9","userId": "92923304@N08","secret": "605d049eb5","title": "Korean BBQ @ Super Star K Korean BBQ","loc": {"type": "Point","coordinates": [103.84385,1.277967]}} 
{"id": "8485683114","server": "8228","farm": "9","userId": "92923304@N08","secret": "fa648391da","title": "Ban Chan @ Super Star K Korean BBQ","loc": {"type": "Point","coordinates": [103.84385,1.277967]}} 
{"id": "8485654320","server": "8378","farm": "9","userId": "92923304@N08","secret": "37c4205975","title": "Korean BBQ @ Super Star K Korean BBQ","loc": {"type": "Point","coordinates": [103.84385,1.277967]}} 
{"id": "8484564829","server": "8513","farm": "9","userId": "92923304@N08","secret": "ef03be0bda","title": "Korean BBQ @ Super Star K Korean BBQ","loc": {"type": "Point","coordinates": [103.84385,1.277967]}} 
{"id": "8485664624","server": "8370","farm": "9","userId": "92923304@N08","secret": "a55fb88893","title": "Korean BBQ @ Super Star K Korean BBQ","loc": {"type": "Point","coordinates": [103.84385,1.277967]}} 
{"id": "8485667848","server": "8230","farm": "9","userId": "92923304@N08","secret": "08b8ba0813","title": "Korean BBQ @ Super Star K Korean BBQ","loc": {"type": "Point","coordinates": [103.84385,1.277967]}} 
{"id": "8478562033","server": "8527","farm": "9","userId": "9486845@N08","secret": "b2ee2a5973","title": "Apparenze","loc": {"type": "Point","coordinates": [103.84724,1.275038]}} 
{"id": "8475700713","server": "8512","farm": "9","userId": "92923304@N08","secret": "e255d80cec","title": "Mee Rebus @ International Plaza","loc": {"type": "Point","coordinates": [103.84597,1.275848]}} 
{"id": "8457770962","server": "8531","farm": "9","userId": "40138859@N02","secret": "fbc772e8a4","title": "Just a cup.","loc": {"type": "Point","coordinates": [103.84318,1.276774]}} 
{"id": "8456406754","server": "8231","farm": "9","userId": "41894167963@N01","secret": "b1bf224a0c","title": "Sausage rosti","loc": {"type": "Point","coordinates": [103.847664,1.276167]}} 
{"id": "8455306867","server": "8376","farm": "9","userId": "41894167963@N01","secret": "91055e758c","title": "Once Upon A Rosti","loc": {"type": "Point","coordinates": [103.8475,1.276667]}} 
{"id": "8455308581","server": "8249","farm": "9","userId": "41894167963@N01","secret": "96493afced","title": "Once Upon A Rosti","loc": {"type": "Point","coordinates": [103.847336,1.276333]}} 
{"id": "8449642783","server": "8233","farm": "9","userId": "45998941@N08","secret": "4a1f02bc28","title": "Chicken risotto","loc": {"type": "Point","coordinates": [103.846535,1.277137]}} 
{"id": "8422860358","server": "8192","farm": "9","userId": "48889054224@N01","secret": "7a67421a00","title": "Sesame, sesame mucho","loc": {"type": "Point","coordinates": [103.84378,1.275789]}} 
{"id": "8419055290","server": "8216","farm": "9","userId": "41298448@N08","secret": "3eb0fc65ff","title": "231: working in progress","loc": {"type": "Point","coordinates": [103.84571,1.276438]}} 
{"id": "8418947180","server": "8188","farm": "9","userId": "41894167963@N01","secret": "714ae14c74","title": "IMG_6501","loc": {"type": "Point","coordinates": [103.84683,1.276667]}} 
{"id": "8416406501","server": "8189","farm": "9","userId": "58716938@N00","secret": "dcb87c6e04","title": "SG MRT","loc": {"type": "Point","coordinates": [103.845474,1.276676]}} 
{"id": "8413099755","server": "8468","farm": "9","userId": "91490120@N06","secret": "10e03c3464","title": "@piinqpiinq smileeeeeeeee","loc": {"type": "Point","coordinates": [103.845474,1.276676]}} 
{"id": "8400909681","server": "8053","farm": "9","userId": "11008075@N00","secret": "50153a9496","title": "Pulled Pork Burger  Dinner with @sourplumfairy and @iamminpot","loc": {"type": "Point","coordinates": [103.84334,1.276842]}} 
{"id": "8392495296","server": "8352","farm": "9","userId": "51432267@N04","secret": "24cde8b4e1","title": "P1010914","loc": {"type": "Point","coordinates": [103.84442,1.275403]}} 
{"id": "8379514826","server": "8192","farm": "9","userId": "11008075@N00","secret": "642b65afa5","title": "Carbonara ❤","loc": {"type": "Point","coordinates": [103.8443,1.277661]}} 
{"id": "8374124678","server": "8495","farm": "9","userId": "19109134@N00","secret": "54e7f30f13","title": "Fluoro Smoke","loc": {"type": "Point","coordinates": [103.844284,1.277794]}} 
{"id": "8355783057","server": "8078","farm": "9","userId": "12166501@N00","secret": "3c42d7c776","title": "#vege #instagood #instapic #iphone #instadaily #yummy #tummyfiller","loc": {"type": "Point","coordinates": [103.84309,1.276772]}} 
{"id": "8350655432","server": "8512","farm": "9","userId": "16102830@N05","secret": "7af3780378","title": "1211_NovemberRandoms_HR_007","loc": {"type": "Point","coordinates": [103.84634,1.275333]}} 
{"id": "8350655736","server": "8374","farm": "9","userId": "16102830@N05","secret": "8807c5042a","title": "1211_NovemberRandoms_HR_006","loc": {"type": "Point","coordinates": [103.84634,1.275333]}} 
{"id": "8348868569","server": "8475","farm": "9","userId": "91396114@N07","secret": "fbedd03f45","title": "Ramen with Rice Cake","loc": {"type": "Point","coordinates": [103.84431,1.277908]}} 
{"id": "8349930194","server": "8224","farm": "9","userId": "91396114@N07","secret": "2fcc71ecb3","title": "Bibimbap","loc": {"type": "Point","coordinates": [103.84431,1.277908]}} 
{"id": "8348868945","server": "8212","farm": "9","userId": "91396114@N07","secret": "12296bbcbd","title": "Large Combo Chicken Platter","loc": {"type": "Point","coordinates": [103.84431,1.277908]}} 
{"id": "8345945581","server": "8075","farm": "9","userId": "16102830@N05","secret": "772ec710d7","title": "1202_FebRandoms_HR_018","loc": {"type": "Point","coordinates": [103.84533,1.275333]}} 
{"id": "8345945985","server": "8362","farm": "9","userId": "16102830@N05","secret": "68d9b824b1","title": "1202_FebRandoms_HR_017","loc": {"type": "Point","coordinates": [103.84533,1.275333]}} 
{"id": "8336704733","server": "8216","farm": "9","userId": "37147643@N02","secret": "528a93cd44","title": "02Jan2013","loc": {"type": "Point","coordinates": [103.84643,1.276454]}} 
{"id": "8193875386","server": "8200","farm": "9","userId": "19109134@N00","secret": "077d94fa8e","title": "Korean Exhaust","loc": {"type": "Point","coordinates": [103.8438,1.277655]}} 
{"id": "8168121967","server": "8059","farm": "9","userId": "25802865@N08","secret": "35c7897eaf","title": "Shimmering Pearls","loc": {"type": "Point","coordinates": [103.84737,1.276904]}} 
{"id": "8345981180","server": "8221","farm": "9","userId": "30436867@N00","secret": "f5b06eeaf2","title": "Spaghetti with sea urchin and grey mullet bottarga","loc": {"type": "Point","coordinates": [103.84601,1.277936]}} 
{"id": "8300031386","server": "8359","farm": "9","userId": "41894167963@N01","secret": "f0e7480745","title": "Have a Guinness","loc": {"type": "Point","coordinates": [103.84432,1.277972]}} 
{"id": "8298967913","server": "8503","farm": "9","userId": "41894167963@N01","secret": "9cbdc1b70b","title": "Writing at the Pacific Coffee Company","loc": {"type": "Point","coordinates": [103.8453,1.276718]}} 
{"id": "8300018204","server": "8213","farm": "9","userId": "41894167963@N01","secret": "7837e1207b","title": "Birthday at the office","loc": {"type": "Point","coordinates": [103.8453,1.276667]}} 
{"id": "8300023586","server": "8363","farm": "9","userId": "41894167963@N01","secret": "fdef8ac5b0","title": "Slumming it with Japanese from the...","loc": {"type": "Point","coordinates": [103.8449,1.277024]}} 
{"id": "8300021676","server": "8496","farm": "9","userId": "41894167963@N01","secret": "07d02c8016","title": "New favorite food stand Joy Feast...","loc": {"type": "Point","coordinates": [103.84793,1.276223]}} 
{"id": "8300020294","server": "8078","farm": "9","userId": "41894167963@N01","secret": "e78d46894c","title": "Female security guard taking an afternoon...","loc": {"type": "Point","coordinates": [103.8453,1.276347]}} 
{"id": "8298952083","server": "8491","farm": "9","userId": "41894167963@N01","secret": "60da504185","title": "Oh it's HONEY MELON. What a...","loc": {"type": "Point","coordinates": [103.8453,1.277845]}} 
{"id": "8300004724","server": "8079","farm": "9","userId": "41894167963@N01","secret": "9f4895a2fa","title": "Melon cookie from a colleague who...","loc": {"type": "Point","coordinates": [103.8453,1.277845]}} 
{"id": "8293254213","server": "8082","farm": "9","userId": "29049566@N07","secret": "a57449ab02","title": "Signs","loc": {"type": "Point","coordinates": [103.8443,1.275326]}} 
{"id": "8292970863","server": "8079","farm": "9","userId": "61038036@N00","secret": "fa5fbc9990","title": "IMG_8496","loc": {"type": "Point","coordinates": [103.84533,1.276666]}} 
{"id": "8289538601","server": "8357","farm": "9","userId": "22518454@N05","secret": "b0b1a81f4f","title": "upload","loc": {"type": "Point","coordinates": [103.84625,1.275853]}} 
{"id": "8287136775","server": "8359","farm": "9","userId": "26437411@N00","secret": "67c4211b3c","title": "@vikiinc's xmas corner","loc": {"type": "Point","coordinates": [103.84386,1.277503]}} 
{"id": "8288192354","server": "8352","farm": "9","userId": "26437411@N00","secret": "7a2baa9924","title": "","loc": {"type": "Point","coordinates": [103.84386,1.277503]}} 
{"id": "8287129835","server": "8077","farm": "9","userId": "26437411@N00","secret": "d4a49f1e1b","title": "","loc": {"type": "Point","coordinates": [103.845116,1.274998]}} 
{"id": "8287010581","server": "8499","farm": "9","userId": "29693607@N00","secret": "804f9e3067","title": "","loc": {"type": "Point","coordinates": [103.8453,1.275413]}} 
{"id": "8288069350","server": "8210","farm": "9","userId": "29693607@N00","secret": "1fae1f8e51","title": "I AM…","loc": {"type": "Point","coordinates": [103.8453,1.275333]}} 
{"id": "8286224805","server": "8061","farm": "9","userId": "7406994@N06","secret": "9cfc0a743c","title": "Xmas gifts from HM & ST","loc": {"type": "Point","coordinates": [103.84574,1.275606]}} 
{"id": "8284202083","server": "8199","farm": "9","userId": "65598092@N00","secret": "8c70fe2eb2","title": "Singapore: Chinatown","loc": {"type": "Point","coordinates": [103.84634,1.277666]}} 
{"id": "8281229770","server": "8215","farm": "9","userId": "43866013@N00","secret": "ddee7f2045","title": "","loc": {"type": "Point","coordinates": [103.84313,1.277903]}} 
{"id": "8279871007","server": "8345","farm": "9","userId": "45087656@N08","secret": "4a5b38d02f","title": "Goodbye 2012","loc": {"type": "Point","coordinates": [103.846,1.275333]}} 
{"id": "8280905082","server": "8356","farm": "9","userId": "43866013@N00","secret": "7edb82ae5c","title": "the boys looked for a cafe with cake and coffee. so chichilala. #boystrainedbytheirmommies","loc": {"type": "Point","coordinates": [103.84313,1.277903]}} 
{"id": "8273912033","server": "8077","farm": "9","userId": "17528871@N00","secret": "65a1d2b26a","title": "This Jungle Beer is rather spirited!","loc": {"type": "Point","coordinates": [103.84333,1.277097]}} 
{"id": "8274954080","server": "8213","farm": "9","userId": "17528871@N00","secret": "1bacaf4827","title": "I can't even..","loc": {"type": "Point","coordinates": [103.84327,1.277308]}} 
{"id": "8267751271","server": "8076","farm": "9","userId": "15360716@N06","secret": "3554ef5afd","title": "","loc": {"type": "Point","coordinates": [103.844666,1.2775]}} 
{"id": "8256602500","server": "8363","farm": "9","userId": "37147643@N02","secret": "076fba4bf0","title": "7Dec2012","loc": {"type": "Point","coordinates": [103.84328,1.276025]}} 
{"id": "8256602694","server": "8362","farm": "9","userId": "37147643@N02","secret": "4b03ef4372","title": "7Dec2012b","loc": {"type": "Point","coordinates": [103.84587,1.277998]}} 
{"id": "8243150331","server": "8204","farm": "9","userId": "60428944@N00","secret": "303bec0ee5","title": "'Clouds' - Singapore's most dramatic show. Watched daily nationwide.","loc": {"type": "Point","coordinates": [103.845116,1.274998]}} 
{"id": "8230508283","server": "8068","farm": "9","userId": "26285827@N05","secret": "4f756659e0","title": "#nightreflection","loc": {"type": "Point","coordinates": [103.84433,1.277166]}} 
{"id": "8210642550","server": "8205","farm": "9","userId": "38662956@N00","secret": "21d5fd42d0","title": "Had my first Oh Deng, a Korean fish cake soup","loc": {"type": "Point","coordinates": [103.84431,1.277921]}} 
{"id": "8208725704","server": "8210","farm": "9","userId": "48889084637@N01","secret": "96da30ea39","title": "An awesome food and wine pairing.","loc": {"type": "Point","coordinates": [103.84533,1.2755]}} 
{"id": "8206563438","server": "8339","farm": "9","userId": "51035566865@N01","secret": "4c6718b3e5","title": "","loc": {"type": "Point","coordinates": [103.84491,1.27797]}} 
{"id": "8201751953","server": "8070","farm": "9","userId": "60428944@N00","secret": "9a60406da7","title": "Pretty sunset today.","loc": {"type": "Point","coordinates": [103.84584,1.275221]}} 
{"id": "8177696602","server": "8343","farm": "9","userId": "28261482@N05","secret": "583427b077","title": "Everyone is just like me.. Waiting and waiting..","loc": {"type": "Point","coordinates": [103.8457,1.276432]}} 
{"id": "8174957251","server": "8201","farm": "9","userId": "68649150@N06","secret": "c864a20af7","title": "Tonkotsu dinner","loc": {"type": "Point","coordinates": [103.84382,1.276169]}} 
{"id": "8174991562","server": "8339","farm": "9","userId": "68649150@N06","secret": "ef050fa0d3","title": "Eggs unlimited","loc": {"type": "Point","coordinates": [103.84382,1.276169]}} 
{"id": "8168869490","server": "7116","farm": "8","userId": "60428944@N00","secret": "cd1701a8a1","title": "Heavy clouds. No filters here. That's Nature's Instgram!","loc": {"type": "Point","coordinates": [103.8456,1.275274]}} 
{"id": "8162486638","server": "8060","farm": "9","userId": "21381356@N00","secret": "5bdca492d5","title": "Pickles and sambal","loc": {"type": "Point","coordinates": [103.84352,1.276228]}} 
{"id": "8162452465","server": "8209","farm": "9","userId": "21381356@N00","secret": "fa34d6d2c6","title": "Starter","loc": {"type": "Point","coordinates": [103.84352,1.276228]}} 
{"id": "8162450653","server": "7106","farm": "8","userId": "21381356@N00","secret": "fdbf6d0308","title": "Rendang","loc": {"type": "Point","coordinates": [103.84352,1.276228]}} 
{"id": "8162449779","server": "7267","farm": "8","userId": "21381356@N00","secret": "0130120206","title": "Nut","loc": {"type": "Point","coordinates": [103.84352,1.276228]}} 
{"id": "8147028061","server": "8195","farm": "9","userId": "63209542@N08","secret": "cf83472609","title": "Thank You Charles.....","loc": {"type": "Point","coordinates": [103.848,1.277167]}} 
{"id": "8146329044","server": "8468","farm": "9","userId": "51489026@N02","secret": "2a101f4da8","title": "Bubbles on the water","loc": {"type": "Point","coordinates": [103.84708,1.277692]}} 
{"id": "8144420869","server": "8186","farm": "9","userId": "63451580@N06","secret": "d761f4b32d","title": "永远不肥聚会！","loc": {"type": "Point","coordinates": [103.84349,1.275121]}} 
{"id": "8124279902","server": "8467","farm": "9","userId": "55486190@N00","secret": "6969d3dd7e","title": "#Fruit #Galore #Singapore #TanjongPagar #Market","loc": {"type": "Point","coordinates": [103.84325,1.276776]}} 
{"id": "8124120212","server": "8047","farm": "9","userId": "55486190@N00","secret": "53fe349e9d","title": "#Famous #Peanut #Ice #Kachang #Singapore #Food #Dessert","loc": {"type": "Point","coordinates": [103.84325,1.276776]}} 
{"id": "8123714104","server": "8055","farm": "9","userId": "99942665@N00","secret": "82bae52db8","title": "IMG_20121025_205736","loc": {"type": "Point","coordinates": [103.843216,1.276606]}} 
{"id": "8123697023","server": "8044","farm": "9","userId": "99942665@N00","secret": "a6cc631fd5","title": "IMG_20121025_211815","loc": {"type": "Point","coordinates": [103.843216,1.276606]}} 
{"id": "8123713560","server": "8187","farm": "9","userId": "99942665@N00","secret": "24293f93e5","title": "IMG_20121025_202655","loc": {"type": "Point","coordinates": [103.843216,1.276606]}} 
{"id": "8123716420","server": "8187","farm": "9","userId": "99942665@N00","secret": "03d5986fbb","title": "IMG_20121025_222520","loc": {"type": "Point","coordinates": [103.843216,1.276606]}} 
{"id": "8123714892","server": "8327","farm": "9","userId": "99942665@N00","secret": "2291e8b754","title": "IMG_20121025_221422","loc": {"type": "Point","coordinates": [103.843216,1.276606]}} 
{"id": "8119114545","server": "8196","farm": "9","userId": "37147643@N02","secret": "0e5bd9eece","title": "24Oct2012","loc": {"type": "Point","coordinates": [103.84731,1.276561]}} 
{"id": "8115127056","server": "8474","farm": "9","userId": "40011875@N00","secret": "10b314f33e","title": "Women eating alone","loc": {"type": "Point","coordinates": [103.845314,1.276737]}} 
