{"id": "9082574266","server": "5468","farm": "6","userId": "55234719@N05","secret": "7ba6062da5","title": "A hazy day in SG","loc": {"type": "Point","coordinates": [103.84561,1.274955]}} 
{"id": "9082574856","server": "5441","farm": "6","userId": "55234719@N05","secret": "e571dd2021","title": "A hazy day in SG","loc": {"type": "Point","coordinates": [103.84561,1.274955]}} 
{"id": "8863183834","server": "8131","farm": "9","userId": "14192587@N06","secret": "22eefea1cc","title": "The favorite view","loc": {"type": "Point","coordinates": [103.84507,1.273687]}} 
{"id": "8816113487","server": "3667","farm": "4","userId": "37147643@N02","secret": "630232f9bf","title": "25May2013s","loc": {"type": "Point","coordinates": [103.84592,1.273294]}} 
{"id": "8753218811","server": "3730","farm": "4","userId": "37147643@N02","secret": "2242fa7778","title": "19May2013s","loc": {"type": "Point","coordinates": [103.846054,1.273502]}} 
{"id": "8754333796","server": "5447","farm": "6","userId": "37147643@N02","secret": "7367358156","title": "19May2013","loc": {"type": "Point","coordinates": [103.8461,1.274201]}} 
{"id": "8746783303","server": "7283","farm": "8","userId": "37147643@N02","secret": "1379d78da0","title": "17May2013","loc": {"type": "Point","coordinates": [103.8461,1.274223]}} 
{"id": "8737480127","server": "7282","farm": "8","userId": "37147643@N02","secret": "d01eb416b7","title": "14May2013s","loc": {"type": "Point","coordinates": [103.84612,1.27418]}} 
{"id": "8735536808","server": "7289","farm": "8","userId": "37147643@N02","secret": "f449cdc147","title": "13May2013","loc": {"type": "Point","coordinates": [103.84612,1.274201]}} 
{"id": "8728048565","server": "7322","farm": "8","userId": "37147643@N02","secret": "773384b81e","title": "11May2013","loc": {"type": "Point","coordinates": [103.846146,1.274223]}} 
{"id": "8727769212","server": "7389","farm": "8","userId": "37147643@N02","secret": "af5a5d9f55","title": "10May2013","loc": {"type": "Point","coordinates": [103.846146,1.274201]}} 
{"id": "8718027912","server": "7297","farm": "8","userId": "37147643@N02","secret": "ec21beeec6","title": "7May2013s","loc": {"type": "Point","coordinates": [103.84608,1.274223]}} 
{"id": "8713358499","server": "8535","farm": "9","userId": "37147643@N02","secret": "b6ac7ffbe4","title": "6May2013","loc": {"type": "Point","coordinates": [103.84616,1.274223]}} 
{"id": "8714460694","server": "8413","farm": "9","userId": "37147643@N02","secret": "b37479aba3","title": "6May2013s","loc": {"type": "Point","coordinates": [103.84612,1.274223]}} 
{"id": "8703775623","server": "8393","farm": "9","userId": "37147643@N02","secret": "ee0561ea83","title": "3May2013s","loc": {"type": "Point","coordinates": [103.846146,1.274244]}} 
{"id": "8698871322","server": "8404","farm": "9","userId": "37147643@N02","secret": "f1df98e10f","title": "1May2013s","loc": {"type": "Point","coordinates": [103.84612,1.274201]}} 
{"id": "8693010630","server": "8259","farm": "9","userId": "37147643@N02","secret": "c0955f7b4e","title": "29Apr2013s","loc": {"type": "Point","coordinates": [103.8461,1.274244]}} 
{"id": "8657348847","server": "8103","farm": "9","userId": "37147643@N02","secret": "189fbe918b","title": "17Apr2013","loc": {"type": "Point","coordinates": [103.8473,1.273172]}} 
{"id": "8652633850","server": "8123","farm": "9","userId": "37147643@N02","secret": "2cddf1d798","title": "15Apr2013s","loc": {"type": "Point","coordinates": [103.846146,1.274223]}} 
{"id": "8651534105","server": "8103","farm": "9","userId": "37147643@N02","secret": "c7751bb6bb","title": "15Apr2013","loc": {"type": "Point","coordinates": [103.84612,1.274223]}} 
{"id": "8639273805","server": "8385","farm": "9","userId": "37147643@N02","secret": "896178e257","title": "11Apr2013s","loc": {"type": "Point","coordinates": [103.846146,1.274223]}} 
{"id": "8635290628","server": "8528","farm": "9","userId": "37147643@N02","secret": "1cb1a44476","title": "9Apr2013s","loc": {"type": "Point","coordinates": [103.84616,1.274244]}} 
{"id": "8634185991","server": "8528","farm": "9","userId": "37147643@N02","secret": "08b6e7017f","title": "9Apr2013","loc": {"type": "Point","coordinates": [103.84599,1.274802]}} 
{"id": "8633521976","server": "8379","farm": "9","userId": "37147643@N02","secret": "1258564eda","title": "8Apr2013","loc": {"type": "Point","coordinates": [103.84621,1.274201]}} 
{"id": "8610380634","server": "8099","farm": "9","userId": "37147643@N02","secret": "ce7fae0f02","title": "1Apr2013s","loc": {"type": "Point","coordinates": [103.8461,1.274223]}} 
{"id": "8608838559","server": "8111","farm": "9","userId": "37147643@N02","secret": "b5d756ebc8","title": "1Apr2013","loc": {"type": "Point","coordinates": [103.84616,1.273987]}} 
{"id": "8603598028","server": "8261","farm": "9","userId": "37147643@N02","secret": "cf6278a930","title": "30Mar2013s","loc": {"type": "Point","coordinates": [103.846146,1.274266]}} 
{"id": "8599821171","server": "8512","farm": "9","userId": "37147643@N02","secret": "5302ed8f1e","title": "29Mar2013s","loc": {"type": "Point","coordinates": [103.846176,1.274244]}} 
{"id": "8594273123","server": "8516","farm": "9","userId": "37147643@N02","secret": "86cde459e2","title": "27Mar2013","loc": {"type": "Point","coordinates": [103.84612,1.274158]}} 
{"id": "8594794324","server": "8095","farm": "9","userId": "60428944@N00","secret": "02efc71ea0","title": "We're taking things to Tasty Town!","loc": {"type": "Point","coordinates": [103.84561,1.274955]}} 
{"id": "8592085104","server": "8095","farm": "9","userId": "60428944@N00","secret": "ab2e4cd1c0","title": "The Yahoo! Singapore offices keep good company.","loc": {"type": "Point","coordinates": [103.84561,1.274955]}} 
{"id": "8588261605","server": "8235","farm": "9","userId": "37147643@N02","secret": "42aecd5e74","title": "25Mar2013s","loc": {"type": "Point","coordinates": [103.84612,1.274244]}} 
{"id": "8586401268","server": "8112","farm": "9","userId": "37147643@N02","secret": "aa8c0032d4","title": "24Mar2013","loc": {"type": "Point","coordinates": [103.84661,1.27315]}} 
{"id": "8581847726","server": "8509","farm": "9","userId": "37147643@N02","secret": "c595c00ed5","title": "22Mar2013s","loc": {"type": "Point","coordinates": [103.84623,1.274266]}} 
{"id": "8576920359","server": "8236","farm": "9","userId": "30639068@N07","secret": "11503b7719","title": "","loc": {"type": "Point","coordinates": [103.84561,1.274955]}} 
{"id": "8576918885","server": "8103","farm": "9","userId": "30639068@N07","secret": "14801d2364","title": "","loc": {"type": "Point","coordinates": [103.84561,1.274955]}} 
{"id": "8578021670","server": "8382","farm": "9","userId": "30639068@N07","secret": "68e2918345","title": "","loc": {"type": "Point","coordinates": [103.84561,1.274955]}} 
{"id": "8578020456","server": "8377","farm": "9","userId": "30639068@N07","secret": "513ff65916","title": "","loc": {"type": "Point","coordinates": [103.84561,1.274955]}} 
{"id": "8576919873","server": "8515","farm": "9","userId": "30639068@N07","secret": "e5e720b1e9","title": "","loc": {"type": "Point","coordinates": [103.84561,1.274955]}} 
{"id": "8578020828","server": "8098","farm": "9","userId": "30639068@N07","secret": "b7fa9555e4","title": "","loc": {"type": "Point","coordinates": [103.84561,1.274955]}} 
{"id": "8575158360","server": "8238","farm": "9","userId": "37147643@N02","secret": "bab60a7601","title": "20Mar2013","loc": {"type": "Point","coordinates": [103.84636,1.273987]}} 
{"id": "8560451027","server": "8238","farm": "9","userId": "21063397@N00","secret": "778861cca1","title": "SunsetSingapore","loc": {"type": "Point","coordinates": [103.84507,1.273687]}} 
{"id": "8556456429","server": "8087","farm": "9","userId": "37147643@N02","secret": "10bfd80738","title": "14Mar2013s","loc": {"type": "Point","coordinates": [103.846146,1.274244]}} 
{"id": "8552121978","server": "8517","farm": "9","userId": "37147643@N02","secret": "32c4dbb37e","title": "12Mar2013s","loc": {"type": "Point","coordinates": [103.84612,1.274266]}} 
{"id": "8544373873","server": "8505","farm": "9","userId": "37147643@N02","secret": "70118c44b5","title": "10Mar2013s","loc": {"type": "Point","coordinates": [103.84618,1.274351]}} 
{"id": "8542573056","server": "8369","farm": "9","userId": "37147643@N02","secret": "b9735307ea","title": "9Mar2013s","loc": {"type": "Point","coordinates": [103.84612,1.274201]}} 
{"id": "8528593266","server": "8236","farm": "9","userId": "37147643@N02","secret": "c2d3a59410","title": "4Mar2013s","loc": {"type": "Point","coordinates": [103.84612,1.274287]}} 
{"id": "8523953670","server": "8240","farm": "9","userId": "37147643@N02","secret": "e796416435","title": "3Mar2013s","loc": {"type": "Point","coordinates": [103.845924,1.273343]}} 
{"id": "8521797940","server": "8382","farm": "9","userId": "37147643@N02","secret": "8a09433d2b","title": "2Mar2013s","loc": {"type": "Point","coordinates": [103.84608,1.274308]}} 
{"id": "8505968319","server": "8528","farm": "9","userId": "37147643@N02","secret": "5768413d4a","title": "25Feb2013s","loc": {"type": "Point","coordinates": [103.84616,1.274266]}} 
{"id": "8503426860","server": "8085","farm": "9","userId": "37147643@N02","secret": "74e8c0309a","title": "24Feb2013s","loc": {"type": "Point","coordinates": [103.846146,1.274266]}} 
{"id": "8500415808","server": "8099","farm": "9","userId": "37147643@N02","secret": "b226859714","title": "23Feb2013s","loc": {"type": "Point","coordinates": [103.84618,1.274287]}} 
{"id": "8499309419","server": "8108","farm": "9","userId": "37147643@N02","secret": "b2dbecefba","title": "23Feb2013","loc": {"type": "Point","coordinates": [103.846146,1.274223]}} 
{"id": "8484657001","server": "8519","farm": "9","userId": "37147643@N02","secret": "d7621102a2","title": "18Feb2013s","loc": {"type": "Point","coordinates": [103.84612,1.274223]}} 
{"id": "8481619310","server": "8252","farm": "9","userId": "37147643@N02","secret": "e59d02596d","title": "17Feb2013s","loc": {"type": "Point","coordinates": [103.846375,1.274287]}} 
{"id": "8479289214","server": "8529","farm": "9","userId": "37147643@N02","secret": "4462353d2c","title": "16Feb2013s","loc": {"type": "Point","coordinates": [103.8461,1.274223]}} 
{"id": "8474949077","server": "8094","farm": "9","userId": "37147643@N02","secret": "3348486fff","title": "15Feb2013s","loc": {"type": "Point","coordinates": [103.846146,1.274244]}} 
{"id": "8472637405","server": "8240","farm": "9","userId": "37147643@N02","secret": "21409110d2","title": "14Feb2013s","loc": {"type": "Point","coordinates": [103.84612,1.274223]}} 
{"id": "8470134809","server": "8112","farm": "9","userId": "37147643@N02","secret": "cfd7df1b77","title": "13Feb2013","loc": {"type": "Point","coordinates": [103.84599,1.274502]}} 
{"id": "8467334391","server": "8530","farm": "9","userId": "37147643@N02","secret": "5a75d0293d","title": "12Feb2013s","loc": {"type": "Point","coordinates": [103.84612,1.274244]}} 
{"id": "8464727826","server": "8243","farm": "9","userId": "37147643@N02","secret": "55a2cbe011","title": "11Feb2013s","loc": {"type": "Point","coordinates": [103.846054,1.27433]}} 
{"id": "8460425078","server": "8510","farm": "9","userId": "37147643@N02","secret": "88812e1e24","title": "10Feb2013s","loc": {"type": "Point","coordinates": [103.84608,1.274223]}} 
{"id": "8456420447","server": "8374","farm": "9","userId": "37147643@N02","secret": "d6804d7de4","title": "9Feb2013s","loc": {"type": "Point","coordinates": [103.84618,1.274223]}} 
{"id": "8455737976","server": "8250","farm": "9","userId": "60428944@N00","secret": "c9e5223c9a","title": "Fitri's desk is under heavy security!","loc": {"type": "Point","coordinates": [103.84561,1.274955]}} 
{"id": "8435869622","server": "8365","farm": "9","userId": "37147643@N02","secret": "37d6796301","title": "1Feb2013s","loc": {"type": "Point","coordinates": [103.846146,1.274201]}} 
{"id": "8429127493","server": "8191","farm": "9","userId": "37147643@N02","secret": "461fd7cfc5","title": "30Jan2013s","loc": {"type": "Point","coordinates": [103.84563,1.274308]}} 
{"id": "8426164199","server": "8515","farm": "9","userId": "37147643@N02","secret": "6341fba160","title": "29Jan2013s","loc": {"type": "Point","coordinates": [103.84603,1.274244]}} 
{"id": "8413414104","server": "8499","farm": "9","userId": "41933249@N08","secret": "7b3dea12d6","title": "Indo food! #indofood","loc": {"type": "Point","coordinates": [103.84394,1.27493]}} 
{"id": "8397037305","server": "8232","farm": "9","userId": "37147643@N02","secret": "539be865a4","title": "20Jan2013s","loc": {"type": "Point","coordinates": [103.84618,1.273622]}} 
{"id": "8389807024","server": "8188","farm": "9","userId": "37147643@N02","secret": "786cea223c","title": "17Jan2013s","loc": {"type": "Point","coordinates": [103.846054,1.274244]}} 
{"id": "8382988327","server": "8498","farm": "9","userId": "37147643@N02","secret": "4b5887461e","title": "15Jan2013s","loc": {"type": "Point","coordinates": [103.84616,1.27418]}} 
{"id": "8376526152","server": "8369","farm": "9","userId": "37147643@N02","secret": "ed21056a5b","title": "13Jan2013s","loc": {"type": "Point","coordinates": [103.84612,1.274223]}} 
{"id": "8375557130","server": "8098","farm": "9","userId": "16105436@N00","secret": "fc8ab50dcd","title": "Skyline","loc": {"type": "Point","coordinates": [103.846664,1.274333]}} 
{"id": "8364493104","server": "8367","farm": "9","userId": "37147643@N02","secret": "2444b668dd","title": "09Jan2013","loc": {"type": "Point","coordinates": [103.846085,1.274244]}} 
{"id": "8352696984","server": "8513","farm": "9","userId": "37147643@N02","secret": "8234ff9624","title": "06Jan2013","loc": {"type": "Point","coordinates": [103.846,1.274244]}} 
{"id": "8340936085","server": "8078","farm": "9","userId": "37147643@N02","secret": "09d2470548","title": "03Jan2013","loc": {"type": "Point","coordinates": [103.846,1.274266]}} 
{"id": "8332428382","server": "8074","farm": "9","userId": "37147643@N02","secret": "23f47d03cd","title": "01Jan2013","loc": {"type": "Point","coordinates": [103.84605,1.274266]}} 
{"id": "8237088765","server": "8485","farm": "9","userId": "20398757@N02","secret": "9fb93da222","title": "IMG_1380","loc": {"type": "Point","coordinates": [103.84333,1.274666]}} 
{"id": "9442042064","server": "7317","farm": "8","userId": "12166501@N00","secret": "7406c5c1b0","title": "#instafood #instagram #instagoodness #instasingapore #foodporn #food #tummyfiller","loc": {"type": "Point","coordinates": [103.843254,1.274775]}} 
{"id": "9364548980","server": "5452","farm": "6","userId": "92607634@N08","secret": "ff8037c47d","title": "","loc": {"type": "Point","coordinates": [103.843666,1.274666]}} 
{"id": "9364552512","server": "3781","farm": "4","userId": "92607634@N08","secret": "b174290f69","title": "","loc": {"type": "Point","coordinates": [103.843666,1.274666]}} 
{"id": "9342059169","server": "3761","farm": "4","userId": "51907839@N00","secret": "701db365e7","title": "2013-04-02 20.55.17","loc": {"type": "Point","coordinates": [103.84356,1.274654]}} 
{"id": "9344843734","server": "7283","farm": "8","userId": "51907839@N00","secret": "57481eee5d","title": "2013-04-03 19.04.44","loc": {"type": "Point","coordinates": [103.84374,1.274334]}} 
{"id": "9344875648","server": "3671","farm": "4","userId": "51907839@N00","secret": "5605e936e7","title": "2013-04-12 18.57.14","loc": {"type": "Point","coordinates": [103.84294,1.272826]}} 
{"id": "9344874868","server": "5535","farm": "6","userId": "51907839@N00","secret": "def93babec","title": "2013-04-12 18.56.56","loc": {"type": "Point","coordinates": [103.843834,1.274056]}} 
{"id": "9342092479","server": "7432","farm": "8","userId": "51907839@N00","secret": "09d61b20f4","title": "2013-04-12 19.05.55","loc": {"type": "Point","coordinates": [103.843834,1.274056]}} 
{"id": "9327829000","server": "2833","farm": "3","userId": "30436867@N00","secret": "ecf2bb865b","title": "BBQ goodness","loc": {"type": "Point","coordinates": [103.844826,1.274003]}} 
{"id": "9303751425","server": "3801","farm": "4","userId": "96738935@N00","secret": "116ca9f127","title": "IMG_1433","loc": {"type": "Point","coordinates": [103.846664,1.272666]}} 
{"id": "9303751189","server": "2807","farm": "3","userId": "96738935@N00","secret": "991d9eee40","title": "IMG_1434","loc": {"type": "Point","coordinates": [103.84683,1.272666]}} 
{"id": "9303751665","server": "2826","farm": "3","userId": "96738935@N00","secret": "858afa4e75","title": "IMG_1432","loc": {"type": "Point","coordinates": [103.8465,1.272666]}} 
{"id": "9306534450","server": "5453","farm": "6","userId": "96738935@N00","secret": "b1c8956c11","title": "IMG_1430","loc": {"type": "Point","coordinates": [103.84583,1.272833]}} 
{"id": "9303752443","server": "2876","farm": "3","userId": "96738935@N00","secret": "bf4cfff8dd","title": "IMG_1429","loc": {"type": "Point","coordinates": [103.84417,1.272833]}} 
{"id": "9306534206","server": "7340","farm": "8","userId": "96738935@N00","secret": "670f41c0d3","title": "IMG_1431","loc": {"type": "Point","coordinates": [103.84617,1.272666]}} 
{"id": "9273828999","server": "5460","farm": "6","userId": "30436867@N00","secret": "53a054066b","title": "Ahi Taki","loc": {"type": "Point","coordinates": [103.84325,1.274566]}} 
{"id": "9268962956","server": "7286","farm": "8","userId": "56728000@N00","secret": "cd6fafa03a","title": "For the love of coffee and the fear of missing out. | #onlyinsg #coffee","loc": {"type": "Point","coordinates": [103.84344,1.274544]}} 
{"id": "9261073689","server": "7455","farm": "8","userId": "67851013@N02","secret": "06215a1964","title": "#Food heals the #world 08/07/13.","loc": {"type": "Point","coordinates": [103.843254,1.274775]}} 
{"id": "9260326675","server": "3812","farm": "4","userId": "67851013@N02","secret": "ff6592b7b5","title": "#Evening #brew 08/07/13. #Black #Coffee #Cream","loc": {"type": "Point","coordinates": [103.843254,1.274775]}} 
{"id": "9225651731","server": "3667","farm": "4","userId": "14385475@N05","secret": "48b3c9421e","title": "IMG_8612","loc": {"type": "Point","coordinates": [103.84316,1.274333]}} 
{"id": "9228424472","server": "7439","farm": "8","userId": "14385475@N05","secret": "e224f31d61","title": "IMG_8607","loc": {"type": "Point","coordinates": [103.84333,1.274833]}} 
{"id": "9223403592","server": "2841","farm": "3","userId": "49098167@N07","secret": "43d73bca8c","title": "All these for just $29 :) not bad in it's taste too :)","loc": {"type": "Point","coordinates": [103.84299,1.274802]}} 
{"id": "9141439268","server": "2866","farm": "3","userId": "55234719@N05","secret": "9aef848e58","title": "Boys and girls, drink your salad!","loc": {"type": "Point","coordinates": [103.84583,1.274833]}} 
{"id": "9114909126","server": "7458","farm": "8","userId": "91963736@N02","secret": "4e1c4b99bd","title": "upload","loc": {"type": "Point","coordinates": [103.844185,1.274653]}} 
{"id": "9112695765","server": "7443","farm": "8","userId": "91963736@N02","secret": "5c04d3ccdd","title": "upload","loc": {"type": "Point","coordinates": [103.844185,1.274653]}} 
{"id": "9112678721","server": "7417","farm": "8","userId": "91963736@N02","secret": "34f4b9b66a","title": "upload","loc": {"type": "Point","coordinates": [103.844185,1.274653]}} 
{"id": "9112702845","server": "5475","farm": "6","userId": "91963736@N02","secret": "8826714bc3","title": "upload","loc": {"type": "Point","coordinates": [103.84435,1.274266]}} 
{"id": "9107506548","server": "7311","farm": "8","userId": "91963736@N02","secret": "26972a3fd0","title": "#Icon farewell #BBQ","loc": {"type": "Point","coordinates": [103.84438,1.274737]}} 
{"id": "9105641404","server": "3709","farm": "4","userId": "91963736@N02","secret": "84e22f7186","title": "#weather #instaweather #instaweatherpro #androidonly #androidnesia #instagood #Singapore #sghaze","loc": {"type": "Point","coordinates": [103.84435,1.274266]}} 
{"id": "9071888351","server": "5509","farm": "6","userId": "30436867@N00","secret": "21ac9096d8","title": "Vietnamese spring roll","loc": {"type": "Point","coordinates": [103.84332,1.274738]}} 
{"id": "9071879089","server": "5459","farm": "6","userId": "30436867@N00","secret": "a7f7257793","title": "Beef Pho","loc": {"type": "Point","coordinates": [103.84332,1.274738]}} 
{"id": "9071893183","server": "5457","farm": "6","userId": "30436867@N00","secret": "a5d0588614","title": "Fried Vietnamese spring roll","loc": {"type": "Point","coordinates": [103.84332,1.274738]}} 
{"id": "9054389853","server": "7334","farm": "8","userId": "91030800@N04","secret": "d3ef34dd78","title": "upload","loc": {"type": "Point","coordinates": [103.84435,1.274266]}} 
{"id": "9045776331","server": "7339","farm": "8","userId": "92993390@N00","secret": "07df3dffeb","title": "Beef Pho for dinner last night.","loc": {"type": "Point","coordinates": [103.84332,1.274738]}} 
{"id": "9030892563","server": "7351","farm": "8","userId": "92993390@N00","secret": "269ded8c49","title": "Spicy spicey mee goreng!","loc": {"type": "Point","coordinates": [103.84322,1.27492]}} 
{"id": "8985954008","server": "8414","farm": "9","userId": "91963736@N02","secret": "a102178eed","title": "upload","loc": {"type": "Point","coordinates": [103.84435,1.274266]}} 
{"id": "8937272297","server": "2861","farm": "3","userId": "91030800@N04","secret": "f43a1fa0f5","title": "Finally! #Flowers","loc": {"type": "Point","coordinates": [103.84435,1.274266]}} 
{"id": "8924540102","server": "7362","farm": "8","userId": "91963736@N02","secret": "6c266fb7fc","title": "upload","loc": {"type": "Point","coordinates": [103.84435,1.274266]}} 
{"id": "8920586665","server": "5324","farm": "6","userId": "26687436@N06","secret": "9f96962e53","title": "Sydney Harbour Bridge and Opera House looking west into the sunset. The sky was showing all the colours of the rainbow. The bay was very calm. (^_^)","loc": {"type": "Point","coordinates": [103.844536,1.274702]}} 
{"id": "8917232060","server": "2821","farm": "3","userId": "26687436@N06","secret": "6fabca9f38","title": "This magnificent structure in the Southern part of the capital was built by a Muslim King, Qutub-ud-din Aibak in 1199 A.D. A part of it which he could not finish was completed by another Muslim King Iltutmish. The minar is 72.5 m high and has as its base","loc": {"type": "Point","coordinates": [103.844666,1.274709]}} 
{"id": "8916621041","server": "7315","farm": "8","userId": "26687436@N06","secret": "b8fb5132f2","title": "The Taj Mahal is a white marble mausoleum located in Agra, Uttar Pradesh, India. It was built by Mughal emperor Shah Jahan in memory of his third wife, Mumtaz Mahal. Completed in 1648, the Taj Mahal is regarded by many as the finest example of Mughal arch","loc": {"type": "Point","coordinates": [103.8448,1.274919]}} 
{"id": "8916548031","server": "7417","farm": "8","userId": "26687436@N06","secret": "38271a9ff7","title": "Two kids on a bike. Street Art from Penang Malaysia.","loc": {"type": "Point","coordinates": [103.84457,1.27476]}} 
{"id": "8900103201","server": "7428","farm": "8","userId": "10124523@N07","secret": "8d1d4e76fc","title": "Ibuhos na ang beer sa aking lalamunahaaahahaaaaaan","loc": {"type": "Point","coordinates": [103.84469,1.273931]}} 
{"id": "8896738913","server": "7391","farm": "8","userId": "10124523@N07","secret": "e51115ea6e","title": "Forgot to bring a purple shirt, nakiki #purpleprideday @nildacho @paolo_dl","loc": {"type": "Point","coordinates": [103.84561,1.274954]}} 
{"id": "8889322879","server": "3823","farm": "4","userId": "26687436@N06","secret": "df588ccd9d","title": "Sunset in Sydney with view to Opera House and Harbour Bridge.","loc": {"type": "Point","coordinates": [103.844536,1.274702]}} 
{"id": "8888040232","server": "7300","farm": "8","userId": "67370375@N02","secret": "0bf81a3c12","title": "My new #d7100 @ #nikon #service center. 1 month without #dslr !","loc": {"type": "Point","coordinates": [103.84374,1.273461]}} 
{"id": "8886787205","server": "5342","farm": "6","userId": "10124523@N07","secret": "685968d973","title": "#wasak","loc": {"type": "Point","coordinates": [103.84561,1.274954]}} 
{"id": "8876417219","server": "3735","farm": "4","userId": "10124523@N07","secret": "2789de886d","title": "Change Venue @nildacho @paolo_dl","loc": {"type": "Point","coordinates": [103.84561,1.274954]}} 
{"id": "8797485040","server": "3666","farm": "4","userId": "91030800@N04","secret": "e984d47cd3","title": "Cupcakes for lunch!","loc": {"type": "Point","coordinates": [103.84561,1.274954]}} 
{"id": "8758079763","server": "7458","farm": "8","userId": "92923304@N08","secret": "8c65b45b30","title": "Chinese Roast Pork @ Imperial Treasure @ Amara","loc": {"type": "Point","coordinates": [103.84355,1.274929]}} 
{"id": "8756545885","server": "8126","farm": "9","userId": "55844827@N00","secret": "0bda6628e5","title": "DSC_1565","loc": {"type": "Point","coordinates": [103.84307,1.271938]}} 
{"id": "8756546663","server": "7410","farm": "8","userId": "55844827@N00","secret": "fe7af1acbb","title": "DSC_1581","loc": {"type": "Point","coordinates": [103.8475,1.274686]}} 
{"id": "8756546569","server": "7433","farm": "8","userId": "55844827@N00","secret": "af8c8972e2","title": "DSC_1579","loc": {"type": "Point","coordinates": [103.8475,1.27483]}} 
{"id": "8756546819","server": "5441","farm": "6","userId": "55844827@N00","secret": "2f2f9b5263","title": "DSC_1584","loc": {"type": "Point","coordinates": [103.84384,1.273399]}} 
{"id": "8756546141","server": "2825","farm": "3","userId": "55844827@N00","secret": "95da016464","title": "DSC_1568","loc": {"type": "Point","coordinates": [103.84693,1.27428]}} 
{"id": "8752407230","server": "3770","farm": "4","userId": "92993390@N00","secret": "cd3e44e354","title": "Aye aye captain!","loc": {"type": "Point","coordinates": [103.84333,1.274961]}} 
{"id": "8751281901","server": "2824","farm": "3","userId": "92993390@N00","secret": "9205a7691e","title": "Dude! #foodgasm #ramen #foodie","loc": {"type": "Point","coordinates": [103.84333,1.274961]}} 
{"id": "8752390660","server": "8553","farm": "9","userId": "92993390@N00","secret": "3eb5eda855","title": "I really should cut down my ramen consumption. But I have low blood pressure so the salt is good for me.","loc": {"type": "Point","coordinates": [103.84333,1.274961]}} 
{"id": "8740517288","server": "7292","farm": "8","userId": "33913541@N08","secret": "3b0656e48d","title": "Singapore Central Business District","loc": {"type": "Point","coordinates": [103.845146,1.273668]}} 
{"id": "8736407093","server": "7288","farm": "8","userId": "67851013@N02","secret": "45bbdb29f3","title": "#Morning #brew 13/05/13. #Hot #Coffee #Mousse #Cream","loc": {"type": "Point","coordinates": [103.843254,1.274775]}} 
{"id": "8706826038","server": "8125","farm": "9","userId": "33156839@N00","secret": "fe51203453","title": "From Mapletree Anson's 18th floor","loc": {"type": "Point","coordinates": [103.84533,1.2745]}} 
{"id": "8705704033","server": "8543","farm": "9","userId": "33156839@N00","secret": "92fe8f7bfd","title": "From Mapletree Anson's 18th floor","loc": {"type": "Point","coordinates": [103.8455,1.274666]}} 
{"id": "8706709388","server": "8119","farm": "9","userId": "99381909@N00","secret": "674760a1ab","title": "Tablescape. I think we have found ourselves another cafe to chill at during the weekend.","loc": {"type": "Point","coordinates": [103.84344,1.274544]}} 
{"id": "8705584317","server": "8136","farm": "9","userId": "92982109@N00","secret": "198b7976f7","title": "Ginger chicken tart #foodspotting #sgig #singapore #sgfood","loc": {"type": "Point","coordinates": [103.84344,1.274544]}} 
{"id": "8706694048","server": "8117","farm": "9","userId": "92982109@N00","secret": "0abb5f6f3e","title": "Mocha owl #foodspotting","loc": {"type": "Point","coordinates": [103.84337,1.274719]}} 
{"id": "8706696348","server": "8253","farm": "9","userId": "92982109@N00","secret": "7142cc514c","title": "Mocha owl #foodspotting #cafe #sgig #singapore","loc": {"type": "Point","coordinates": [103.84344,1.274544]}} 
{"id": "8703131983","server": "8414","farm": "9","userId": "8150902@N02","secret": "6bd9a0d6df","title": "Continuing the LookUp Series 4 - 'the Fortress' hi all, I am back. Thanks for your well wishes :)","loc": {"type": "Point","coordinates": [103.84445,1.273849]}} 
{"id": "8692009748","server": "8404","farm": "9","userId": "89975165@N07","secret": "53528999d6","title": "Matcha with Milk x Tiramisu Hero for desser!","loc": {"type": "Point","coordinates": [103.843216,1.274341]}} 
{"id": "8690887251","server": "8534","farm": "9","userId": "89975165@N07","secret": "cba5eef340","title": "Matcha with Milk x Tiramisu Hero for dessert!","loc": {"type": "Point","coordinates": [103.843216,1.274341]}} 
{"id": "8651349777","server": "8519","farm": "9","userId": "45928922@N03","secret": "8c7deb5c96","title": "Port of Singapore","loc": {"type": "Point","coordinates": [103.843994,1.273107]}} 
{"id": "8634021907","server": "8392","farm": "9","userId": "58072194@N08","secret": "729dc5db2c","title": "3_11","loc": {"type": "Point","coordinates": [103.843834,1.273499]}} 
{"id": "8631523666","server": "8119","farm": "9","userId": "76804634@N00","secret": "ca999e03ac","title": "Shephard's Pie slow carb style. Replace mash potatoes with cauliflower purée. #slowcarb #shephardspie #dinner","loc": {"type": "Point","coordinates": [103.84435,1.274266]}} 
{"id": "8629783763","server": "8403","farm": "9","userId": "92993390@N00","secret": "03019c3bfb","title": "Ramen face. I could eat this everyday!","loc": {"type": "Point","coordinates": [103.84334,1.274934]}} 
{"id": "8627444316","server": "8401","farm": "9","userId": "76804634@N00","secret": "902222b0c5","title": "The perfect combo #leica #olympus #anywhere #anytime #M9 OM-D","loc": {"type": "Point","coordinates": [103.84392,1.274361]}} 
{"id": "8623051587","server": "8379","farm": "9","userId": "76804634@N00","secret": "1d113b2003","title": "Ready! Hearty #vege #soup on a rainy day. Yummo. #cooking","loc": {"type": "Point","coordinates": [103.84435,1.274266]}} 
{"id": "8624071894","server": "8239","farm": "9","userId": "76804634@N00","secret": "157e8ed462","title": "Guess what am I making? #latelunch #guess #veges #cooking #vegetables","loc": {"type": "Point","coordinates": [103.84435,1.274266]}} 
{"id": "8621047839","server": "8250","farm": "9","userId": "61670399@N07","secret": "d3ca5041b6","title": "Best Green tea ice cream. Authentic stuff","loc": {"type": "Point","coordinates": [103.8433,1.274811]}} 
{"id": "8619893367","server": "8397","farm": "9","userId": "76804634@N00","secret": "37b57d522b","title": "Breakfast of a champion (not me)","loc": {"type": "Point","coordinates": [103.84392,1.274361]}} 
{"id": "8601135125","server": "8380","farm": "9","userId": "40138859@N02","secret": "c70902d259","title": "It must be fun naming coffee places. #40hands","loc": {"type": "Point","coordinates": [103.84344,1.274544]}} 
{"id": "8597716803","server": "8392","farm": "9","userId": "34865466@N05","secret": "39f593a454","title": "Spiral focus","loc": {"type": "Point","coordinates": [103.84507,1.273686]}} 
{"id": "8584370241","server": "8368","farm": "9","userId": "14475189@N00","secret": "a910f1e0d6","title": "IMG_0579","loc": {"type": "Point","coordinates": [103.84333,1.274833]}} 
{"id": "8576318088","server": "8237","farm": "9","userId": "76804634@N00","secret": "46f0981e7d","title": "Who says watching water boil is boring? #eggs #water #boil","loc": {"type": "Point","coordinates": [103.84435,1.274266]}} 
{"id": "8572685571","server": "8245","farm": "9","userId": "92993390@N00","secret": "72f6576e37","title": "My double happiness tile turned out ok, but I think I need a more vibrant red glaze!","loc": {"type": "Point","coordinates": [103.84605,1.272325]}} 
{"id": "8556404513","server": "8386","farm": "9","userId": "55486190@N00","secret": "2713ab2a89","title": "@McDonalds New S$1.50 #Blueberry #Sundae ~ Yum!!","loc": {"type": "Point","coordinates": [103.845856,1.274901]}} 
{"id": "8545102800","server": "8524","farm": "9","userId": "30639068@N07","secret": "9c3e639cd6","title": "Yahoo! Singapore Office","loc": {"type": "Point","coordinates": [103.845665,1.274833]}} 
{"id": "8536200291","server": "8252","farm": "9","userId": "16105436@N00","secret": "0f3aa4225f","title": "Soiled footware warning","loc": {"type": "Point","coordinates": [103.84583,1.274833]}} 
{"id": "8533233903","server": "8089","farm": "9","userId": "98356781@N00","secret": "85ba91288b","title": "The global economy, containerized.","loc": {"type": "Point","coordinates": [103.84548,1.27267]}} 
{"id": "8499328004","server": "8385","farm": "9","userId": "92993390@N00","secret": "9af83bd2c6","title": "Jerril showing off his handiwork.","loc": {"type": "Point","coordinates": [103.84605,1.272325]}} 
{"id": "8475969436","server": "8094","farm": "9","userId": "21997205@N00","secret": "15e8d22a69","title": "Thank you, Siti, for your special gifts from your Thailand trip!","loc": {"type": "Point","coordinates": [103.845856,1.274901]}} 
{"id": "8474882649","server": "8518","farm": "9","userId": "21997205@N00","secret": "3116101cff","title": "Thank you, Siti, for your special gifts from your Thailand trip!","loc": {"type": "Point","coordinates": [103.845856,1.274901]}} 
{"id": "8455633242","server": "8531","farm": "9","userId": "73142903@N05","secret": "cbba5a1ea2","title": "Carlton City - 8 Feb 2013","loc": {"type": "Point","coordinates": [103.844,1.274833]}} 
{"id": "8432853436","server": "8220","farm": "9","userId": "67851013@N02","secret": "7f7315e56e","title": "#Food heals the #world 23/01/13.","loc": {"type": "Point","coordinates": [103.84316,1.274729]}} 
{"id": "8432853768","server": "8463","farm": "9","userId": "67851013@N02","secret": "0f252d0dbc","title": "#Food heals the #world 23/01/13.","loc": {"type": "Point","coordinates": [103.84316,1.274729]}} 
{"id": "8391350592","server": "8215","farm": "9","userId": "49223414@N04","secret": "f82e07228a","title": "Breakfast. First McD meal in #singapore :)","loc": {"type": "Point","coordinates": [103.845856,1.274901]}} 
{"id": "8357646060","server": "8073","farm": "9","userId": "23215539@N04","secret": "476acbf1cb","title": "Grüße aus Singapur","loc": {"type": "Point","coordinates": [103.84363,1.274845]}} 
{"id": "8345803905","server": "8499","farm": "9","userId": "16102830@N05","secret": "5642108e3c","title": "1201_JanRandoms_HR_036","loc": {"type": "Point","coordinates": [103.84333,1.272833]}} 
{"id": "8345803133","server": "8218","farm": "9","userId": "16102830@N05","secret": "59ff8ae347","title": "1201_JanRandoms_HR_037","loc": {"type": "Point","coordinates": [103.84333,1.272833]}} 
{"id": "8345802735","server": "8361","farm": "9","userId": "16102830@N05","secret": "28237179ac","title": "1201_JanRandoms_HR_038","loc": {"type": "Point","coordinates": [103.843666,1.273]}} 
{"id": "8313713466","server": "8500","farm": "9","userId": "89975165@N07","secret": "fcc969e0ae","title": "Black Spicy Chicken Leg Ramen with Flavoured Egg.","loc": {"type": "Point","coordinates": [103.843414,1.274743]}} 
{"id": "8313677192","server": "8362","farm": "9","userId": "89975165@N07","secret": "2d3372db12","title": "Lunch time with ze Beefy Gang!!! @jaontheang @jillybillyhilly @ringmybel","loc": {"type": "Point","coordinates": [103.843414,1.274743]}} 
{"id": "8309647518","server": "8501","farm": "9","userId": "12166501@N00","secret": "7fff286947","title": "#instaplace #instaplaceapp #instagood #photooftheday #instamood #picoftheday #instadaily #photo #instacool #instapic #picture #pic @instaplaceapp #place #earth #world  #singapore #singapore #100ammall@tanjongpagarplaza #food #foodporn #restaurant #street","loc": {"type": "Point","coordinates": [103.84314,1.274716]}} 
{"id": "8299117201","server": "8221","farm": "9","userId": "91175116@N02","secret": "836558ede0","title": "","loc": {"type": "Point","coordinates": [103.84333,1.274666]}} 
{"id": "8294722164","server": "8083","farm": "9","userId": "69379954@N08","secret": "684f70d70d","title": "Supper","loc": {"type": "Point","coordinates": [103.84286,1.273545]}} 
{"id": "8294033114","server": "8504","farm": "9","userId": "61038036@N00","secret": "c84bd715d6","title": "IMG_8494","loc": {"type": "Point","coordinates": [103.843666,1.2745]}} 
{"id": "8294025412","server": "8071","farm": "9","userId": "61038036@N00","secret": "fed662f992","title": "IMG_8492","loc": {"type": "Point","coordinates": [103.8435,1.2745]}} 
{"id": "8292969917","server": "8360","farm": "9","userId": "61038036@N00","secret": "038ed8986b","title": "IMG_8487","loc": {"type": "Point","coordinates": [103.84333,1.274666]}} 
{"id": "8292970135","server": "8223","farm": "9","userId": "61038036@N00","secret": "c70b47d0b8","title": "IMG_8488","loc": {"type": "Point","coordinates": [103.84316,1.274666]}} 
{"id": "8292970321","server": "8214","farm": "9","userId": "61038036@N00","secret": "c67e25e0be","title": "IMG_8490","loc": {"type": "Point","coordinates": [103.8435,1.2745]}} 
{"id": "8292951895","server": "8214","farm": "9","userId": "61038036@N00","secret": "9df4a33256","title": "IMG_8495","loc": {"type": "Point","coordinates": [103.843666,1.2745]}} 
{"id": "8287521784","server": "8351","farm": "9","userId": "41894167963@N01","secret": "1d264d7639","title": "","loc": {"type": "Point","coordinates": [103.84435,1.274266]}} 
{"id": "8233949111","server": "8342","farm": "9","userId": "76804634@N00","secret": "0a71c04617","title": "Grilled baby capsicum. Yummo","loc": {"type": "Point","coordinates": [103.84435,1.274266]}} 
{"id": "8208564748","server": "8059","farm": "9","userId": "48889054224@N01","secret": "38c31f7124","title": "70s Japan. Just add ramen queue.","loc": {"type": "Point","coordinates": [103.843414,1.274743]}} 
{"id": "8201863829","server": "8486","farm": "9","userId": "76804634@N00","secret": "5a178aea24","title": "Home made Minestrone soup. A healthy dinner. Only wish it was 15 degrees cooler outside","loc": {"type": "Point","coordinates": [103.84435,1.274266]}} 
{"id": "8202873268","server": "8068","farm": "9","userId": "36579035@N04","secret": "637907555d","title": "City of Gold","loc": {"type": "Point","coordinates": [103.84381,1.273477]}} 
{"id": "8201828732","server": "8064","farm": "9","userId": "76804634@N00","secret": "584b241d9d","title": "This is my third coffee this morning and its only 9AM.","loc": {"type": "Point","coordinates": [103.84435,1.274266]}} 
