{"id": "9115681212","server": "2886","farm": "3","userId": "63209542@N08","secret": "b00a8b4c16","title": "Ambrosia","loc": {"type": "Point","coordinates": [103.8355,1.2905]}} 
{"id": "9115566182","server": "7365","farm": "8","userId": "63209542@N08","secret": "4e9687c5c2","title": "By the River","loc": {"type": "Point","coordinates": [103.83583,1.2905]}} 
{"id": "8373667222","server": "8508","farm": "9","userId": "15908395@N07","secret": "a3a7391cbb","title": "The Heartbreaks Live in Zouk, Singapore - 30","loc": {"type": "Point","coordinates": [103.835266,1.291202]}} 
{"id": "8372590851","server": "8049","farm": "9","userId": "15908395@N07","secret": "a70fe545be","title": "The Heartbreaks Live in Zouk, Singapore - 15","loc": {"type": "Point","coordinates": [103.835266,1.291202]}} 
{"id": "8372594011","server": "8232","farm": "9","userId": "15908395@N07","secret": "46123ce102","title": "The Heartbreaks Live in Zouk, Singapore - 22","loc": {"type": "Point","coordinates": [103.835266,1.291202]}} 
{"id": "8373662484","server": "8211","farm": "9","userId": "15908395@N07","secret": "084fcdf1ef","title": "The Heartbreaks Live in Zouk, Singapore - 20","loc": {"type": "Point","coordinates": [103.835266,1.291202]}} 
{"id": "8373658578","server": "8185","farm": "9","userId": "15908395@N07","secret": "1e092aaf88","title": "The Heartbreaks Live in Zouk, Singapore - 10","loc": {"type": "Point","coordinates": [103.835266,1.291202]}} 
{"id": "8372590521","server": "8192","farm": "9","userId": "15908395@N07","secret": "af824388cb","title": "The Heartbreaks Live in Zouk, Singapore - 14","loc": {"type": "Point","coordinates": [103.835266,1.291202]}} 
{"id": "8373661244","server": "8353","farm": "9","userId": "15908395@N07","secret": "0f291cdd22","title": "The Heartbreaks Live in Zouk, Singapore - 17","loc": {"type": "Point","coordinates": [103.835266,1.291202]}} 
{"id": "8372594407","server": "8214","farm": "9","userId": "15908395@N07","secret": "0660fcbb40","title": "The Heartbreaks Live in Zouk, Singapore - 23","loc": {"type": "Point","coordinates": [103.835266,1.291202]}} 
{"id": "8373660862","server": "8218","farm": "9","userId": "15908395@N07","secret": "61dd6875c8","title": "The Heartbreaks Live in Zouk, Singapore - 16","loc": {"type": "Point","coordinates": [103.835266,1.291202]}} 
{"id": "8372588253","server": "8098","farm": "9","userId": "15908395@N07","secret": "c18f2b1186","title": "The Heartbreaks Live in Zouk, Singapore - 9","loc": {"type": "Point","coordinates": [103.835266,1.291202]}} 
{"id": "8373666086","server": "8475","farm": "9","userId": "15908395@N07","secret": "4455c71099","title": "The Heartbreaks Live in Zouk, Singapore - 27","loc": {"type": "Point","coordinates": [103.835266,1.291202]}} 
{"id": "8373666842","server": "8518","farm": "9","userId": "15908395@N07","secret": "095c16b0a9","title": "The Heartbreaks Live in Zouk, Singapore - 29","loc": {"type": "Point","coordinates": [103.835266,1.291202]}} 
{"id": "8373667954","server": "8471","farm": "9","userId": "15908395@N07","secret": "94539f7c6e","title": "The Heartbreaks Live in Zouk, Singapore - 32","loc": {"type": "Point","coordinates": [103.835266,1.291202]}} 
{"id": "8373666466","server": "8476","farm": "9","userId": "15908395@N07","secret": "82fd890d15","title": "The Heartbreaks Live in Zouk, Singapore - 28","loc": {"type": "Point","coordinates": [103.835266,1.291202]}} 
{"id": "8372594795","server": "8211","farm": "9","userId": "15908395@N07","secret": "d1afabb316","title": "The Heartbreaks Live in Zouk, Singapore - 24","loc": {"type": "Point","coordinates": [103.835266,1.291202]}} 
{"id": "8373663150","server": "8221","farm": "9","userId": "15908395@N07","secret": "de7c4fdbe6","title": "The Heartbreaks Live in Zouk, Singapore - 21","loc": {"type": "Point","coordinates": [103.835266,1.291202]}} 
{"id": "8373667566","server": "8517","farm": "9","userId": "15908395@N07","secret": "5393802e0b","title": "The Heartbreaks Live in Zouk, Singapore - 31","loc": {"type": "Point","coordinates": [103.835266,1.291202]}} 
{"id": "8373665186","server": "8375","farm": "9","userId": "15908395@N07","secret": "55c5abb892","title": "The Heartbreaks Live in Zouk, Singapore - 26","loc": {"type": "Point","coordinates": [103.835266,1.291202]}} 
{"id": "8372592321","server": "8048","farm": "9","userId": "15908395@N07","secret": "e2b973e2e2","title": "The Heartbreaks Live in Zouk, Singapore - 19","loc": {"type": "Point","coordinates": [103.835266,1.291202]}} 
{"id": "8372591911","server": "8077","farm": "9","userId": "15908395@N07","secret": "48dc103188","title": "The Heartbreaks Live in Zouk, Singapore - 18","loc": {"type": "Point","coordinates": [103.835266,1.291202]}} 
{"id": "8373654074","server": "8330","farm": "9","userId": "15908395@N07","secret": "a7a9e0d49d","title": "The Heartbreaks Live in Zouk, Singapore - 1","loc": {"type": "Point","coordinates": [103.835266,1.291202]}} 
{"id": "8373654502","server": "8079","farm": "9","userId": "15908395@N07","secret": "7dddc8564a","title": "The Heartbreaks Live in Zouk, Singapore - 2","loc": {"type": "Point","coordinates": [103.835266,1.291202]}} 
{"id": "8373656942","server": "8232","farm": "9","userId": "15908395@N07","secret": "9da7ca8f21","title": "The Heartbreaks Live in Zouk, Singapore - 7","loc": {"type": "Point","coordinates": [103.835266,1.291202]}} 
{"id": "8372586385","server": "8378","farm": "9","userId": "15908395@N07","secret": "a307fa81dc","title": "The Heartbreaks Live in Zouk, Singapore - 5","loc": {"type": "Point","coordinates": [103.835266,1.291202]}} 
{"id": "8372585783","server": "8492","farm": "9","userId": "15908395@N07","secret": "ab9860b7ae","title": "The Heartbreaks Live in Zouk, Singapore - 4","loc": {"type": "Point","coordinates": [103.835266,1.291202]}} 
{"id": "8373654974","server": "8495","farm": "9","userId": "15908395@N07","secret": "3fed9330ff","title": "The Heartbreaks Live in Zouk, Singapore - 3","loc": {"type": "Point","coordinates": [103.835266,1.291202]}} 
{"id": "8303943930","server": "8354","farm": "9","userId": "10757800@N00","secret": "b0eb1bb020","title": "Christmas Eve Dinner | Singapore","loc": {"type": "Point","coordinates": [103.83691,1.292243]}} 
{"id": "8303909366","server": "8361","farm": "9","userId": "10757800@N00","secret": "961ea13ee0","title": "Christmas Eve Dinner | Singapore","loc": {"type": "Point","coordinates": [103.83691,1.292243]}} 
{"id": "8303427028","server": "8077","farm": "9","userId": "10757800@N00","secret": "66617bcee6","title": "2012 Gingerbread House | Singapore","loc": {"type": "Point","coordinates": [103.837204,1.291535]}} 
{"id": "9302396445","server": "2831","farm": "3","userId": "96738935@N00","secret": "590ea81a0b","title": "IMG_0909","loc": {"type": "Point","coordinates": [103.832,1.292166]}} 
{"id": "9154965459","server": "3730","farm": "4","userId": "51489026@N02","secret": "95966e1569","title": "Please do not smoke","loc": {"type": "Point","coordinates": [103.835075,1.290536]}} 
{"id": "9092888660","server": "3798","farm": "4","userId": "14385475@N05","secret": "27e466abef","title": "IMG_7207","loc": {"type": "Point","coordinates": [103.836,1.292833]}} 
{"id": "9092825402","server": "7460","farm": "8","userId": "14385475@N05","secret": "50986be68c","title": "IMG_7202","loc": {"type": "Point","coordinates": [103.83583,1.292333]}} 
{"id": "9092866112","server": "5328","farm": "6","userId": "14385475@N05","secret": "688b62d7c7","title": "IMG_7204","loc": {"type": "Point","coordinates": [103.836,1.292333]}} 
{"id": "9090625821","server": "5468","farm": "6","userId": "14385475@N05","secret": "1415b87203","title": "IMG_7203","loc": {"type": "Point","coordinates": [103.836,1.292333]}} 
{"id": "9092815240","server": "3748","farm": "4","userId": "14385475@N05","secret": "3a7a61c49d","title": "IMG_7201","loc": {"type": "Point","coordinates": [103.83583,1.292333]}} 
{"id": "9090578585","server": "2892","farm": "3","userId": "14385475@N05","secret": "1eec980cd7","title": "IMG_7200","loc": {"type": "Point","coordinates": [103.83566,1.292333]}} 
{"id": "9092790098","server": "2880","farm": "3","userId": "14385475@N05","secret": "f433b19765","title": "IMG_7199","loc": {"type": "Point","coordinates": [103.83566,1.292166]}} 
{"id": "9090557747","server": "3680","farm": "4","userId": "14385475@N05","secret": "b2ae54c5a7","title": "IMG_7195","loc": {"type": "Point","coordinates": [103.834335,1.290833]}} 
{"id": "9090518369","server": "7292","farm": "8","userId": "14385475@N05","secret": "cff1fbdd74","title": "IMG_7192","loc": {"type": "Point","coordinates": [103.83483,1.291]}} 
{"id": "9092768888","server": "5481","farm": "6","userId": "14385475@N05","secret": "b77cb53938","title": "IMG_7194","loc": {"type": "Point","coordinates": [103.835,1.291166]}} 
{"id": "9092748922","server": "7325","farm": "8","userId": "14385475@N05","secret": "65e8773d7e","title": "IMG_7193","loc": {"type": "Point","coordinates": [103.835,1.291166]}} 
{"id": "9057183928","server": "3822","farm": "4","userId": "40138859@N02","secret": "1fdff6754d","title": "I hope the music's good.","loc": {"type": "Point","coordinates": [103.83487,1.291116]}} 
{"id": "9056571494","server": "7435","farm": "8","userId": "38662956@N00","secret": "3fc5cae503","title": "Legs","loc": {"type": "Point","coordinates": [103.83487,1.291116]}} 
{"id": "9054340829","server": "7411","farm": "8","userId": "38662956@N00","secret": "12145fd2a6","title": "Shelves at Zouk","loc": {"type": "Point","coordinates": [103.83487,1.291116]}} 
{"id": "9054366849","server": "3729","farm": "4","userId": "38662956@N00","secret": "fa99d72c73","title": "Múm","loc": {"type": "Point","coordinates": [103.83487,1.291116]}} 
{"id": "9056578790","server": "3752","farm": "4","userId": "38662956@N00","secret": "58b25c078e","title": "Wavves","loc": {"type": "Point","coordinates": [103.83487,1.291116]}} 
{"id": "9054518702","server": "2834","farm": "3","userId": "40138859@N02","secret": "ba94b35af2","title": "Another picture w/ @wavvescybersquat I don't remember taking.","loc": {"type": "Point","coordinates": [103.83487,1.291116]}} 
{"id": "9054492702","server": "5342","farm": "6","userId": "40138859@N02","secret": "e14654d11d","title": "Hanging with @wavvescybersquat and Jonny Lee Miller.","loc": {"type": "Point","coordinates": [103.83487,1.291116]}} 
{"id": "9047952223","server": "5495","farm": "6","userId": "24989432@N06","secret": "66007568b8","title": "Whoa a Flying V Bass Guitar \m/ #wavves","loc": {"type": "Point","coordinates": [103.83487,1.291116]}} 
{"id": "9047491791","server": "3790","farm": "4","userId": "30436867@N00","secret": "d54ed2477c","title": "Bread","loc": {"type": "Point","coordinates": [103.83501,1.291165]}} 
{"id": "9047510637","server": "7350","farm": "8","userId": "30436867@N00","secret": "1fb0ec9354","title": "Tagliolini Al Nero & Granceola","loc": {"type": "Point","coordinates": [103.83501,1.291165]}} 
{"id": "9049630808","server": "3694","farm": "4","userId": "40138859@N02","secret": "691993da69","title": "Imagine this filled with Shelves.","loc": {"type": "Point","coordinates": [103.83487,1.291116]}} 
{"id": "9046966743","server": "2862","farm": "3","userId": "40138859@N02","secret": "80a7c16a77","title": "@wavvescybersquat soundchecking","loc": {"type": "Point","coordinates": [103.83487,1.291116]}} 
{"id": "9049000894","server": "7364","farm": "8","userId": "40138859@N02","secret": "68f30ac507","title": "Are you ready? That's us talking to ourselves.","loc": {"type": "Point","coordinates": [103.83487,1.291116]}} 
{"id": "9042298200","server": "2871","farm": "3","userId": "30436867@N00","secret": "c8ed54a3b3","title": "Tiramisu awaiting","loc": {"type": "Point","coordinates": [103.83215,1.293347]}} 
{"id": "9040029519","server": "7431","farm": "8","userId": "30436867@N00","secret": "0ec933ab9e","title": "French Roasted Chicken with Mushroom Chardonnay Sauce","loc": {"type": "Point","coordinates": [103.83215,1.293347]}} 
{"id": "9042071768","server": "7407","farm": "8","userId": "30436867@N00","secret": "84292fd35f","title": "Cream of Wild Mushrooms and Idaho Potato","loc": {"type": "Point","coordinates": [103.83215,1.293347]}} 
{"id": "8960052174","server": "2838","farm": "3","userId": "23436061@N00","secret": "8faf415bc8","title": "Ultra modern #nofilter #club #tiesto #singapore","loc": {"type": "Point","coordinates": [103.83487,1.291116]}} 
{"id": "8825806712","server": "8411","farm": "9","userId": "28137664@N03","secret": "326160c643","title": "Under Demolition, Zion Road, Singapore","loc": {"type": "Point","coordinates": [103.83403,1.291461]}} 
{"id": "8825806012","server": "2839","farm": "3","userId": "28137664@N03","secret": "199a5b4442","title": "Diversion, Kim Seng Road, Singapore","loc": {"type": "Point","coordinates": [103.83305,1.292791]}} 
{"id": "8801792199","server": "3748","farm": "4","userId": "93969327@N07","secret": "f9b8347476","title": "SIM UOL Music Fest 2013 | Follow us @ http://fb.com/SGEventPhotographers www.SGEventPhotographers.sg  SG Event Photographers Team © 2013","loc": {"type": "Point","coordinates": [103.83487,1.291116]}} 
{"id": "8780944725","server": "8558","farm": "9","userId": "11434986@N04","secret": "9bee30919e","title": "Here I am.. #Zouk #SG","loc": {"type": "Point","coordinates": [103.83487,1.291116]}} 
{"id": "8708882949","server": "8263","farm": "9","userId": "55486190@N00","secret": "203d889512","title": "#Singapore has lots of beautiful places for walks except that its way too hot!!","loc": {"type": "Point","coordinates": [103.8357,1.292232]}} 
{"id": "8674720668","server": "8262","farm": "9","userId": "93969327@N07","secret": "d630f00954","title": "Follow us @ http://fb.com/SGEventPhotographers www.SGEventPhotographers.sg © 2013 All Rights Reserved","loc": {"type": "Point","coordinates": [103.83487,1.291116]}} 
{"id": "8674092184","server": "8121","farm": "9","userId": "93969327@N07","secret": "92d7960583","title": "SIM UOL Music Fest 2013 | Follow us @ http://fb.com/SGEventPhotographers www.SGEventPhotographers.sg © 2013 All Rights Reserved","loc": {"type": "Point","coordinates": [103.83487,1.291116]}} 
{"id": "8650602611","server": "8519","farm": "9","userId": "51489026@N02","secret": "58c22e4f07","title": "The soon-to-be-gone lobby","loc": {"type": "Point","coordinates": [103.83327,1.291599]}} 
{"id": "8539305000","server": "8525","farm": "9","userId": "7195567@N07","secret": "d493067d49","title": "Singapore 2011 -  Chinatown","loc": {"type": "Point","coordinates": [103.834755,1.290694]}} 
{"id": "8538196345","server": "8085","farm": "9","userId": "7195567@N07","secret": "a78e869fa5","title": "Grand Copthorne Singapore Waterfront","loc": {"type": "Point","coordinates": [103.834755,1.290694]}} 
{"id": "8539304736","server": "8237","farm": "9","userId": "7195567@N07","secret": "5acc503515","title": "Grand Copthorne Singapore Waterfront","loc": {"type": "Point","coordinates": [103.834755,1.290694]}} 
{"id": "8539304630","server": "8230","farm": "9","userId": "7195567@N07","secret": "346f1c09e0","title": "Grand Copthorne Singapore Waterfront","loc": {"type": "Point","coordinates": [103.834755,1.290694]}} 
{"id": "8538196773","server": "8525","farm": "9","userId": "7195567@N07","secret": "2f2dc19f78","title": "Singapore 2011 -  Chinatown","loc": {"type": "Point","coordinates": [103.834755,1.290694]}} 
{"id": "8538196687","server": "8373","farm": "9","userId": "7195567@N07","secret": "9e4981e558","title": "Singapore 2011 -  Chinatown","loc": {"type": "Point","coordinates": [103.834755,1.290694]}} 
{"id": "8539304470","server": "8376","farm": "9","userId": "7195567@N07","secret": "a5d05808ab","title": "Grand Copthorne Singapore Waterfront","loc": {"type": "Point","coordinates": [103.83463,1.290658]}} 
{"id": "8538201751","server": "8505","farm": "9","userId": "7195567@N07","secret": "7c475334d6","title": "Singapore 2011","loc": {"type": "Point","coordinates": [103.835655,1.291044]}} 
{"id": "8539307356","server": "8249","farm": "9","userId": "7195567@N07","secret": "9f45b2a522","title": "Singapore 2011","loc": {"type": "Point","coordinates": [103.8352,1.290719]}} 
{"id": "8524500848","server": "8508","farm": "9","userId": "17528871@N00","secret": "c39be6a887","title": "Mix M-Menace Mix","loc": {"type": "Point","coordinates": [103.83487,1.291116]}} 
{"id": "8499912392","server": "8382","farm": "9","userId": "57629484@N03","secret": "81e08c0517","title": "Ilan said I want a 'Tom & Jerry' ice cream ;)","loc": {"type": "Point","coordinates": [103.83208,1.293146]}} 
{"id": "8488751088","server": "8512","farm": "9","userId": "40138859@N02","secret": "09be93aa67","title": "Night we caught #TheHeartbreaks @stellayeo @scarykitty @littleong","loc": {"type": "Point","coordinates": [103.83487,1.291116]}} 
{"id": "8461567622","server": "8104","farm": "9","userId": "32387758@N02","secret": "0623035271","title": "Snow White and the Angry Birds","loc": {"type": "Point","coordinates": [103.83224,1.293165]}} 
{"id": "8461191242","server": "8525","farm": "9","userId": "64721132@N02","secret": "e92025f85e","title": "Knight's helmet","loc": {"type": "Point","coordinates": [103.83733,1.291333]}} 
{"id": "8436504561","server": "8215","farm": "9","userId": "41894167963@N01","secret": "270d76996c","title": "IMG_6616","loc": {"type": "Point","coordinates": [103.83217,1.293333]}} 
{"id": "8432354353","server": "8212","farm": "9","userId": "17528871@N00","secret": "553a6bd423","title": "One of the perks of having a girlfriend who's a DJ, is you get console access when you roadie for her. #ZiggySounds","loc": {"type": "Point","coordinates": [103.834755,1.291303]}} 
{"id": "8407004811","server": "8076","farm": "9","userId": "65512718@N08","secret": "caf3a5bb1e","title": "High","loc": {"type": "Point","coordinates": [103.83728,1.290784]}} 
{"id": "8405639508","server": "8044","farm": "9","userId": "86380881@N08","secret": "7f7e1dd6a8","title": "a4","loc": {"type": "Point","coordinates": [103.83517,1.291833]}} 
{"id": "8372589637","server": "8213","farm": "9","userId": "15908395@N07","secret": "55431ccc01","title": "The Heartbreaks Live in Zouk, Singapore - 12","loc": {"type": "Point","coordinates": [103.835266,1.291202]}} 
{"id": "8372590077","server": "8370","farm": "9","userId": "15908395@N07","secret": "4924b2e984","title": "The Heartbreaks Live in Zouk, Singapore - 13","loc": {"type": "Point","coordinates": [103.835266,1.291202]}} 
{"id": "8372589239","server": "8216","farm": "9","userId": "15908395@N07","secret": "1c9ae3b51b","title": "The Heartbreaks Live in Zouk, Singapore - 11","loc": {"type": "Point","coordinates": [103.835266,1.291202]}} 
{"id": "8372587763","server": "8094","farm": "9","userId": "15908395@N07","secret": "81e387e278","title": "The Heartbreaks Live in Zouk, Singapore - 8","loc": {"type": "Point","coordinates": [103.835266,1.291202]}} 
{"id": "8370744538","server": "8191","farm": "9","userId": "38662956@N00","secret": "d6fcd6eb5c","title": "The Heartbreaks at Zouk","loc": {"type": "Point","coordinates": [103.83487,1.291116]}} 
{"id": "8369641571","server": "8055","farm": "9","userId": "38662956@N00","secret": "248d7c7eea","title": "The Heartbreaks at Zouk","loc": {"type": "Point","coordinates": [103.83487,1.291116]}} 
{"id": "8351634503","server": "8362","farm": "9","userId": "10949471@N05","secret": "8abbe6c942","title": "apparat","loc": {"type": "Point","coordinates": [103.83459,1.292183]}} 
{"id": "8349740638","server": "8185","farm": "9","userId": "10949471@N05","secret": "86158c608a","title": "i wanna rock with you","loc": {"type": "Point","coordinates": [103.83474,1.291127]}} 
{"id": "8349764370","server": "8507","farm": "9","userId": "10949471@N05","secret": "2662ce92e9","title": "with dimitri","loc": {"type": "Point","coordinates": [103.83474,1.291106]}} 
{"id": "8348480779","server": "8353","farm": "9","userId": "10949471@N05","secret": "ce606fe398","title": "play that funky music","loc": {"type": "Point","coordinates": [103.83465,1.290977]}} 
{"id": "8348422649","server": "8216","farm": "9","userId": "10949471@N05","secret": "15deaf694c","title": "rave","loc": {"type": "Point","coordinates": [103.834694,1.291063]}} 
{"id": "8349166748","server": "8360","farm": "9","userId": "10949471@N05","secret": "6d08398b41","title": "dimitri from paris","loc": {"type": "Point","coordinates": [103.83459,1.292183]}} 
{"id": "8349166298","server": "8222","farm": "9","userId": "10949471@N05","secret": "dfd05becb5","title": "dimitri from paris","loc": {"type": "Point","coordinates": [103.83465,1.290998]}} 
{"id": "8310976436","server": "8502","farm": "9","userId": "39926850@N04","secret": "eb86c74900","title": "undefined","loc": {"type": "Point","coordinates": [103.835464,1.290645]}} 
{"id": "8310976478","server": "8364","farm": "9","userId": "39926850@N04","secret": "b40d97b4b3","title": "undefined","loc": {"type": "Point","coordinates": [103.83551,1.290674]}} 
{"id": "8302860617","server": "8352","farm": "9","userId": "10757800@N00","secret": "e6027a161a","title": "Christmas Eve Dinner | Singapore","loc": {"type": "Point","coordinates": [103.83691,1.292243]}} 
{"id": "8303912566","server": "8072","farm": "9","userId": "10757800@N00","secret": "80c242c76a","title": "Christmas Eve Dinner | Singapore","loc": {"type": "Point","coordinates": [103.83691,1.292243]}} 
{"id": "8302510657","server": "8215","farm": "9","userId": "10757800@N00","secret": "11c647b950","title": "2012 Gingerbread House | Singapore","loc": {"type": "Point","coordinates": [103.83678,1.292157]}} 
{"id": "8292814287","server": "8504","farm": "9","userId": "97638591@N00","secret": "325a83ee4c","title": "Is the pool big enough?","loc": {"type": "Point","coordinates": [103.8354,1.291866]}} 
{"id": "8292814437","server": "8359","farm": "9","userId": "97638591@N00","secret": "8b2540e652","title": "Singapore Heights","loc": {"type": "Point","coordinates": [103.836,1.292333]}} 
{"id": "8293869102","server": "8502","farm": "9","userId": "97638591@N00","secret": "f9b2a4dc96","title": "Morning Singapore","loc": {"type": "Point","coordinates": [103.83685,1.291062]}} 
{"id": "8287136813","server": "8074","farm": "9","userId": "26437411@N00","secret": "d5eb668fea","title": "Yg nemenin kerja sore ini. New buddy, Hammy! #dog #doglovers","loc": {"type": "Point","coordinates": [103.832924,1.29324]}} 
{"id": "8286829649","server": "8081","farm": "9","userId": "54696848@N00","secret": "eb492fe05b","title": "Honey Citrus Fizz!","loc": {"type": "Point","coordinates": [103.83267,1.292898]}} 
{"id": "8286793061","server": "8075","farm": "9","userId": "54696848@N00","secret": "fe5d55966e","title": "Dessert after SamTha runway!","loc": {"type": "Point","coordinates": [103.83267,1.292898]}} 
{"id": "8286137325","server": "8500","farm": "9","userId": "91235570@N04","secret": "a0068d5cf1","title": "","loc": {"type": "Point","coordinates": [103.836334,1.292333]}} 
{"id": "8277336494","server": "8207","farm": "9","userId": "19282426@N00","secret": "363359681f","title": "Cappuccino","loc": {"type": "Point","coordinates": [103.8349,1.290508]}} 
{"id": "8247429774","server": "8069","farm": "9","userId": "99233151@N00","secret": "9849706c50","title": "Thank you to my awesome team at SingTel. And to my lovely wife for campaigning ;)","loc": {"type": "Point","coordinates": [103.83487,1.291116]}} 
{"id": "8213107396","server": "8487","farm": "9","userId": "77823697@N00","secret": "2714ec7546","title": "Akimbo. I have no idea why. It's been awhile, though. #latergram","loc": {"type": "Point","coordinates": [103.83487,1.291116]}} 
{"id": "8193039512","server": "8487","farm": "9","userId": "10757800@N00","secret": "66d728b70a","title": "Alice's 5th Birthday | Singapore","loc": {"type": "Point","coordinates": [103.83641,1.291921]}} 
{"id": "8192825386","server": "8345","farm": "9","userId": "10757800@N00","secret": "d3c2428b88","title": "Alice's 5th Birthday | Singapore","loc": {"type": "Point","coordinates": [103.83647,1.291985]}} 
{"id": "8191703161","server": "8069","farm": "9","userId": "10757800@N00","secret": "488ae17e95","title": "Alice's 5th Birthday | Singapore","loc": {"type": "Point","coordinates": [103.83641,1.291899]}} 
{"id": "8190604190","server": "8488","farm": "9","userId": "10757800@N00","secret": "1785d4b830","title": "Alice's 5th Birthday | Singapore","loc": {"type": "Point","coordinates": [103.836494,1.291899]}} 
{"id": "8187199707","server": "8347","farm": "9","userId": "10757800@N00","secret": "8665e79cd2","title": "Alice's 5th Birthday | Singapore","loc": {"type": "Point","coordinates": [103.83641,1.291856]}} 
{"id": "8182061465","server": "8350","farm": "9","userId": "10757800@N00","secret": "45a18dbe8e","title": "Alice's 5th Birthday | Singapore","loc": {"type": "Point","coordinates": [103.83639,1.291964]}} 
{"id": "8182029531","server": "8344","farm": "9","userId": "10757800@N00","secret": "f80125a7db","title": "Alice's 5th Birthday | Singapore","loc": {"type": "Point","coordinates": [103.83641,1.291921]}} 
{"id": "8182011997","server": "8349","farm": "9","userId": "10757800@N00","secret": "59c62bfe20","title": "Alice's 5th Birthday | Singapore","loc": {"type": "Point","coordinates": [103.83635,1.29205]}} 
{"id": "8181650288","server": "8059","farm": "9","userId": "10757800@N00","secret": "6be004769c","title": "Alice's 5th Birthday | Singapore","loc": {"type": "Point","coordinates": [103.83643,1.291878]}} 
{"id": "8181629684","server": "8070","farm": "9","userId": "10757800@N00","secret": "b84f1f5e83","title": "Alice's 5th Birthday | Singapore","loc": {"type": "Point","coordinates": [103.83647,1.291985]}} 
{"id": "8181614542","server": "8198","farm": "9","userId": "10757800@N00","secret": "af6c509de3","title": "Alice's 5th Birthday | Singapore","loc": {"type": "Point","coordinates": [103.83647,1.291942]}} 
{"id": "8181299038","server": "8205","farm": "9","userId": "10757800@N00","secret": "ec10ed4e67","title": "Alice's 5th Birthday | Singapore","loc": {"type": "Point","coordinates": [103.83635,1.292007]}} 
{"id": "8181047796","server": "8348","farm": "9","userId": "10757800@N00","secret": "f5927ba1b1","title": "Alice's 5th Birthday | Singapore","loc": {"type": "Point","coordinates": [103.83639,1.292071]}} 
{"id": "8180986353","server": "8068","farm": "9","userId": "10757800@N00","secret": "6dcb1f4df9","title": "Alice's 5th Birthday | Singapore","loc": {"type": "Point","coordinates": [103.836365,1.291964]}} 
{"id": "8180530454","server": "8070","farm": "9","userId": "10757800@N00","secret": "52e910722a","title": "Alice's 5th Birthday | Singapore","loc": {"type": "Point","coordinates": [103.83641,1.292028]}} 
{"id": "8178773185","server": "8208","farm": "9","userId": "10757800@N00","secret": "069cda8356","title": "Alice's 5th Birthday | Singapore","loc": {"type": "Point","coordinates": [103.83646,1.291706]}} 
{"id": "8172043222","server": "8484","farm": "9","userId": "38662956@N00","secret": "7957b7385a","title": "Pleasantry at 90e Flashback Juice 14th Anniversary","loc": {"type": "Point","coordinates": [103.83526,1.291295]}} 
{"id": "8172009489","server": "8343","farm": "9","userId": "38662956@N00","secret": "d16d5aed36","title": "@scarykitty & @shazzaw @ 90s Flashback Juice 14th Anniversary","loc": {"type": "Point","coordinates": [103.83528,1.291293]}} 
{"id": "8153913797","server": "8482","farm": "9","userId": "23436061@N00","secret": "06e064285c","title": "Lurid tales of mistresses and HDBs. #erotica #fleamarket #nonbuyersremorse #books #sunday","loc": {"type": "Point","coordinates": [103.83487,1.291116]}} 
{"id": "8153247653","server": "8348","farm": "9","userId": "23436061@N00","secret": "a27de545d1","title": "Gators #denim #crocodiles #alligators #jeans","loc": {"type": "Point","coordinates": [103.83487,1.291116]}} 
{"id": "8152982002","server": "8479","farm": "9","userId": "17528871@N00","secret": "11c06855ee","title": "DJ M-Menace! #fleaneasy","loc": {"type": "Point","coordinates": [103.83487,1.291116]}} 
{"id": "8146972443","server": "8473","farm": "9","userId": "17003120@N04","secret": "032a8df479","title": "","loc": {"type": "Point","coordinates": [103.83643,1.290905]}} 
{"id": "8126694913","server": "8333","farm": "9","userId": "28872586@N00","secret": "c58e2af3e2","title": "I look at this photo when I miss #singapore and when I'm hungry #laksa #lobster #cray @ilovenomnomm @knowitnothing #foodporn #nomnom #photooftheday #instafood #picoftheday","loc": {"type": "Point","coordinates": [103.8349,1.290508]}} 
{"id": "8119346902","server": "8469","farm": "9","userId": "17528871@N00","secret": "ac58117992","title": "ZOMG. MY GIRLFRIEND IS A DJ!!! (In the background.) - @mandaillustrates","loc": {"type": "Point","coordinates": [103.834755,1.291303]}} 
{"id": "8119343646","server": "8044","farm": "9","userId": "17528871@N00","secret": "ed00e602ab","title": "SO PROUD OF YOU! #FFFBootcamp - @mandaillustrates","loc": {"type": "Point","coordinates": [103.834755,1.291303]}} 
{"id": "8118348283","server": "8464","farm": "9","userId": "23436061@N00","secret": "db728fb0d9","title": "I'm zouk'd out! @laughoutloudita @rosalindchu @avicii  #jackpot #music #tickets #concerts #avicii #theataris #zouk #epic","loc": {"type": "Point","coordinates": [103.83487,1.291116]}} 
