{"id": "9436943646","server": "3745","farm": "4","userId": "7325929@N04","secret": "4789c2c7e0","title": "Peace","loc": {"type": "Point","coordinates": [103.852,1.283936]}} 
{"id": "9385112524","server": "5462","farm": "6","userId": "33504256@N03","secret": "6cd049d7f3","title": "Singapore fireworks","loc": {"type": "Point","coordinates": [103.8536,1.28389]}} 
{"id": "9314233636","server": "2828","farm": "3","userId": "11008075@N00","secret": "6a7f9a858e","title": "Matchygram pose with @maudester while channeling Kermit the Frog for yoga tonight...  Why are there so many songs about rainbows...","loc": {"type": "Point","coordinates": [103.85163,1.283478]}} 
{"id": "9307345958","server": "3688","farm": "4","userId": "61943224@N04","secret": "7126c9383e","title": "Singapore - Capital Square","loc": {"type": "Point","coordinates": [103.84949,1.283919]}} 
{"id": "9300610784","server": "5324","farm": "6","userId": "61943224@N04","secret": "b1bdf0de64","title": "Singapore - Vintage Store","loc": {"type": "Point","coordinates": [103.849106,1.283318]}} 
{"id": "9300610646","server": "3788","farm": "4","userId": "61943224@N04","secret": "0d833df658","title": "Singapore - Scale Junk","loc": {"type": "Point","coordinates": [103.84908,1.283276]}} 
{"id": "9297826907","server": "5334","farm": "6","userId": "61943224@N04","secret": "143df9a61f","title": "Singapore - City Park","loc": {"type": "Point","coordinates": [103.8514,1.283211]}} 
{"id": "9220371675","server": "7419","farm": "8","userId": "24358066@N08","secret": "bbd045c577","title": "Singapore Central Business District","loc": {"type": "Point","coordinates": [103.85352,1.28113]}} 
{"id": "9156178943","server": "3754","farm": "4","userId": "32056890@N07","secret": "e9ec4bd3d0","title": "Marina Bay Sand","loc": {"type": "Point","coordinates": [103.853775,1.282715]}} 
{"id": "9151237468","server": "7311","farm": "8","userId": "11008075@N00","secret": "ebbb2bf8e1","title": "Shades of purple for yoga today - from headband to crop, even for props. ☺ | Barney pants for a matchygram @maudester?","loc": {"type": "Point","coordinates": [103.85172,1.283249]}} 
{"id": "9131754765","server": "2845","farm": "3","userId": "67287034@N03","secret": "866c1d46ac","title": "","loc": {"type": "Point","coordinates": [103.853584,1.283361]}} 
{"id": "9089132979","server": "7408","farm": "8","userId": "26025020@N08","secret": "fc605dfe3d","title": "EurAustralAsian Sampler - 7 - Flight - BKK to SIN - Singapore - 22","loc": {"type": "Point","coordinates": [103.85103,1.284194]}} 
{"id": "9089132945","server": "3674","farm": "4","userId": "26025020@N08","secret": "b102b6be8c","title": "EurAustralAsian Sampler - 7 - Flight - BKK to SIN - Singapore - 24","loc": {"type": "Point","coordinates": [103.852066,1.284177]}} 
{"id": "9091352596","server": "2893","farm": "3","userId": "26025020@N08","secret": "557e3fbacb","title": "EurAustralAsian Sampler - 7 - Flight - BKK to SIN - Singapore - 21","loc": {"type": "Point","coordinates": [103.85026,1.282452]}} 
{"id": "9091352558","server": "7361","farm": "8","userId": "26025020@N08","secret": "f12303c61b","title": "EurAustralAsian Sampler - 7 - Flight - BKK to SIN - Singapore - 23","loc": {"type": "Point","coordinates": [103.85203,1.284169]}} 
{"id": "9085893061","server": "7294","farm": "8","userId": "57236821@N03","secret": "40c6b0cefe","title": "Singapour","loc": {"type": "Point","coordinates": [103.85148,1.284019]}} 
{"id": "9080492553","server": "5448","farm": "6","userId": "89588429@N00","secret": "45d33a1c3c","title": "Hazing","loc": {"type": "Point","coordinates": [103.852325,1.282535]}} 
{"id": "8811218721","server": "2864","farm": "3","userId": "90620898@N05","secret": "a29d4133fe","title": "Marina Bay Sands","loc": {"type": "Point","coordinates": [103.853836,1.2825]}} 
{"id": "8821857498","server": "7419","farm": "8","userId": "90620898@N05","secret": "63304554d2","title": "Angles","loc": {"type": "Point","coordinates": [103.853165,1.282333]}} 
{"id": "8803900982","server": "3696","farm": "4","userId": "90620898@N05","secret": "7593f03f0d","title": "Marina Bay Sands","loc": {"type": "Point","coordinates": [103.853836,1.2825]}} 
{"id": "8803760368","server": "7382","farm": "8","userId": "90620898@N05","secret": "b49fa07348","title": "Sun Peeking off the top of a Building","loc": {"type": "Point","coordinates": [103.85233,1.282833]}} 
{"id": "8803849264","server": "8416","farm": "9","userId": "90620898@N05","secret": "ee0664f157","title": "The Bay Area","loc": {"type": "Point","coordinates": [103.853165,1.282333]}} 
{"id": "8692779892","server": "8126","farm": "9","userId": "35752916@N00","secret": "fed44bd65d","title": "the gap in between","loc": {"type": "Point","coordinates": [103.85305,1.28231]}} 
{"id": "8668153714","server": "8532","farm": "9","userId": "35518360@N00","secret": "9defb819df","title": "","loc": {"type": "Point","coordinates": [103.85373,1.282375]}} 
{"id": "8644877244","server": "8532","farm": "9","userId": "79022843@N00","secret": "c383fe6b61","title": "Buildings at Marina Bay. From left to right: The Sail, One Raffles Quay, One Marina Boulevard","loc": {"type": "Point","coordinates": [103.85349,1.281935]}} 
{"id": "8641686659","server": "8247","farm": "9","userId": "23299658@N05","secret": "a5ea9e7561","title": "Singapore skyline","loc": {"type": "Point","coordinates": [103.853714,1.282653]}} 
{"id": "8640614166","server": "8532","farm": "9","userId": "58336462@N06","secret": "37212f9ef1","title": "2013 Extreme Sailing Series Act 2 At Marina Bay Singapore42.06359","loc": {"type": "Point","coordinates": [103.8535,1.281833]}} 
{"id": "8591762765","server": "8517","farm": "9","userId": "37147643@N02","secret": "80a3e1b2ee","title": "26Mar2013","loc": {"type": "Point","coordinates": [103.85241,1.283469]}} 
{"id": "8587595943","server": "8516","farm": "9","userId": "29657665@N00","secret": "afdf42505d","title": "Camera Roll-359","loc": {"type": "Point","coordinates": [103.85183,1.282166]}} 
{"id": "8577862016","server": "8525","farm": "9","userId": "15519351@N04","secret": "51a3313c51","title": "Song of The Sea","loc": {"type": "Point","coordinates": [103.85316,1.282375]}} 
{"id": "8571270307","server": "8528","farm": "9","userId": "37147643@N02","secret": "bf92cce225","title": "19Mar2013s","loc": {"type": "Point","coordinates": [103.853676,1.281688]}} 
{"id": "8561838043","server": "8104","farm": "9","userId": "46824452@N00","secret": "0b9c4c04ce","title": "movesky","loc": {"type": "Point","coordinates": [103.85375,1.28187]}} 
{"id": "9418332833","server": "2824","farm": "3","userId": "11008075@N00","secret": "fca2efce89","title": "Miss Piggy eating a burger  called Miss Piggy","loc": {"type": "Point","coordinates": [103.84861,1.283284]}} 
{"id": "9376632085","server": "3767","farm": "4","userId": "36048863@N03","secret": "bbf0646e7c","title": "","loc": {"type": "Point","coordinates": [103.8517,1.282032]}} 
{"id": "9379404214","server": "5515","farm": "6","userId": "36048863@N03","secret": "4bb91dff05","title": "","loc": {"type": "Point","coordinates": [103.85146,1.284134]}} 
{"id": "9379394418","server": "2843","farm": "3","userId": "36048863@N03","secret": "b17d4a6eee","title": "","loc": {"type": "Point","coordinates": [103.85217,1.283667]}} 
{"id": "9346161035","server": "3794","farm": "4","userId": "51489026@N02","secret": "ef34a51e19","title": "The Ocean from above","loc": {"type": "Point","coordinates": [103.85198,1.283115]}} 
{"id": "9330505525","server": "5327","farm": "6","userId": "59265565@N07","secret": "3b65f47e24","title": "Singapore Navy","loc": {"type": "Point","coordinates": [103.85378,1.283994]}} 
{"id": "9318174425","server": "3782","farm": "4","userId": "21997205@N00","secret": "0397238b5d","title": "The Swinging 2013s...","loc": {"type": "Point","coordinates": [103.85146,1.284134]}} 
{"id": "9305983829","server": "7353","farm": "8","userId": "11008075@N00","secret": "0a4612fc69","title": "All red-dy for yoga...","loc": {"type": "Point","coordinates": [103.85163,1.283478]}} 
{"id": "9300502716","server": "3766","farm": "4","userId": "91963736@N02","secret": "de21a7cf2b","title": "upload","loc": {"type": "Point","coordinates": [103.853355,1.283489]}} 
{"id": "9288516006","server": "3801","farm": "4","userId": "25530545@N04","secret": "74e88d82ce","title": "2013-06-26 at 11-28-58","loc": {"type": "Point","coordinates": [103.85067,1.281167]}} 
{"id": "9285739643","server": "7297","farm": "8","userId": "25530545@N04","secret": "ab11c6434a","title": "2013-06-26 at 11-29-01","loc": {"type": "Point","coordinates": [103.85067,1.281167]}} 
{"id": "9285736857","server": "2826","farm": "3","userId": "25530545@N04","secret": "ea9bffb3bf","title": "2013-06-26 at 11-27-30","loc": {"type": "Point","coordinates": [103.85067,1.281333]}} 
{"id": "9288518932","server": "7341","farm": "8","userId": "25530545@N04","secret": "a3c8e0b73a","title": "2013-06-26 at 11-38-29","loc": {"type": "Point","coordinates": [103.8505,1.2815]}} 
{"id": "9288518164","server": "3811","farm": "4","userId": "25530545@N04","secret": "1d4f0ef1bc","title": "2013-06-26 at 11-29-06","loc": {"type": "Point","coordinates": [103.85067,1.281167]}} 
{"id": "9286052952","server": "2840","farm": "3","userId": "66420192@N05","secret": "f6bdd05068","title": "IMG_2230","loc": {"type": "Point","coordinates": [103.85367,1.283499]}} 
{"id": "9286052974","server": "7395","farm": "8","userId": "66420192@N05","secret": "01c4663b55","title": "IMG_2229","loc": {"type": "Point","coordinates": [103.8535,1.283833]}} 
{"id": "9283274363","server": "7386","farm": "8","userId": "66420192@N05","secret": "9fd18fbd6e","title": "IMG_2228","loc": {"type": "Point","coordinates": [103.8535,1.283999]}} 
{"id": "9274845833","server": "3774","farm": "4","userId": "59265565@N07","secret": "324d9f6fa2","title": "NDP 2013 - NE Show 1 Fireworks","loc": {"type": "Point","coordinates": [103.85378,1.283994]}} 
{"id": "9274847875","server": "3756","farm": "4","userId": "59265565@N07","secret": "c1f8c997be","title": "NDP 2013 - NE Show 1 Fireworks","loc": {"type": "Point","coordinates": [103.85378,1.283994]}} 
{"id": "9277632470","server": "7294","farm": "8","userId": "59265565@N07","secret": "847f52c77a","title": "NDP 2013 - NE Show 1 Fireworks","loc": {"type": "Point","coordinates": [103.85378,1.283994]}} 
{"id": "9277633730","server": "3683","farm": "4","userId": "59265565@N07","secret": "669750acce","title": "NDP 2013 - NE Show 1 Fireworks","loc": {"type": "Point","coordinates": [103.85378,1.283994]}} 
{"id": "9274848581","server": "3773","farm": "4","userId": "59265565@N07","secret": "23aaeecab7","title": "NDP 2013 - NE Show 1 Fireworks","loc": {"type": "Point","coordinates": [103.85378,1.283994]}} 
{"id": "9274845167","server": "7299","farm": "8","userId": "59265565@N07","secret": "071378e2cd","title": "NDP 2013 - NE Show 1 Fireworks","loc": {"type": "Point","coordinates": [103.85378,1.283994]}} 
{"id": "9277634548","server": "5540","farm": "6","userId": "59265565@N07","secret": "afee02d521","title": "NDP 2013 - NE Show 1 Fireworks","loc": {"type": "Point","coordinates": [103.85378,1.283994]}} 
{"id": "9259369357","server": "3733","farm": "4","userId": "11008075@N00","secret": "c7047c9c1b","title": "More pre-yoga matchygram selfies for @maudester ... and yes hija, this is my fave spot in the studio room.","loc": {"type": "Point","coordinates": [103.85172,1.283249]}} 
{"id": "9249354138","server": "3714","farm": "4","userId": "11008075@N00","secret": "2a7aeb856a","title": "Pre-yoga matchygram fun with @maudester","loc": {"type": "Point","coordinates": [103.85172,1.283249]}} 
{"id": "9237304258","server": "3746","farm": "4","userId": "51489026@N02","secret": "7a21b48970","title": "Brothers and sisters","loc": {"type": "Point","coordinates": [103.853516,1.282547]}} 
{"id": "9212796577","server": "5469","farm": "6","userId": "51489026@N02","secret": "a70bd41c24","title": "The tree and the sunset","loc": {"type": "Point","coordinates": [103.84989,1.283492]}} 
{"id": "9201996308","server": "3805","farm": "4","userId": "41894167963@N01","secret": "98edc43211","title": "Spinach quiche & pasta salad","loc": {"type": "Point","coordinates": [103.848915,1.283237]}} 
{"id": "9175973186","server": "7371","farm": "8","userId": "58072194@N08","secret": "0b8455ea8a","title": "6_28B","loc": {"type": "Point","coordinates": [103.85,1.283666]}} 
{"id": "9168171162","server": "5336","farm": "6","userId": "98117121@N07","secret": "a4400ddbf2","title": "Captures from Singapore","loc": {"type": "Point","coordinates": [103.853,1.284166]}} 
{"id": "9165949021","server": "7336","farm": "8","userId": "98117121@N07","secret": "be068ee51d","title": "Captures from Singapore","loc": {"type": "Point","coordinates": [103.85333,1.283999]}} 
{"id": "9106462652","server": "3720","farm": "4","userId": "84069145@N00","secret": "75962e0546","title": "Haze situation in Singapore is getting from bad to worse","loc": {"type": "Point","coordinates": [103.85096,1.283038]}} 
{"id": "9097875593","server": "7454","farm": "8","userId": "42413074@N02","secret": "4a3726db74","title": "Friday fusbal in action...","loc": {"type": "Point","coordinates": [103.848946,1.282247]}} 
{"id": "9098617738","server": "7398","farm": "8","userId": "42413074@N02","secret": "5d0303b431","title": "even worse today.. psi 400...stay inside suckers....","loc": {"type": "Point","coordinates": [103.848946,1.282247]}} 
{"id": "9095087048","server": "7424","farm": "8","userId": "83981795@N08","secret": "b92e98c9e9","title": "20130613-DSCN5124.jpg","loc": {"type": "Point","coordinates": [103.84955,1.283447]}} 
{"id": "9092656266","server": "3775","farm": "4","userId": "11008075@N00","secret": "cfc882c611","title": "Avoiding the 310psi haze inside the yoga studio. Been remiss for 5 weeks, I've missed being on the mat. ☺","loc": {"type": "Point","coordinates": [103.851555,1.283118]}} 
{"id": "9090986878","server": "7380","farm": "8","userId": "42413074@N02","secret": "fe88a051db","title": "feel the difference","loc": {"type": "Point","coordinates": [103.848946,1.282247]}} 
{"id": "9090975882","server": "7357","farm": "8","userId": "42413074@N02","secret": "e178a57b3e","title": "this is crazy","loc": {"type": "Point","coordinates": [103.848946,1.282247]}} 
{"id": "9090834604","server": "5531","farm": "6","userId": "42413074@N02","secret": "d872d2d9c2","title": "horrible haze in Singapore","loc": {"type": "Point","coordinates": [103.848946,1.282247]}} 
{"id": "9080495139","server": "3695","farm": "4","userId": "89588429@N00","secret": "5c71e113a4","title": "Hazing","loc": {"type": "Point","coordinates": [103.852325,1.282535]}} 
{"id": "9080495921","server": "3715","farm": "4","userId": "89588429@N00","secret": "8b2ffec944","title": "Hazing","loc": {"type": "Point","coordinates": [103.852325,1.282535]}} 
{"id": "9080494819","server": "7440","farm": "8","userId": "89588429@N00","secret": "3fa54cb69d","title": "Hazing","loc": {"type": "Point","coordinates": [103.852325,1.282535]}} 
{"id": "9064334557","server": "7380","farm": "8","userId": "7815794@N08","secret": "b7848b889a","title": "In the Disneyland for Adults","loc": {"type": "Point","coordinates": [103.85078,1.283947]}} 
{"id": "9051867356","server": "7287","farm": "8","userId": "65778609@N03","secret": "af26ecc577","title": "Singapore River Boat Trip","loc": {"type": "Point","coordinates": [103.85376,1.284112]}} 
{"id": "9049110448","server": "3810","farm": "4","userId": "29049566@N07","secret": "d08d93ccdd","title": "Raffles Place","loc": {"type": "Point","coordinates": [103.85146,1.284134]}} 
{"id": "9049083700","server": "5327","farm": "6","userId": "29049566@N07","secret": "b64b451d65","title": "At the Playground","loc": {"type": "Point","coordinates": [103.85146,1.284134]}} 
{"id": "9045752893","server": "3753","farm": "4","userId": "93492589@N07","secret": "325ee31a62","title": "Singapore (My 29th) 7-10/06/13-2","loc": {"type": "Point","coordinates": [103.853836,1.283833]}} 
{"id": "9047977368","server": "5537","farm": "6","userId": "93492589@N07","secret": "20470e1ec3","title": "Singapore (My 29th) 7-10/06/13-1","loc": {"type": "Point","coordinates": [103.853836,1.283833]}} 
{"id": "9034878923","server": "3728","farm": "4","userId": "7131703@N03","secret": "6765b0a465","title": "IMG_2722","loc": {"type": "Point","coordinates": [103.852165,1.283499]}} 
{"id": "9034876441","server": "3767","farm": "4","userId": "7131703@N03","secret": "e14e3654bb","title": "IMG_2731","loc": {"type": "Point","coordinates": [103.85333,1.282333]}} 
{"id": "9037100916","server": "3817","farm": "4","userId": "7131703@N03","secret": "c7c6387a13","title": "IMG_2730","loc": {"type": "Point","coordinates": [103.85333,1.282]}} 
{"id": "9037101168","server": "3739","farm": "4","userId": "7131703@N03","secret": "d4b9a85d03","title": "IMG_2729","loc": {"type": "Point","coordinates": [103.853165,1.282166]}} 
{"id": "9034879167","server": "7290","farm": "8","userId": "7131703@N03","secret": "055c5ca0d9","title": "IMG_2721","loc": {"type": "Point","coordinates": [103.852165,1.283166]}} 
{"id": "9037082858","server": "3804","farm": "4","userId": "7131703@N03","secret": "6323edc615","title": "IMG_2724","loc": {"type": "Point","coordinates": [103.853,1.282833]}} 
{"id": "9037102712","server": "7350","farm": "8","userId": "7131703@N03","secret": "0935485db3","title": "IMG_2723","loc": {"type": "Point","coordinates": [103.853,1.283499]}} 
{"id": "9034878285","server": "7355","farm": "8","userId": "7131703@N03","secret": "e9ba55960c","title": "IMG_2725","loc": {"type": "Point","coordinates": [103.85267,1.282833]}} 
{"id": "9037101726","server": "7323","farm": "8","userId": "7131703@N03","secret": "a0fa327caa","title": "IMG_2727","loc": {"type": "Point","coordinates": [103.853165,1.282666]}} 
{"id": "9032241556","server": "7324","farm": "8","userId": "97412722@N04","secret": "15ba29dfe8","title": "","loc": {"type": "Point","coordinates": [103.84839,1.281569]}} 
{"id": "9015708390","server": "8259","farm": "9","userId": "91963736@N02","secret": "eb77625afc","title": "upload","loc": {"type": "Point","coordinates": [103.8525,1.283983]}} 
{"id": "9005949950","server": "7332","farm": "8","userId": "91963736@N02","secret": "e2faa5dbcd","title": "upload","loc": {"type": "Point","coordinates": [103.85182,1.284112]}} 
{"id": "8994775900","server": "2862","farm": "3","userId": "25718534@N05","secret": "7717be827a","title": "wp82_130605_066","loc": {"type": "Point","coordinates": [103.849594,1.281211]}} 
{"id": "8986628729","server": "2860","farm": "3","userId": "60428944@N00","secret": "5148ed0743","title": "'Name that tune!'","loc": {"type": "Point","coordinates": [103.8536,1.283891]}} 
{"id": "8985851117","server": "3771","farm": "4","userId": "63073819@N00","secret": "81c2176fa6","title": "Singapore Satay","loc": {"type": "Point","coordinates": [103.85133,1.281333]}} 
{"id": "8969904909","server": "8277","farm": "9","userId": "80012693@N00","secret": "34dd4cb1e3","title": "Smile, you're being filmed.","loc": {"type": "Point","coordinates": [103.85146,1.284134]}} 
{"id": "8949277494","server": "3759","farm": "4","userId": "8090130@N03","secret": "14fea01e39","title": "Butts","loc": {"type": "Point","coordinates": [103.85048,1.283788]}} 
{"id": "8948037996","server": "5462","farm": "6","userId": "7131703@N03","secret": "376bcd1490","title": "2013-01-03 07-12-36","loc": {"type": "Point","coordinates": [103.8535,1.281499]}} 
{"id": "8948038758","server": "2812","farm": "3","userId": "7131703@N03","secret": "211c317b3f","title": "2013-01-03 07-12-08","loc": {"type": "Point","coordinates": [103.8535,1.281499]}} 
{"id": "8947414657","server": "7354","farm": "8","userId": "7131703@N03","secret": "93342d58af","title": "2013-01-03 07-09-36","loc": {"type": "Point","coordinates": [103.853,1.282]}} 
{"id": "8948038100","server": "7318","farm": "8","userId": "7131703@N03","secret": "ec2756b94b","title": "2013-01-03 07-12-28","loc": {"type": "Point","coordinates": [103.8535,1.281499]}} 
{"id": "8947397165","server": "7309","farm": "8","userId": "7131703@N03","secret": "8acceb878a","title": "2013-01-03 06-59-25","loc": {"type": "Point","coordinates": [103.853,1.281833]}} 
{"id": "8948038406","server": "7454","farm": "8","userId": "7131703@N03","secret": "be8c8ec583","title": "2013-01-03 07-12-27","loc": {"type": "Point","coordinates": [103.8535,1.281499]}} 
{"id": "8948039568","server": "7388","farm": "8","userId": "7131703@N03","secret": "32da8054d6","title": "2013-01-03 07-09-31 (2)","loc": {"type": "Point","coordinates": [103.853,1.282]}} 
{"id": "8947414893","server": "7361","farm": "8","userId": "7131703@N03","secret": "d1c3c4e4b9","title": "2013-01-03 07-09-35","loc": {"type": "Point","coordinates": [103.853,1.282]}} 
{"id": "8948038488","server": "2849","farm": "3","userId": "7131703@N03","secret": "f875ed1c9f","title": "2013-01-03 07-12-15","loc": {"type": "Point","coordinates": [103.8535,1.281499]}} 
{"id": "8947414903","server": "5442","farm": "6","userId": "7131703@N03","secret": "36879166c3","title": "2013-01-03 07-09-31","loc": {"type": "Point","coordinates": [103.853,1.282]}} 
{"id": "8947414889","server": "5340","farm": "6","userId": "7131703@N03","secret": "613884888d","title": "2013-01-03 07-09-32","loc": {"type": "Point","coordinates": [103.853,1.282166]}} 
{"id": "8948039850","server": "8135","farm": "9","userId": "7131703@N03","secret": "3709740633","title": "2013-01-03 06-59-18","loc": {"type": "Point","coordinates": [103.85284,1.282166]}} 
{"id": "8935238746","server": "7402","farm": "8","userId": "96851071@N02","secret": "00636c9779","title": "2013-03-16 17.48.43","loc": {"type": "Point","coordinates": [103.8535,1.281431]}} 
{"id": "8935252710","server": "8409","farm": "9","userId": "96851071@N02","secret": "1ea13bf5c3","title": "IMG_1953","loc": {"type": "Point","coordinates": [103.85196,1.282889]}} 
{"id": "8922921917","server": "3707","farm": "4","userId": "27193031@N05","secret": "6615f35a65","title": "IMG_0451","loc": {"type": "Point","coordinates": [103.85178,1.282975]}} 
{"id": "8910867344","server": "3827","farm": "4","userId": "29049566@N07","secret": "29c7767845","title": "Swing","loc": {"type": "Point","coordinates": [103.85146,1.284134]}} 
{"id": "8909769688","server": "5340","farm": "6","userId": "28261482@N05","secret": "c0f6c97837","title": "No humping a motorbike!! #humping #no #motorbike #carpark","loc": {"type": "Point","coordinates": [103.85187,1.282202]}} 
{"id": "8908023316","server": "3720","farm": "4","userId": "81871661@N00","secret": "6ff427d919","title": "#angelhack# cool! very nice venue","loc": {"type": "Point","coordinates": [103.8526,1.282224]}} 
{"id": "8888139257","server": "8402","farm": "9","userId": "20973095@N06","secret": "f3d8367eaf","title": "","loc": {"type": "Point","coordinates": [103.85302,1.281813]}} 
{"id": "8888740810","server": "7460","farm": "8","userId": "20973095@N06","secret": "b972bed841","title": "","loc": {"type": "Point","coordinates": [103.85302,1.281813]}} 
{"id": "8888745338","server": "3727","farm": "4","userId": "20973095@N06","secret": "a99a7e8fd3","title": "","loc": {"type": "Point","coordinates": [103.85302,1.281813]}} 
{"id": "8888121425","server": "3681","farm": "4","userId": "20973095@N06","secret": "3d61a4e70d","title": "","loc": {"type": "Point","coordinates": [103.85302,1.281813]}} 
{"id": "8888102209","server": "7408","farm": "8","userId": "20973095@N06","secret": "fbf63e9411","title": "Chipped","loc": {"type": "Point","coordinates": [103.852936,1.283169]}} 
{"id": "8877031403","server": "8258","farm": "9","userId": "65611342@N00","secret": "9e793829f8","title": "trip asia 2012","loc": {"type": "Point","coordinates": [103.85342,1.28186]}} 
{"id": "8850706969","server": "7298","farm": "8","userId": "33938770@N05","secret": "c85ba54a76","title": "Fountains, Marina Bay Sands at Night, Singapore","loc": {"type": "Point","coordinates": [103.8535,1.284166]}} 
{"id": "8846714827","server": "3751","farm": "4","userId": "94798923@N05","secret": "42ff1e7bdf","title": "Singapore","loc": {"type": "Point","coordinates": [103.851166,1.282833]}} 
{"id": "8846728511","server": "7417","farm": "8","userId": "94798923@N05","secret": "97bd918779","title": "Singapore","loc": {"type": "Point","coordinates": [103.852,1.2825]}} 
{"id": "8838091497","server": "7334","farm": "8","userId": "60706658@N06","secret": "e8ea2b2e39","title": "","loc": {"type": "Point","coordinates": [103.85267,1.281166]}} 
{"id": "8812548904","server": "5336","farm": "6","userId": "30436867@N00","secret": "66c61432f5","title": "Korean BBQ","loc": {"type": "Point","coordinates": [103.84834,1.281915]}} 
{"id": "8781373506","server": "8557","farm": "9","userId": "37131708@N07","secret": "a19afebbdc","title": "upload","loc": {"type": "Point","coordinates": [103.85146,1.284134]}} 
{"id": "8772694749","server": "8271","farm": "9","userId": "85522272@N06","secret": "c58cde1a1c","title": "upload","loc": {"type": "Point","coordinates": [103.85263,1.284125]}} 
{"id": "8772595659","server": "3714","farm": "4","userId": "85522272@N06","secret": "c64ba1d2d4","title": "upload","loc": {"type": "Point","coordinates": [103.85263,1.284125]}} 
{"id": "8779150040","server": "8549","farm": "9","userId": "85522272@N06","secret": "8943171eab","title": "upload","loc": {"type": "Point","coordinates": [103.85263,1.284125]}} 
{"id": "8779188942","server": "8548","farm": "9","userId": "85522272@N06","secret": "caca5da7b1","title": "Blueberry bagel","loc": {"type": "Point","coordinates": [103.85263,1.284125]}} 
{"id": "8757240539","server": "7326","farm": "8","userId": "37147643@N02","secret": "6a2ab1344e","title": "20May2013","loc": {"type": "Point","coordinates": [103.84879,1.282222]}} 
{"id": "8748919975","server": "5452","farm": "6","userId": "76684964@N05","secret": "64d333a8c5","title": "","loc": {"type": "Point","coordinates": [103.8526,1.282224]}} 
{"id": "8749924930","server": "7330","farm": "8","userId": "32274859@N06","secret": "fb42cec7c8","title": "The Marina Bay Sands and the Singapore Flyer","loc": {"type": "Point","coordinates": [103.85376,1.282868]}} 
{"id": "8744932996","server": "7294","farm": "8","userId": "11008075@N00","secret": "aa3fdeab33","title": "Yogi thoughts","loc": {"type": "Point","coordinates": [103.85141,1.283199]}} 
{"id": "8722372713","server": "7336","farm": "8","userId": "51489026@N02","secret": "ffe9a711a7","title": "Sunrise inside a plane","loc": {"type": "Point","coordinates": [103.85044,1.283652]}} 
{"id": "8722966866","server": "7293","farm": "8","userId": "95590986@N08","secret": "b61f003cb7","title": "Singapore","loc": {"type": "Point","coordinates": [103.853,1.281833]}} 
{"id": "8722128990","server": "7296","farm": "8","userId": "19282426@N00","secret": "aa5c9fbe7b","title": "Breakfast set","loc": {"type": "Point","coordinates": [103.848915,1.283237]}} 
{"id": "8719261283","server": "7424","farm": "8","userId": "8857720@N08","secret": "ecdee76778","title": "At the coffee shop - Singapore","loc": {"type": "Point","coordinates": [103.85029,1.283389]}} 
{"id": "8716248449","server": "7322","farm": "8","userId": "11008075@N00","secret": "73320494f5","title": "Yoga hair - bun all neat and nice at the start but by the end of class... yikes!","loc": {"type": "Point","coordinates": [103.85141,1.283199]}} 
{"id": "8709512395","server": "8278","farm": "9","userId": "37147643@N02","secret": "ae9da57eb6","title": "5May2013","loc": {"type": "Point","coordinates": [103.85054,1.282997]}} 
{"id": "8700759062","server": "8120","farm": "9","userId": "96978478@N00","secret": "2118ba71f2","title": "#instaplace #instaplaceapp #instagood #photooftheday #instamood #picoftheday #instadaily #photo #instacool #instapic #picture #pic @instaplacemobi #place #earth #world  #singapore #SG #singapore #jonkersnyonyadeli #food #foodporn #restaurant #street #day","loc": {"type": "Point","coordinates": [103.85178,1.282776]}} 
{"id": "8693331118","server": "8256","farm": "9","userId": "95165424@N08","secret": "fff796cf1d","title": "Raffles place","loc": {"type": "Point","coordinates": [103.85186,1.284155]}} 
{"id": "8692073017","server": "8266","farm": "9","userId": "90402353@N06","secret": "8bd87684f1","title": "MBS Light Show 2","loc": {"type": "Point","coordinates": [103.85297,1.281956]}} 
{"id": "8688406582","server": "7044","farm": "8","userId": "90402353@N06","secret": "b064128bf1","title": "IMG_4446","loc": {"type": "Point","coordinates": [103.85297,1.281956]}} 
{"id": "8687434591","server": "7045","farm": "8","userId": "90402353@N06","secret": "2d6c16dc16","title": "IMG_4483","loc": {"type": "Point","coordinates": [103.85297,1.281956]}} 
{"id": "8687450903","server": "7050","farm": "8","userId": "90402353@N06","secret": "935c95bb54","title": "IMG_4471","loc": {"type": "Point","coordinates": [103.85297,1.281956]}} 
{"id": "8687280741","server": "7055","farm": "8","userId": "90402353@N06","secret": "890cd7e573","title": "IMG_4462","loc": {"type": "Point","coordinates": [103.85297,1.281956]}} 
{"id": "8684443429","server": "8521","farm": "9","userId": "92982109@N00","secret": "8ea9eb4b6d","title": "Oasis in the city","loc": {"type": "Point","coordinates": [103.85146,1.284134]}} 
{"id": "8684201319","server": "8265","farm": "9","userId": "98544088@N00","secret": "0761ace1a3","title": "老巴剎 (Lau Pa Sat)","loc": {"type": "Point","coordinates": [103.85017,1.281166]}} 
{"id": "8684628148","server": "8526","farm": "9","userId": "95256604@N07","secret": "5e9b1cf4ab","title": "Singapore","loc": {"type": "Point","coordinates": [103.84966,1.284069]}} 
{"id": "8681157326","server": "8117","farm": "9","userId": "37147643@N02","secret": "f5dff681b0","title": "25Apr2013s","loc": {"type": "Point","coordinates": [103.85243,1.283147]}} 
{"id": "8677018279","server": "8263","farm": "9","userId": "35758174@N00","secret": "b3bfd5e94e","title": "Glimmering Heights","loc": {"type": "Point","coordinates": [103.853096,1.281427]}} 
{"id": "8667448837","server": "8522","farm": "9","userId": "98544088@N00","secret": "6be51d1bff","title": "2013-04-11 18.01.47","loc": {"type": "Point","coordinates": [103.85367,1.282166]}} 
{"id": "8667050975","server": "8542","farm": "9","userId": "35518360@N00","secret": "faa095465f","title": "Extreme Sailing Series Singapore 2013","loc": {"type": "Point","coordinates": [103.85363,1.283265]}} 
{"id": "8668153856","server": "8533","farm": "9","userId": "35518360@N00","secret": "2ae8eb6e06","title": "Extreme Sailing Series Singapore 2013","loc": {"type": "Point","coordinates": [103.85363,1.283265]}} 
{"id": "8668154048","server": "8543","farm": "9","userId": "35518360@N00","secret": "d76fd046c3","title": "Extreme Sailing Series Singapore 2013","loc": {"type": "Point","coordinates": [103.85363,1.283265]}} 
{"id": "8668153886","server": "8535","farm": "9","userId": "35518360@N00","secret": "051892d1ed","title": "Extreme Sailing Series Singapore 2013","loc": {"type": "Point","coordinates": [103.85363,1.283265]}} 
{"id": "8668153928","server": "8538","farm": "9","userId": "35518360@N00","secret": "1b6e4e7076","title": "Extreme Sailing Series Singapore 2013","loc": {"type": "Point","coordinates": [103.85363,1.283265]}} 
{"id": "8668153926","server": "8522","farm": "9","userId": "35518360@N00","secret": "483b229027","title": "Extreme Sailing Series Singapore 2013","loc": {"type": "Point","coordinates": [103.85363,1.283265]}} 
{"id": "8667050953","server": "8519","farm": "9","userId": "35518360@N00","secret": "17623dc4f5","title": "Extreme Sailing Series Singapore 2013","loc": {"type": "Point","coordinates": [103.85363,1.283265]}} 
{"id": "8667051055","server": "8525","farm": "9","userId": "35518360@N00","secret": "dcc005eba4","title": "Extreme Sailing Series Singapore 2013","loc": {"type": "Point","coordinates": [103.85363,1.283265]}} 
{"id": "8667928844","server": "8532","farm": "9","userId": "34865466@N05","secret": "f52d668b50","title": "Skyline of Singapore","loc": {"type": "Point","coordinates": [103.853836,1.284166]}} 
{"id": "8665937842","server": "8254","farm": "9","userId": "32980384@N05","secret": "cc8892a4dd","title": "_DSC6110","loc": {"type": "Point","coordinates": [103.850044,1.282452]}} 
{"id": "8664007453","server": "8249","farm": "9","userId": "93969327@N07","secret": "83fbd23901","title": "Gangnam Style!","loc": {"type": "Point","coordinates": [103.85366,1.283919]}} 
{"id": "8661573967","server": "8260","farm": "9","userId": "87177626@N05","secret": "51d309c1bd","title": "Glass, steel and marble (1)","loc": {"type": "Point","coordinates": [103.851074,1.28276]}} 
{"id": "8662672240","server": "8259","farm": "9","userId": "87177626@N05","secret": "9c49853e7a","title": "Glass, steel and marble (2)","loc": {"type": "Point","coordinates": [103.85224,1.282138]}} 
{"id": "8661575159","server": "8243","farm": "9","userId": "87177626@N05","secret": "e3c13eb1e5","title": "Glass, steel and marble (4)","loc": {"type": "Point","coordinates": [103.85119,1.283274]}} 
{"id": "8654680851","server": "8125","farm": "9","userId": "47074724@N02","secret": "ceaeb98181","title": "marina bay at night","loc": {"type": "Point","coordinates": [103.853004,1.281302]}} 
{"id": "8653959685","server": "8104","farm": "9","userId": "11008075@N00","secret": "7b95474534","title": "Early to class so there's time for some matchygram fun with @maudester","loc": {"type": "Point","coordinates": [103.85169,1.283322]}} 
{"id": "8643983165","server": "8396","farm": "9","userId": "37305800@N00","secret": "ffaeea5d8c","title": "Playsets of Yesteryears - Raffles Place Park 19","loc": {"type": "Point","coordinates": [103.851,1.283999]}} 
{"id": "8645079368","server": "8535","farm": "9","userId": "37305800@N00","secret": "67f8914e46","title": "Playsets of Yesteryears - Raffles Place Park 22","loc": {"type": "Point","coordinates": [103.8515,1.283833]}} 
{"id": "8645081102","server": "8264","farm": "9","userId": "37305800@N00","secret": "cf1e513b2c","title": "Playsets of Yesteryears - Raffles Place Park 13","loc": {"type": "Point","coordinates": [103.8515,1.284166]}} 
{"id": "8645080744","server": "8400","farm": "9","userId": "37305800@N00","secret": "0aec0f57b6","title": "Playsets of Yesteryears - Raffles Place Park 15","loc": {"type": "Point","coordinates": [103.8515,1.284166]}} 
{"id": "8643986007","server": "8538","farm": "9","userId": "37305800@N00","secret": "9a847619d3","title": "Playsets of Yesteryears - Raffles Place Park 2","loc": {"type": "Point","coordinates": [103.85167,1.283999]}} 
{"id": "8645082006","server": "8527","farm": "9","userId": "37305800@N00","secret": "ceb5383797","title": "Playsets of Yesteryears - Raffles Place Park 6","loc": {"type": "Point","coordinates": [103.851166,1.284166]}} 
{"id": "8643984181","server": "8117","farm": "9","userId": "37305800@N00","secret": "c975aac646","title": "Playsets of Yesteryears - Raffles Place Park 14","loc": {"type": "Point","coordinates": [103.8515,1.284166]}} 
{"id": "8643983349","server": "8520","farm": "9","userId": "37305800@N00","secret": "b093239b55","title": "Playsets of Yesteryears - Raffles Place Park 18","loc": {"type": "Point","coordinates": [103.851,1.283833]}} 
{"id": "8643374667","server": "8112","farm": "9","userId": "23299658@N05","secret": "8aab360af4","title": "Singapore by night","loc": {"type": "Point","coordinates": [103.853676,1.282417]}} 
{"id": "8643340837","server": "8242","farm": "9","userId": "23299658@N05","secret": "e04af2bf9a","title": "Singapore skyline","loc": {"type": "Point","coordinates": [103.853714,1.282653]}} 
{"id": "8643994186","server": "8546","farm": "9","userId": "87572988@N07","secret": "51cdafc80a","title": "IMG_2776.JPG","loc": {"type": "Point","coordinates": [103.853,1.282]}} 
{"id": "8642785688","server": "8112","farm": "9","userId": "23299658@N05","secret": "d8951a865b","title": "Singapore skyline","loc": {"type": "Point","coordinates": [103.853714,1.282653]}} 
{"id": "8642785530","server": "8249","farm": "9","userId": "23299658@N05","secret": "0496e6e521","title": "Singapore skyline","loc": {"type": "Point","coordinates": [103.853714,1.282653]}} 
{"id": "8641685593","server": "8249","farm": "9","userId": "23299658@N05","secret": "1469053c97","title": "Singapore skyline","loc": {"type": "Point","coordinates": [103.853714,1.282653]}} 
{"id": "8640576030","server": "8396","farm": "9","userId": "11008075@N00","secret": "609eae9a66","title": "Here's an easy #matchygram @maudester - the classic black crops","loc": {"type": "Point","coordinates": [103.85146,1.284134]}} 
{"id": "8624886074","server": "8106","farm": "9","userId": "64428668@N02","secret": "9f00fd84ff","title": "upload","loc": {"type": "Point","coordinates": [103.853714,1.283887]}} 
{"id": "8623817954","server": "8107","farm": "9","userId": "57583820@N00","secret": "5182a274f9","title": "IMAG3991","loc": {"type": "Point","coordinates": [103.85366,1.284144]}} 
{"id": "8622711199","server": "8536","farm": "9","userId": "57583820@N00","secret": "03cfe92ab7","title": "IMAG3990","loc": {"type": "Point","coordinates": [103.85368,1.284091]}} 
{"id": "8612216261","server": "8126","farm": "9","userId": "11008075@N00","secret": "a86f558e77","title": "Pinstriped matchygram with @maudester ... finally!","loc": {"type": "Point","coordinates": [103.85169,1.283322]}} 
{"id": "8601368583","server": "8125","farm": "9","userId": "80217014@N00","secret": "2077136996","title": "Resting and reading","loc": {"type": "Point","coordinates": [103.85245,1.284185]}} 
{"id": "8584858274","server": "8091","farm": "9","userId": "76684964@N05","secret": "96598a4cfa","title": "","loc": {"type": "Point","coordinates": [103.8521,1.28187]}} 
{"id": "8584401646","server": "8530","farm": "9","userId": "74822983@N02","secret": "50b061b80a","title": "Singapore financial district 2013-03-19 (IMG_2615_6_7)","loc": {"type": "Point","coordinates": [103.85279,1.281944]}} 
{"id": "8582095469","server": "8251","farm": "9","userId": "94295007@N02","secret": "c9c8c7277b","title": "MBS safe shot","loc": {"type": "Point","coordinates": [103.85377,1.283007]}} 
{"id": "8578584667","server": "8240","farm": "9","userId": "51489026@N02","secret": "b07bdf406e","title": "Night workers","loc": {"type": "Point","coordinates": [103.851036,1.282922]}} 
{"id": "8578779748","server": "8374","farm": "9","userId": "61227842@N00","secret": "3ed34254e1","title": "Singapore","loc": {"type": "Point","coordinates": [103.85082,1.283726]}} 
{"id": "8577651566","server": "8111","farm": "9","userId": "19282426@N00","secret": "a65de038fc","title": "Lava cake","loc": {"type": "Point","coordinates": [103.849144,1.28327]}} 
{"id": "8575813973","server": "8377","farm": "9","userId": "42413074@N02","secret": "1fef228462","title": "upload","loc": {"type": "Point","coordinates": [103.84872,1.281986]}} 
{"id": "8576912428","server": "8110","farm": "9","userId": "42413074@N02","secret": "7a687a15d4","title": "upload","loc": {"type": "Point","coordinates": [103.84872,1.281986]}} 
{"id": "8571311982","server": "8097","farm": "9","userId": "11008075@N00","secret": "1183f3e8be","title": "Tacos FTW! ❤","loc": {"type": "Point","coordinates": [103.84883,1.282282]}} 
{"id": "8560398991","server": "8518","farm": "9","userId": "84779688@N02","secret": "bf0047d4d8","title": "True Blue","loc": {"type": "Point","coordinates": [103.8535,1.282729]}} 
{"id": "8538881593","server": "8365","farm": "9","userId": "61108263@N00","secret": "7f385552c7","title": "Momentum","loc": {"type": "Point","coordinates": [103.851974,1.28231]}} 
{"id": "8508074089","server": "8089","farm": "9","userId": "73138120@N08","secret": "a935ffe5e2","title": "My visit to Microsoft Center, Singapore.","loc": {"type": "Point","coordinates": [103.8526,1.282225]}} 
{"id": "8494453915","server": "8524","farm": "9","userId": "19109134@N00","secret": "cc3f691298","title": "Capturing the Moment","loc": {"type": "Point","coordinates": [103.853584,1.282696]}} 
{"id": "8494418857","server": "8248","farm": "9","userId": "19109134@N00","secret": "824bc1a2d7","title": "NYE Bokeh","loc": {"type": "Point","coordinates": [103.853584,1.282686]}} 
{"id": "8484662237","server": "8252","farm": "9","userId": "37147643@N02","secret": "32928beeb3","title": "18Feb2013","loc": {"type": "Point","coordinates": [103.848526,1.282353]}} 
{"id": "8457738949","server": "8098","farm": "9","userId": "23215539@N04","secret": "f73b8405d0","title": "begrünte Häuser","loc": {"type": "Point","coordinates": [103.853584,1.282482]}} 
{"id": "8457417333","server": "8090","farm": "9","userId": "39149891@N02","secret": "f6acfa7336","title": "Singapore / Fullerton Pavilion","loc": {"type": "Point","coordinates": [103.85312,1.283619]}} 
{"id": "8452409716","server": "8236","farm": "9","userId": "47291429@N04","secret": "8c590e6a33","title": "Cityscape::Marina Bay (Singapore)","loc": {"type": "Point","coordinates": [103.85361,1.283307]}} 
{"id": "8438628802","server": "8513","farm": "9","userId": "52103737@N06","secret": "15babf8247","title": "Singapore Financial District(2)","loc": {"type": "Point","coordinates": [103.85209,1.281474]}} 
{"id": "8435487272","server": "8231","farm": "9","userId": "63470540@N04","secret": "14f3ebff0a","title": "SG-92240","loc": {"type": "Point","coordinates": [103.850006,1.283297]}} 
{"id": "8420307340","server": "8226","farm": "9","userId": "96289040@N00","secret": "87aba5d234","title": "IMG_2578.jpg","loc": {"type": "Point","coordinates": [103.85265,1.28231]}} 
{"id": "8419187511","server": "8474","farm": "9","userId": "96289040@N00","secret": "89b9997a7f","title": "IMG_2579.jpg","loc": {"type": "Point","coordinates": [103.85265,1.28231]}} 
{"id": "8419185187","server": "8355","farm": "9","userId": "96289040@N00","secret": "d130a1a051","title": "IMG_2576.jpg","loc": {"type": "Point","coordinates": [103.85265,1.28231]}} 
{"id": "8419189301","server": "8217","farm": "9","userId": "96289040@N00","secret": "01fabbc75a","title": "IMG_2583.jpg","loc": {"type": "Point","coordinates": [103.85265,1.28231]}} 
{"id": "8420291732","server": "8079","farm": "9","userId": "96289040@N00","secret": "df21b799b4","title": "IMG_2594.jpg","loc": {"type": "Point","coordinates": [103.85265,1.28231]}} 
{"id": "8419194081","server": "8238","farm": "9","userId": "96289040@N00","secret": "ffc55045d2","title": "IMG_2599.jpg","loc": {"type": "Point","coordinates": [103.85265,1.28231]}} 
{"id": "8420283360","server": "8323","farm": "9","userId": "96289040@N00","secret": "ed9dab48b4","title": "IMG_2574.jpg","loc": {"type": "Point","coordinates": [103.85265,1.28231]}} 
{"id": "8420287624","server": "8222","farm": "9","userId": "96289040@N00","secret": "378a264589","title": "IMG_2582.jpg","loc": {"type": "Point","coordinates": [103.85265,1.28231]}} 
{"id": "8418601534","server": "8214","farm": "9","userId": "99696178@N00","secret": "8c9003afa0","title": "Breakfast #getsocial @drumdeadcrazy","loc": {"type": "Point","coordinates": [103.8526,1.282224]}} 
{"id": "8418571396","server": "8353","farm": "9","userId": "99696178@N00","secret": "e12a655349","title": "Early will I rise and worship you #mbs #sunrise #singapore #marinabaysands","loc": {"type": "Point","coordinates": [103.8526,1.282224]}} 
{"id": "8417474795","server": "8360","farm": "9","userId": "99696178@N00","secret": "df2d60623e","title": "Good #morning ladies and gentlemen. #singapore #clouds #sky","loc": {"type": "Point","coordinates": [103.8526,1.282224]}} 
{"id": "8416832661","server": "8502","farm": "9","userId": "51035566865@N01","secret": "4b104946ca","title": "Mobile photo workshop","loc": {"type": "Point","coordinates": [103.853165,1.282333]}} 
{"id": "8416079915","server": "8192","farm": "9","userId": "46275416@N04","secret": "b2c80648e4","title": "Marina Bay Singapore","loc": {"type": "Point","coordinates": [103.8526,1.281243]}} 
{"id": "8393453655","server": "8045","farm": "9","userId": "37147643@N02","secret": "2d5a392ae3","title": "19Jan2013","loc": {"type": "Point","coordinates": [103.852646,1.281323]}} 
{"id": "8388720283","server": "8086","farm": "9","userId": "37147643@N02","secret": "d5145eae54","title": "17Jan2013","loc": {"type": "Point","coordinates": [103.85204,1.283597]}} 
{"id": "8385669787","server": "8214","farm": "9","userId": "37147643@N02","secret": "4ecfb37982","title": "16Jan2013s","loc": {"type": "Point","coordinates": [103.84874,1.282739]}} 
{"id": "8369279115","server": "8055","farm": "9","userId": "37147643@N02","secret": "e99e422929","title": "11Jan2013s","loc": {"type": "Point","coordinates": [103.85249,1.283404]}} 
{"id": "8331217374","server": "8352","farm": "9","userId": "97377582@N00","secret": "79381089d9","title": "Firework @ Marina","loc": {"type": "Point","coordinates": [103.853165,1.281833]}} 
{"id": "8331218922","server": "8499","farm": "9","userId": "97377582@N00","secret": "267b4fbc80","title": "Firework @ Marina","loc": {"type": "Point","coordinates": [103.853165,1.281833]}} 
{"id": "8331216290","server": "8364","farm": "9","userId": "97377582@N00","secret": "78cc5370ae","title": "Firework @ Marina","loc": {"type": "Point","coordinates": [103.853165,1.281833]}} 
{"id": "8331215708","server": "8362","farm": "9","userId": "97377582@N00","secret": "d9a79d5b50","title": "Firework @ Marina","loc": {"type": "Point","coordinates": [103.853,1.282333]}} 
{"id": "8330162833","server": "8216","farm": "9","userId": "97377582@N00","secret": "03f6bc624a","title": "Firework @ Marina","loc": {"type": "Point","coordinates": [103.853,1.281833]}} 
{"id": "8331180060","server": "8359","farm": "9","userId": "97377582@N00","secret": "00caa192e2","title": "Happy New Year, 2013","loc": {"type": "Point","coordinates": [103.85333,1.282]}} 
{"id": "8331179088","server": "8082","farm": "9","userId": "97377582@N00","secret": "518b8ed17d","title": "Happy New Year, 2013","loc": {"type": "Point","coordinates": [103.853,1.282166]}} 
{"id": "8323485347","server": "8084","farm": "9","userId": "67370375@N02","secret": "6f7e88eafb","title": "The Lion City #lion #singapore #hotel #fullerton #bank #maybank #slowshutter #photooftheday #photoofthemonth #merlion #urban #water","loc": {"type": "Point","coordinates": [103.85353,1.284173]}} 
{"id": "8314511576","server": "8494","farm": "9","userId": "47291429@N04","secret": "f653b0bf1f","title": "<HDR> The Thinker","loc": {"type": "Point","coordinates": [103.85315,1.283276]}} 
{"id": "8310480529","server": "8080","farm": "9","userId": "30146190@N03","secret": "b096ed6a24","title": "In a ball","loc": {"type": "Point","coordinates": [103.85131,1.283211]}} 
{"id": "8306486017","server": "8356","farm": "9","userId": "33913541@N08","secret": "d364d161cd","title": "Day 353 - Stormy Singapore","loc": {"type": "Point","coordinates": [103.85185,1.283082]}} 
{"id": "8298039557","server": "8074","farm": "9","userId": "19109134@N00","secret": "452e72cd62","title": "Chilling","loc": {"type": "Point","coordinates": [103.85352,1.282664]}} 
{"id": "8289312931","server": "8217","farm": "9","userId": "82079927@N00","secret": "55015a8776","title": "Architecture at 55 market street","loc": {"type": "Point","coordinates": [103.85066,1.283999]}} 
{"id": "8288071352","server": "8340","farm": "9","userId": "29693607@N00","secret": "6c98fbec9d","title": "The Ascott, previously the Asia Insurance Building","loc": {"type": "Point","coordinates": [103.8526,1.282224]}} 
{"id": "8273248727","server": "8359","farm": "9","userId": "19282426@N00","secret": "a7a86c7718","title": "Macha ice cream","loc": {"type": "Point","coordinates": [103.84858,1.283732]}} 
{"id": "8273236211","server": "8219","farm": "9","userId": "19282426@N00","secret": "ed39b6357d","title": "Nabeyaki udon","loc": {"type": "Point","coordinates": [103.84858,1.283732]}} 
{"id": "8270707756","server": "8069","farm": "9","userId": "86310994@N02","secret": "731f02f1da","title": "BULL...","loc": {"type": "Point","coordinates": [103.85307,1.282611]}} 
{"id": "8269532449","server": "8499","farm": "9","userId": "86310994@N02","secret": "b80f011dd5","title": "CBD","loc": {"type": "Point","coordinates": [103.85202,1.28216]}} 
{"id": "8265984094","server": "8479","farm": "9","userId": "7668276@N05","secret": "e439fc3a41","title": "The Ascott - The Residence","loc": {"type": "Point","coordinates": [103.85187,1.282096]}} 
{"id": "8243841401","server": "8479","farm": "9","userId": "38473077@N08","secret": "b5e8cdb4cc","title": "Look Up","loc": {"type": "Point","coordinates": [103.85188,1.28193]}} 
{"id": "8227266218","server": "8338","farm": "9","userId": "56710139@N02","secret": "56ac1095a1","title": "Coca-Cola truck in Singapore","loc": {"type": "Point","coordinates": [103.851326,1.283705]}} 
{"id": "8560840257","server": "8518","farm": "9","userId": "29049566@N07","secret": "fef17530aa","title": "Us","loc": {"type": "Point","coordinates": [103.851036,1.282922]}} 
{"id": "8551925408","server": "8377","farm": "9","userId": "19883623@N00","secret": "ef707b44b0","title": "View from the top","loc": {"type": "Point","coordinates": [103.850586,1.281986]}} 
{"id": "8549820023","server": "8241","farm": "9","userId": "51489026@N02","secret": "9ae1f97501","title": "The man who sold the world","loc": {"type": "Point","coordinates": [103.85154,1.283914]}} 
{"id": "8543361789","server": "8227","farm": "9","userId": "74980912@N08","secret": "9dbe29d4cf","title": "","loc": {"type": "Point","coordinates": [103.85308,1.281412]}} 
{"id": "8540551497","server": "8097","farm": "9","userId": "29049566@N07","secret": "6ae3573d9b","title": "Coffee Break","loc": {"type": "Point","coordinates": [103.85086,1.283715]}} 
{"id": "8538962601","server": "8100","farm": "9","userId": "61108263@N00","secret": "80ab1c2354","title": "Danger - Keep Out!","loc": {"type": "Point","coordinates": [103.85316,1.281795]}} 
{"id": "8539306058","server": "8381","farm": "9","userId": "7195567@N07","secret": "12816f1a74","title": "Singapore 2011","loc": {"type": "Point","coordinates": [103.8484,1.282502]}} 
{"id": "8539306468","server": "8506","farm": "9","userId": "7195567@N07","secret": "a26d7d1f40","title": "Singapore 2011","loc": {"type": "Point","coordinates": [103.85134,1.281436]}} 
{"id": "8539306180","server": "8240","farm": "9","userId": "7195567@N07","secret": "7652a951e6","title": "Singapore 2011","loc": {"type": "Point","coordinates": [103.85275,1.281891]}} 
{"id": "8535921487","server": "8088","farm": "9","userId": "61108263@N00","secret": "3723c85bd0","title": "Bus","loc": {"type": "Point","coordinates": [103.851524,1.281216]}} 
{"id": "8537026178","server": "8249","farm": "9","userId": "61108263@N00","secret": "19bb4f546c","title": "Workday briefing","loc": {"type": "Point","coordinates": [103.848976,1.283082]}} 
{"id": "8536693520","server": "8226","farm": "9","userId": "11008075@N00","secret": "89336e5f43","title": "'Tools' of the trade. Block, strap, towel and comfy yoga crops. Matchygram with @maudester again?","loc": {"type": "Point","coordinates": [103.85162,1.283374]}} 
{"id": "8536524738","server": "8097","farm": "9","userId": "42413074@N02","secret": "f3d75f7542","title": "upload","loc": {"type": "Point","coordinates": [103.84872,1.281986]}} 
{"id": "8532998993","server": "8235","farm": "9","userId": "11008075@N00","secret": "329ffa4405","title": "Matchygram with @maudester ☺","loc": {"type": "Point","coordinates": [103.85162,1.283374]}} 
{"id": "8527302361","server": "8376","farm": "9","userId": "86606207@N08","secret": "3960919a18","title": "DSC_4713","loc": {"type": "Point","coordinates": [103.853745,1.282416]}} 
{"id": "8528419368","server": "8366","farm": "9","userId": "86606207@N08","secret": "01e76b44ba","title": "DSC_4729","loc": {"type": "Point","coordinates": [103.853836,1.282397]}} 
{"id": "8527302923","server": "8367","farm": "9","userId": "86606207@N08","secret": "458c9c6c4a","title": "DSC_4728","loc": {"type": "Point","coordinates": [103.853806,1.282527]}} 
{"id": "8516560409","server": "8516","farm": "9","userId": "92410572@N07","secret": "07c1e71621","title": "Singapur 02/13-21","loc": {"type": "Point","coordinates": [103.853806,1.282961]}} 
{"id": "8515940537","server": "8102","farm": "9","userId": "73314823@N06","secret": "7709eba349","title": "singapore2","loc": {"type": "Point","coordinates": [103.853676,1.282804]}} 
{"id": "8516388916","server": "8241","farm": "9","userId": "77412854@N00","secret": "8258aaf273","title": "Chillin at this sick place with @marcaccetta @theflyylife @cynthiakoh27 #singapore @igsinga #rovia","loc": {"type": "Point","coordinates": [103.853775,1.283278]}} 
{"id": "8515772382","server": "8245","farm": "9","userId": "11008075@N00","secret": "f594f0850c","title": "Ribbit!","loc": {"type": "Point","coordinates": [103.85162,1.283374]}} 
{"id": "8511795187","server": "8227","farm": "9","userId": "11008075@N00","secret": "40aea6fa98","title": "Legs up the (imaginary) wall while waiting for class to start","loc": {"type": "Point","coordinates": [103.852196,1.283923]}} 
{"id": "8508072757","server": "8527","farm": "9","userId": "73138120@N08","secret": "5357304458","title": "My visit to Microsoft Center, Singapore.","loc": {"type": "Point","coordinates": [103.8526,1.282225]}} 
{"id": "8508072269","server": "8087","farm": "9","userId": "73138120@N08","secret": "4f6028a33d","title": "My visit to Microsoft Center, Singapore.","loc": {"type": "Point","coordinates": [103.8526,1.282225]}} 
{"id": "8500971148","server": "8510","farm": "9","userId": "10949471@N05","secret": "3b1f7e2639","title": "unisex","loc": {"type": "Point","coordinates": [103.84892,1.28304]}} 
{"id": "8497141151","server": "8523","farm": "9","userId": "37147643@N02","secret": "f2a6d70d16","title": "22Feb2013","loc": {"type": "Point","coordinates": [103.84979,1.283962]}} 
{"id": "8496854693","server": "8105","farm": "9","userId": "12812990@N00","secret": "d4f80b53c6","title": "Skyscrapers","loc": {"type": "Point","coordinates": [103.8495,1.282]}} 
{"id": "8494440897","server": "8092","farm": "9","userId": "19109134@N00","secret": "b2ea9bedf3","title": "NYE Fun Times","loc": {"type": "Point","coordinates": [103.85357,1.282653]}} 
{"id": "8495278774","server": "8372","farm": "9","userId": "11008075@N00","secret": "00f9ca1e61","title": "All set with my props for a late night #yoga class","loc": {"type": "Point","coordinates": [103.85295,1.283923]}} 
{"id": "8488000347","server": "8244","farm": "9","userId": "11008075@N00","secret": "22e28bdb31","title": "Back on the mat, Gingham Style!","loc": {"type": "Point","coordinates": [103.85162,1.283374]}} 
{"id": "8481554044","server": "8532","farm": "9","userId": "19454593@N00","secret": "0f02a7c5af","title": "IMG_0891_F","loc": {"type": "Point","coordinates": [103.84945,1.281375]}} 
{"id": "8481562856","server": "8523","farm": "9","userId": "19454593@N00","secret": "d4cc6186ff","title": "IMG_0862_F","loc": {"type": "Point","coordinates": [103.851974,1.282336]}} 
{"id": "8480470595","server": "8239","farm": "9","userId": "19454593@N00","secret": "0e6e224820","title": "IMG_0867_F","loc": {"type": "Point","coordinates": [103.85226,1.282547]}} 
{"id": "8480471219","server": "8244","farm": "9","userId": "19454593@N00","secret": "e95c9dd8fa","title": "IMG_0865_F","loc": {"type": "Point","coordinates": [103.851974,1.282411]}} 
{"id": "8481555128","server": "8510","farm": "9","userId": "19454593@N00","secret": "94ecf6bbc1","title": "IMG_0887_F","loc": {"type": "Point","coordinates": [103.850204,1.281313]}} 
{"id": "8481554542","server": "8386","farm": "9","userId": "19454593@N00","secret": "4cd0e919c3","title": "IMG_0890_F","loc": {"type": "Point","coordinates": [103.84995,1.281588]}} 
{"id": "8481560238","server": "8242","farm": "9","userId": "19454593@N00","secret": "37e7e3a651","title": "IMG_0870_F","loc": {"type": "Point","coordinates": [103.851555,1.281966]}} 
{"id": "8480471937","server": "8235","farm": "9","userId": "19454593@N00","secret": "d4be432ee0","title": "IMG_0863_F","loc": {"type": "Point","coordinates": [103.851974,1.282391]}} 
{"id": "8480259543","server": "8516","farm": "9","userId": "97478728@N00","secret": "8b413bb09f","title": "upload","loc": {"type": "Point","coordinates": [103.85326,1.282299]}} 
{"id": "8480799820","server": "8385","farm": "9","userId": "54572649@N08","secret": "a7b44b4c87","title": "25 01 13_6D_0328_edited-FB","loc": {"type": "Point","coordinates": [103.85065,1.28201]}} 
{"id": "8480799866","server": "8107","farm": "9","userId": "54572649@N08","secret": "52a10f5ff5","title": "25 01 13_6D_0329_edited-FB","loc": {"type": "Point","coordinates": [103.85065,1.28201]}} 
{"id": "8477953822","server": "8375","farm": "9","userId": "21951812@N02","secret": "f7ba39c421","title": "The Fullerton Bay","loc": {"type": "Point","coordinates": [103.85374,1.283919]}} 
{"id": "8477849408","server": "8240","farm": "9","userId": "79022843@N00","secret": "52d3447c70","title": "Marina Bay Sands","loc": {"type": "Point","coordinates": [103.85339,1.281608]}} 
{"id": "8469565667","server": "8509","farm": "9","userId": "14385475@N05","secret": "49c078463a","title": "IMG_2696","loc": {"type": "Point","coordinates": [103.85133,1.284166]}} 
{"id": "8463317645","server": "8384","farm": "9","userId": "24125024@N06","secret": "2371c77219","title": "Project Continuation #75 'Come and go at Momentum'","loc": {"type": "Point","coordinates": [103.85106,1.282325]}} 
{"id": "8460884064","server": "8092","farm": "9","userId": "32521675@N05","secret": "505f8343b6","title": "Singapore Old and New","loc": {"type": "Point","coordinates": [103.85362,1.284026]}} 
{"id": "8458010733","server": "8252","farm": "9","userId": "52793080@N03","secret": "aa4678a8ab","title": "Fuk Tak Chi temple","loc": {"type": "Point","coordinates": [103.84892,1.282869]}} 
{"id": "8459116000","server": "8247","farm": "9","userId": "52793080@N03","secret": "375413655f","title": "Fuk Tak Chi temple","loc": {"type": "Point","coordinates": [103.84892,1.282869]}} 
{"id": "8457996477","server": "8514","farm": "9","userId": "52793080@N03","secret": "f8cc79541c","title": "Singapore skyscrapers","loc": {"type": "Point","coordinates": [103.85127,1.283691]}} 
{"id": "8455635608","server": "8225","farm": "9","userId": "73142903@N05","secret": "20a7cbfebe","title": "Marina Bay Financial Center - 8 Feb 2013","loc": {"type": "Point","coordinates": [103.853836,1.281166]}} 
{"id": "8455636346","server": "8090","farm": "9","userId": "73142903@N05","secret": "20ef38ffc2","title": "Marina Bay Suites - 8 Feb 2013","loc": {"type": "Point","coordinates": [103.85333,1.281333]}} 
{"id": "8454624368","server": "8385","farm": "9","userId": "33650137@N05","secret": "6a1ae730d9","title": "singapore - ferry terminal with docks beyond singapore JL","loc": {"type": "Point","coordinates": [103.85239,1.282546]}} 
{"id": "8447849342","server": "8079","farm": "9","userId": "11008075@N00","secret": "402f2fbcb5","title": "Naghinuktok naghuwat sa maestro. ☺ Lovely flow in class, enjoyed doing the surya namaskara with my eyes closed. Namaste.","loc": {"type": "Point","coordinates": [103.85162,1.283374]}} 
{"id": "8443266732","server": "8362","farm": "9","userId": "94162748@N00","secret": "0a227821ef","title": "McDonald's flash mob","loc": {"type": "Point","coordinates": [103.852486,1.283769]}} 
{"id": "8443267032","server": "8327","farm": "9","userId": "94162748@N00","secret": "128799b6f4","title": "McDonald's flash mob","loc": {"type": "Point","coordinates": [103.852486,1.283769]}} 
{"id": "8442175009","server": "8364","farm": "9","userId": "94162748@N00","secret": "e1b69c4fce","title": "McDonald's flash mob","loc": {"type": "Point","coordinates": [103.852486,1.283769]}} 
{"id": "8443265604","server": "8085","farm": "9","userId": "94162748@N00","secret": "cf2571404d","title": "McDonald's flash mob","loc": {"type": "Point","coordinates": [103.852486,1.283769]}} 
{"id": "8442175333","server": "8230","farm": "9","userId": "94162748@N00","secret": "fb5e59c824","title": "McDonald's flash mob","loc": {"type": "Point","coordinates": [103.852486,1.283769]}} 
{"id": "8436581309","server": "8373","farm": "9","userId": "50557609@N06","secret": "f0f1462f9e","title": "View from 23rd floor of One Raffles Quay North Tower.  #TennisCourts and #SwimmingPool, I would love to work here.  #singapore #marinabay","loc": {"type": "Point","coordinates": [103.85164,1.283071]}} 
{"id": "8434188803","server": "8094","farm": "9","userId": "18673521@N00","secret": "5247f0796b","title": "An apple a day keeps the Dr away. I love this line! #cheers #cider","loc": {"type": "Point","coordinates": [103.84852,1.283762]}} 
{"id": "8434786628","server": "8354","farm": "9","userId": "81584604@N05","secret": "496f45c7ef","title": "Singapore","loc": {"type": "Point","coordinates": [103.85324,1.282505]}} 
{"id": "8432140523","server": "8189","farm": "9","userId": "51035566865@N01","secret": "bd160219d4","title": "","loc": {"type": "Point","coordinates": [103.853165,1.281666]}} 
{"id": "8431499403","server": "8076","farm": "9","userId": "11008075@N00","secret": "f1e993a0ff","title": "Waiting for class to start. It's Barney pants today. ☺","loc": {"type": "Point","coordinates": [103.85162,1.283374]}} 
{"id": "8425818023","server": "8084","farm": "9","userId": "11008075@N00","secret": "20a9f3f26b","title": "Bordeaux, such a lovely rich color... and they match my nails by Secret B! ☺","loc": {"type": "Point","coordinates": [103.85162,1.283374]}} 
{"id": "8426543488","server": "8055","farm": "9","userId": "14276849@N04","secret": "5494aafac6","title": "#194","loc": {"type": "Point","coordinates": [103.85024,1.283048]}} 
{"id": "8426352886","server": "8223","farm": "9","userId": "53712626@N00","secret": "2fdd662e10","title": "2012-11-13 15.51.02","loc": {"type": "Point","coordinates": [103.8493,1.28145]}} 
{"id": "8425237663","server": "8497","farm": "9","userId": "89944281@N00","secret": "ea39e23f2b","title": "About to make magic happen.","loc": {"type": "Point","coordinates": [103.853226,1.283426]}} 
{"id": "8422495885","server": "8085","farm": "9","userId": "83340543@N04","secret": "fc94a532ba","title": "","loc": {"type": "Point","coordinates": [103.85233,1.281666]}} 
{"id": "8423590100","server": "8215","farm": "9","userId": "83340543@N04","secret": "787a868f38","title": "","loc": {"type": "Point","coordinates": [103.850334,1.281499]}} 
{"id": "8422494267","server": "8371","farm": "9","userId": "83340543@N04","secret": "7782d59568","title": "","loc": {"type": "Point","coordinates": [103.852165,1.281499]}} 
{"id": "8422495533","server": "8071","farm": "9","userId": "83340543@N04","secret": "7d77778ce3","title": "","loc": {"type": "Point","coordinates": [103.850334,1.281499]}} 
{"id": "8422494665","server": "8518","farm": "9","userId": "83340543@N04","secret": "b4f6539350","title": "","loc": {"type": "Point","coordinates": [103.851,1.282166]}} 
{"id": "8418765737","server": "8377","farm": "9","userId": "58716938@N00","secret": "0b33068d05","title": "My Centre","loc": {"type": "Point","coordinates": [103.85253,1.282921]}} 
{"id": "8416976406","server": "8050","farm": "9","userId": "51035566865@N01","secret": "e4c01ce95a","title": "IMG_0082","loc": {"type": "Point","coordinates": [103.853836,1.2825]}} 
{"id": "8415870765","server": "8083","farm": "9","userId": "51035566865@N01","secret": "ac2f966fbd","title": "IMG_0043","loc": {"type": "Point","coordinates": [103.85233,1.281833]}} 
{"id": "8416970996","server": "8358","farm": "9","userId": "51035566865@N01","secret": "bace324d82","title": "IMG_0066","loc": {"type": "Point","coordinates": [103.853165,1.281333]}} 
{"id": "8415873763","server": "8331","farm": "9","userId": "51035566865@N01","secret": "15b9930a4d","title": "IMG_0061","loc": {"type": "Point","coordinates": [103.853165,1.282333]}} 
{"id": "8415794335","server": "8196","farm": "9","userId": "46275416@N04","secret": "6f3b056911","title": "Marina Bay Singapore","loc": {"type": "Point","coordinates": [103.85339,1.282375]}} 
{"id": "8416695852","server": "8374","farm": "9","userId": "46275416@N04","secret": "a931399c7b","title": "Marina Bay Singapore","loc": {"type": "Point","coordinates": [103.853676,1.28246]}} 
{"id": "8415599373","server": "8361","farm": "9","userId": "46275416@N04","secret": "9cb0f2b5b9","title": "Marina Bay Singapore","loc": {"type": "Point","coordinates": [103.85363,1.28186]}} 
{"id": "8411134128","server": "8213","farm": "9","userId": "11008075@N00","secret": "5e9d6a9c71","title": "Matchy matchy with the studio carpet.  Still one of my favorite crops though.","loc": {"type": "Point","coordinates": [103.85162,1.283374]}} 
{"id": "8401640998","server": "8084","farm": "9","userId": "79004253@N02","secret": "df9d292867","title": "MIB 4 Scene! ;)","loc": {"type": "Point","coordinates": [103.852165,1.282185]}} 
{"id": "8400221054","server": "8476","farm": "9","userId": "83364604@N00","secret": "8dfe4d30d2","title": "The richman","loc": {"type": "Point","coordinates": [103.849,1.281881]}} 
{"id": "8397576772","server": "8497","farm": "9","userId": "11008075@N00","secret": "fde30573bd","title": "No Sinulog celebration for me so it'll be hot pink for yoga today. ☺","loc": {"type": "Point","coordinates": [103.85162,1.283374]}} 
{"id": "8389466424","server": "8473","farm": "9","userId": "11008075@N00","secret": "53f3466f86","title": "Back on the mat. Time to sweat out the holiday baboyitis.","loc": {"type": "Point","coordinates": [103.85162,1.283374]}} 
{"id": "8386946890","server": "8334","farm": "9","userId": "91223673@N06","secret": "c9603a7bbc","title": "A Chase","loc": {"type": "Point","coordinates": [103.851776,1.284048]}} 
{"id": "8383125050","server": "8076","farm": "9","userId": "21651009@N00","secret": "4148d36c85","title": "Singapore Merlion and Singapore Flyer","loc": {"type": "Point","coordinates": [103.85316,1.283061]}} 
{"id": "8377275444","server": "8055","farm": "9","userId": "90425852@N08","secret": "8aa67d1a2a","title": "One Step At A Time","loc": {"type": "Point","coordinates": [103.85239,1.2827]}} 
{"id": "8376079864","server": "8329","farm": "9","userId": "91223673@N06","secret": "5ee45a6873","title": "Past Reflect, Focus","loc": {"type": "Point","coordinates": [103.85223,1.283104]}} 
{"id": "8366405639","server": "8500","farm": "9","userId": "23714117@N02","secret": "401b818fd1","title": "@bern_21","loc": {"type": "Point","coordinates": [103.8486,1.283579]}} 
{"id": "8361067761","server": "8233","farm": "9","userId": "61038036@N00","secret": "33f6b56e6c","title": "IMG_8869","loc": {"type": "Point","coordinates": [103.84866,1.2825]}} 
{"id": "8362129722","server": "8075","farm": "9","userId": "61038036@N00","secret": "84b48ba1ee","title": "IMG_8870","loc": {"type": "Point","coordinates": [103.84866,1.2825]}} 
{"id": "8362116038","server": "8219","farm": "9","userId": "61038036@N00","secret": "3d12ca0e38","title": "IMG_8730","loc": {"type": "Point","coordinates": [103.8495,1.281833]}} 
{"id": "8345331900","server": "8082","farm": "9","userId": "99696178@N00","secret": "0da2baf87c","title": "This is what happens to your face when your neck is stiff and aching","loc": {"type": "Point","coordinates": [103.85353,1.284173]}} 
{"id": "8342962888","server": "8357","farm": "9","userId": "90183519@N04","secret": "574cf5e211","title": "And dessert! #nomenu #food #dessert #sweet #pastries #chef #chocolate #osvaldo #work #sinful #girls #ladies #love #instafood #instasg","loc": {"type": "Point","coordinates": [103.84846,1.281325]}} 
{"id": "8342954538","server": "8077","farm": "9","userId": "90183519@N04","secret": "2246e9fbe2","title": "Main course Pork Chop with mash.. #meat #dinner #food #pork #Mash #green #work #chef #maincourse #tasty #yummy #love #instafood #osvaldo #nomenu #foodandbeverage #sg #instasg","loc": {"type": "Point","coordinates": [103.84846,1.281325]}} 
{"id": "8342576320","server": "8216","farm": "9","userId": "35415905@N00","secret": "e2f3d249fd","title": "IMG_1147","loc": {"type": "Point","coordinates": [103.85183,1.282333]}} 
{"id": "8334834764","server": "8354","farm": "9","userId": "84359140@N02","secret": "1b38d57828","title": "","loc": {"type": "Point","coordinates": [103.851166,1.283]}} 
{"id": "8332817284","server": "8355","farm": "9","userId": "69808464@N07","secret": "f9c285cbe2","title": "競牌","loc": {"type": "Point","coordinates": [103.848755,1.282193]}} 
{"id": "8331750947","server": "8220","farm": "9","userId": "69808464@N07","secret": "b4c8d7c505","title": "Bank of Singapore, A Private   Banking Affliated by OCBC","loc": {"type": "Point","coordinates": [103.850525,1.283928]}} 
{"id": "8332780386","server": "8495","farm": "9","userId": "69808464@N07","secret": "5ee09c5477","title": "法巴","loc": {"type": "Point","coordinates": [103.85182,1.28296]}} 
{"id": "8326210730","server": "8221","farm": "9","userId": "68744977@N05","secret": "90f68a2f61","title": "The Sail at Marina Bay","loc": {"type": "Point","coordinates": [103.853355,1.28113]}} 
{"id": "8310452369","server": "8504","farm": "9","userId": "91223673@N06","secret": "6c247546b4","title": "Financial Buildings","loc": {"type": "Point","coordinates": [103.85147,1.282053]}} 
{"id": "8309489446","server": "8076","farm": "9","userId": "42594504@N00","secret": "b8f0ac8074","title": "Sad day for Singapore lost 4 - 0 to China Pr","loc": {"type": "Point","coordinates": [103.8528,1.283301]}} 
{"id": "8302684829","server": "8213","farm": "9","userId": "10634432@N05","secret": "3212fbce19","title": "Meetings and mentos","loc": {"type": "Point","coordinates": [103.850296,1.28228]}} 
{"id": "8302682237","server": "8084","farm": "9","userId": "10634432@N05","secret": "d8c2b1f869","title": "Since 1899","loc": {"type": "Point","coordinates": [103.850296,1.28228]}} 
{"id": "8303748432","server": "8077","farm": "9","userId": "10634432@N05","secret": "38684ebbbb","title": "Cosmo + Morito","loc": {"type": "Point","coordinates": [103.85369,1.282763]}} 
{"id": "8303735004","server": "8213","farm": "9","userId": "10634432@N05","secret": "0b9a28b826","title": "Coffee","loc": {"type": "Point","coordinates": [103.850296,1.28228]}} 
{"id": "8303746996","server": "8213","farm": "9","userId": "10634432@N05","secret": "e447633547","title": "Elias' box","loc": {"type": "Point","coordinates": [103.849884,1.28275]}} 
{"id": "8303748250","server": "8216","farm": "9","userId": "10634432@N05","secret": "794667401a","title": "Cosmopolitan","loc": {"type": "Point","coordinates": [103.85369,1.282763]}} 
{"id": "8303151954","server": "8077","farm": "9","userId": "20922765@N00","secret": "945329b61e","title": "MIKI-TRIP-SINGAPORE-08","loc": {"type": "Point","coordinates": [103.853165,1.283999]}} 
{"id": "8298698531","server": "8497","farm": "9","userId": "19282426@N00","secret": "b2119be794","title": "Merry Christmas everyone","loc": {"type": "Point","coordinates": [103.849144,1.28327]}} 
{"id": "8288068166","server": "8488","farm": "9","userId": "29693607@N00","secret": "e73637e06e","title": "","loc": {"type": "Point","coordinates": [103.85242,1.282974]}} 
{"id": "8286279389","server": "8072","farm": "9","userId": "51489026@N02","secret": "44404e8d44","title": "The traffic light","loc": {"type": "Point","coordinates": [103.848755,1.282193]}} 
{"id": "8284221473","server": "8067","farm": "9","userId": "65598092@N00","secret": "a8f823e51b","title": "Singapore: Marina Bay","loc": {"type": "Point","coordinates": [103.853836,1.282666]}} 
{"id": "8284220993","server": "8480","farm": "9","userId": "65598092@N00","secret": "d4e020b3f1","title": "Singapore: Marina Bay","loc": {"type": "Point","coordinates": [103.85367,1.2825]}} 
{"id": "8284223711","server": "8338","farm": "9","userId": "65598092@N00","secret": "5103f55867","title": "Singapore Downton","loc": {"type": "Point","coordinates": [103.85183,1.283]}} 
{"id": "8278929469","server": "8060","farm": "9","userId": "51489026@N02","secret": "23c6a92956","title": "Spidermen","loc": {"type": "Point","coordinates": [103.8512,1.283061]}} 
{"id": "8274299818","server": "8223","farm": "9","userId": "19282426@N00","secret": "e1554dda73","title": "Seafood set","loc": {"type": "Point","coordinates": [103.84858,1.283732]}} 
{"id": "8274300614","server": "8339","farm": "9","userId": "19282426@N00","secret": "49431d28cd","title": "Mixed set","loc": {"type": "Point","coordinates": [103.84858,1.283732]}} 
{"id": "8273020574","server": "8199","farm": "9","userId": "50435164@N02","secret": "d338bdaaae","title": "Sunrise Over Marina Bay Sands","loc": {"type": "Point","coordinates": [103.85382,1.283919]}} 
{"id": "8272656716","server": "8057","farm": "9","userId": "12682910@N05","secret": "f3223f52d7","title": "View from my room","loc": {"type": "Point","coordinates": [103.853584,1.283147]}} 
{"id": "8270771046","server": "8083","farm": "9","userId": "86310994@N02","secret": "d40d952509","title": "Untitled","loc": {"type": "Point","coordinates": [103.85234,1.283705]}} 
{"id": "8269436328","server": "8211","farm": "9","userId": "29122404@N00","secret": "25d91d88b8","title": "Microsoft Singapore","loc": {"type": "Point","coordinates": [103.85281,1.282246]}} 
{"id": "8269436376","server": "8070","farm": "9","userId": "29122404@N00","secret": "b3729da713","title": "Microsoft Singapore","loc": {"type": "Point","coordinates": [103.852646,1.282203]}} 
{"id": "8266880024","server": "8494","farm": "9","userId": "78719396@N00","secret": "554045a2e5","title": "","loc": {"type": "Point","coordinates": [103.85233,1.281833]}} 
{"id": "8265410601","server": "8202","farm": "9","userId": "15979795@N00","secret": "623293a4d4","title": "Expensive Service Apartment","loc": {"type": "Point","coordinates": [103.85232,1.281999]}} 
{"id": "8266477554","server": "8342","farm": "9","userId": "15979795@N00","secret": "7218743880","title": "Ascott Building","loc": {"type": "Point","coordinates": [103.852165,1.281809]}} 
{"id": "8265842912","server": "8492","farm": "9","userId": "12682910@N05","secret": "54e0e229b1","title": "Morning has broken...","loc": {"type": "Point","coordinates": [103.853806,1.283233]}} 
{"id": "8260007511","server": "8224","farm": "9","userId": "82167220@N06","secret": "1fbe558abc","title": "IMAG1061","loc": {"type": "Point","coordinates": [103.85335,1.28378]}} 
{"id": "8258491742","server": "8071","farm": "9","userId": "66919430@N00","secret": "e1179f995c","title": "I met Neil Humphries in town","loc": {"type": "Point","coordinates": [103.85233,1.283999]}} 
{"id": "8254479427","server": "8490","farm": "9","userId": "78719396@N00","secret": "68e0d2d549","title": "","loc": {"type": "Point","coordinates": [103.85183,1.281167]}} 
{"id": "8255555964","server": "8363","farm": "9","userId": "78719396@N00","secret": "486fec1c14","title": "","loc": {"type": "Point","coordinates": [103.85167,1.281333]}} 
{"id": "8252413708","server": "8057","farm": "9","userId": "78719396@N00","secret": "489b9f66d3","title": "","loc": {"type": "Point","coordinates": [103.852165,1.281833]}} 
{"id": "8252400012","server": "8205","farm": "9","userId": "78719396@N00","secret": "b184ea99a6","title": "","loc": {"type": "Point","coordinates": [103.85183,1.281667]}} 
{"id": "8248600701","server": "8200","farm": "9","userId": "51489026@N02","secret": "e05a3d2742","title": "The lost washing machine","loc": {"type": "Point","coordinates": [103.85161,1.283651]}} 
{"id": "8240448530","server": "8337","farm": "9","userId": "86162877@N00","secret": "e3e58c7183","title": "The View @ LeVel33","loc": {"type": "Point","coordinates": [103.8532,1.281173]}} 
{"id": "8240453768","server": "8345","farm": "9","userId": "86162877@N00","secret": "5cdea7325a","title": "The View @ LeVel33","loc": {"type": "Point","coordinates": [103.8532,1.281173]}} 
{"id": "8240457354","server": "8347","farm": "9","userId": "86162877@N00","secret": "cabc132d44","title": "The View @ LeVel33","loc": {"type": "Point","coordinates": [103.8532,1.281173]}} 
{"id": "8240446304","server": "8061","farm": "9","userId": "86162877@N00","secret": "f27a0f3c45","title": "The View @ LeVel33","loc": {"type": "Point","coordinates": [103.8532,1.281173]}} 
{"id": "8239387007","server": "8058","farm": "9","userId": "86162877@N00","secret": "6a980d36e2","title": "The View @ LeVel33","loc": {"type": "Point","coordinates": [103.8532,1.281173]}} 
{"id": "8235346235","server": "8209","farm": "9","userId": "81943113@N00","secret": "57c3ac2e25","title": "Lau Pa Sat","loc": {"type": "Point","coordinates": [103.850624,1.2818]}} 
{"id": "8235344193","server": "8199","farm": "9","userId": "81943113@N00","secret": "7bf5e1ce25","title": "Lau Pa Sat","loc": {"type": "Point","coordinates": [103.85067,1.282036]}} 
{"id": "8236411328","server": "8062","farm": "9","userId": "81943113@N00","secret": "d09ca101fb","title": "Lau Pa Sat","loc": {"type": "Point","coordinates": [103.850624,1.281905]}} 
{"id": "8235341079","server": "8200","farm": "9","userId": "81943113@N00","secret": "a68e0f9011","title": "Lau Pa Sat","loc": {"type": "Point","coordinates": [103.85056,1.282102]}} 
{"id": "8236409346","server": "8199","farm": "9","userId": "81943113@N00","secret": "c48dd4a41e","title": "Lau Pa Sat","loc": {"type": "Point","coordinates": [103.85067,1.282038]}} 
{"id": "8236408182","server": "8481","farm": "9","userId": "81943113@N00","secret": "37e963fe84","title": "Lau Pa Sat","loc": {"type": "Point","coordinates": [103.85067,1.282083]}} 
{"id": "8232395616","server": "8343","farm": "9","userId": "28836100@N00","secret": "fafee6d860","title": "Singapore","loc": {"type": "Point","coordinates": [103.85332,1.283166]}} 
{"id": "8232399424","server": "8337","farm": "9","userId": "28836100@N00","secret": "b5ae0fb262","title": "Singapore","loc": {"type": "Point","coordinates": [103.8519,1.282063]}} 
{"id": "8232397446","server": "8339","farm": "9","userId": "28836100@N00","secret": "ae60fc2879","title": "Singapore","loc": {"type": "Point","coordinates": [103.8519,1.282063]}} 
{"id": "8231335235","server": "8198","farm": "9","userId": "28836100@N00","secret": "bbe7ef58a9","title": "Singapore","loc": {"type": "Point","coordinates": [103.8519,1.282063]}} 
{"id": "8227266120","server": "8489","farm": "9","userId": "56710139@N02","secret": "39c5ce9f7d","title": "Coca-Cola truck in Singapore","loc": {"type": "Point","coordinates": [103.851326,1.283726]}} 
{"id": "8211611138","server": "8486","farm": "9","userId": "13672306@N02","secret": "df74cf67fb","title": "Singapore Skyline @ Blue Hour","loc": {"type": "Point","coordinates": [103.85226,1.283662]}} 
{"id": "8182540998","server": "8201","farm": "9","userId": "79022843@N00","secret": "5ea3b5cb55","title": "Marina Bay Financial Centre","loc": {"type": "Point","coordinates": [103.853806,1.28379]}} 
{"id": "8181333905","server": "8342","farm": "9","userId": "39528643@N06","secret": "99beb5b046","title": "First day out","loc": {"type": "Point","coordinates": [103.85379,1.282036]}} 
{"id": "8168095354","server": "8347","farm": "9","userId": "25802865@N08","secret": "c090e72949","title": "Telok Ayer Street","loc": {"type": "Point","coordinates": [103.84893,1.282975]}} 
{"id": "8161385164","server": "8477","farm": "9","userId": "19109134@N00","secret": "04f03dd004","title": "Scenes From a Bar","loc": {"type": "Point","coordinates": [103.85331,1.282503]}} 
{"id": "8157905604","server": "7274","farm": "8","userId": "79022843@N00","secret": "5d036eea3f","title": "One Raffles Quay","loc": {"type": "Point","coordinates": [103.852066,1.282375]}} 
{"id": "8147425095","server": "8467","farm": "9","userId": "85252992@N06","secret": "9fd93b4c4a","title": "Leyland Olympian Walter Alexander Royale","loc": {"type": "Point","coordinates": [103.84858,1.282149]}} 
{"id": "8146295514","server": "8333","farm": "9","userId": "34667122@N04","secret": "80721f34d4","title": "Where am I","loc": {"type": "Point","coordinates": [103.84895,1.282889]}} 
{"id": "8141915946","server": "8055","farm": "9","userId": "79022843@N00","secret": "15c7341ef0","title": "One Marina Boulevard","loc": {"type": "Point","coordinates": [103.85187,1.28231]}} 
{"id": "8140607680","server": "8186","farm": "9","userId": "35758174@N00","secret": "846fe96f1b","title": "City Postcard #Androidography #HTC #OneX #InstaDroid #Singapore","loc": {"type": "Point","coordinates": [103.852165,1.282184]}} 
{"id": "8137078693","server": "8196","farm": "9","userId": "29011891@N00","secret": "487f7268e4","title": "Standard Chartered Building","loc": {"type": "Point","coordinates": [103.852356,1.281538]}} 
{"id": "8130211265","server": "8186","farm": "9","userId": "24141292@N02","secret": "14c0515bc2","title": "Ascott Hotel, Singapore","loc": {"type": "Point","coordinates": [103.85173,1.282246]}} 
{"id": "8130237930","server": "8336","farm": "9","userId": "24141292@N02","secret": "b146593b41","title": "Bronze Ox, Singapore","loc": {"type": "Point","coordinates": [103.85281,1.282825]}} 
{"id": "8223297004","server": "8198","farm": "9","userId": "29842984@N00","secret": "1155b320ae","title": "UFO","loc": {"type": "Point","coordinates": [103.852776,1.283913]}} 
{"id": "8210899252","server": "8198","farm": "9","userId": "51489026@N02","secret": "9676664f89","title": "Monsoon storm","loc": {"type": "Point","coordinates": [103.85034,1.284156]}} 
{"id": "8202623653","server": "8485","farm": "9","userId": "90280454@N04","secret": "1e24015521","title": "Blue Line","loc": {"type": "Point","coordinates": [103.85151,1.284112]}} 
{"id": "8192728462","server": "8201","farm": "9","userId": "51489026@N02","secret": "1b1078aac9","title": "Monsoon in the District","loc": {"type": "Point","coordinates": [103.85034,1.284156]}} 
{"id": "8184077002","server": "8479","farm": "9","userId": "68649150@N06","secret": "eb501a88ed","title": "a cool sarcophagus pen, thanks Frances!","loc": {"type": "Point","coordinates": [103.84972,1.284031]}} 
{"id": "8168859699","server": "7260","farm": "8","userId": "68649150@N06","secret": "8c2f6e8bf7","title": "Here comes the rain again...","loc": {"type": "Point","coordinates": [103.84972,1.284031]}} 
{"id": "8168891166","server": "8345","farm": "9","userId": "68649150@N06","secret": "e294b9c8a8","title": "Gear check","loc": {"type": "Point","coordinates": [103.84972,1.284031]}} 
{"id": "8168614180","server": "8200","farm": "9","userId": "51489026@N02","secret": "da1760f201","title": "The tea room","loc": {"type": "Point","coordinates": [103.851036,1.282922]}} 
{"id": "8163749055","server": "8068","farm": "9","userId": "51489026@N02","secret": "281e006831","title": "On Fire","loc": {"type": "Point","coordinates": [103.85034,1.284156]}} 
{"id": "8163179586","server": "7256","farm": "8","userId": "51489026@N02","secret": "90bcdd1142","title": "Under control","loc": {"type": "Point","coordinates": [103.85367,1.282359]}} 
{"id": "8158429656","server": "8346","farm": "9","userId": "9217960@N07","secret": "5c14e3eaa1","title": "Singapore IMG_2945","loc": {"type": "Point","coordinates": [103.85337,1.283447]}} 
{"id": "8156847359","server": "8058","farm": "9","userId": "9217960@N07","secret": "b361a17edf","title": "Singapore IMG_2950","loc": {"type": "Point","coordinates": [103.853714,1.282375]}} 
{"id": "8156198374","server": "8345","farm": "9","userId": "68649150@N06","secret": "533e73c570","title": "Monday red cup","loc": {"type": "Point","coordinates": [103.84972,1.284031]}} 
{"id": "8152942250","server": "8477","farm": "9","userId": "94113339@N00","secret": "d71cfb5dbd","title": "Gotham-like","loc": {"type": "Point","coordinates": [103.85206,1.281708]}} 
{"id": "8152861428","server": "8484","farm": "9","userId": "89606431@N03","secret": "cbaeab7bdf","title": "如图","loc": {"type": "Point","coordinates": [103.85146,1.28393]}} 
{"id": "8152861218","server": "8065","farm": "9","userId": "89606431@N03","secret": "7f947816c5","title": "Raffles Place","loc": {"type": "Point","coordinates": [103.85146,1.28393]}} 
{"id": "8152357980","server": "8061","farm": "9","userId": "99942665@N00","secret": "ec3436ae72","title": "P1150470","loc": {"type": "Point","coordinates": [103.85351,1.282516]}} 
{"id": "8152355430","server": "8070","farm": "9","userId": "99942665@N00","secret": "b57a6d9a75","title": "P1150479","loc": {"type": "Point","coordinates": [103.85351,1.282516]}} 
{"id": "8152358654","server": "7260","farm": "8","userId": "99942665@N00","secret": "349950cd96","title": "P1150469","loc": {"type": "Point","coordinates": [103.85351,1.282516]}} 
{"id": "8152368970","server": "8350","farm": "9","userId": "99942665@N00","secret": "cebd7e57e6","title": "P1150412","loc": {"type": "Point","coordinates": [103.85351,1.282516]}} 
{"id": "8152368336","server": "7108","farm": "8","userId": "99942665@N00","secret": "e20c147913","title": "P1150413","loc": {"type": "Point","coordinates": [103.85351,1.282516]}} 
{"id": "8152330903","server": "8478","farm": "9","userId": "99942665@N00","secret": "aa95d4d0d4","title": "P1150476","loc": {"type": "Point","coordinates": [103.85351,1.282516]}} 
{"id": "8152326323","server": "7260","farm": "8","userId": "99942665@N00","secret": "4d5c107e0c","title": "P1150488","loc": {"type": "Point","coordinates": [103.85351,1.282516]}} 
{"id": "8152324937","server": "7269","farm": "8","userId": "99942665@N00","secret": "6f54dcc848","title": "P1150491","loc": {"type": "Point","coordinates": [103.85351,1.282516]}} 
{"id": "8152322901","server": "8478","farm": "9","userId": "99942665@N00","secret": "9e52d071b2","title": "P1150500","loc": {"type": "Point","coordinates": [103.85351,1.282516]}} 
{"id": "8152319253","server": "7261","farm": "8","userId": "99942665@N00","secret": "4bd74cfe3f","title": "P1150506","loc": {"type": "Point","coordinates": [103.85351,1.282516]}} 
{"id": "8152324153","server": "7135","farm": "8","userId": "99942665@N00","secret": "04cf409a2f","title": "P1150495","loc": {"type": "Point","coordinates": [103.85351,1.282516]}} 
{"id": "8152345374","server": "8338","farm": "9","userId": "99942665@N00","secret": "8cecfd8f98","title": "P1150505","loc": {"type": "Point","coordinates": [103.85351,1.282516]}} 
{"id": "8152350154","server": "7124","farm": "8","userId": "99942665@N00","secret": "f5fae37875","title": "P1150494","loc": {"type": "Point","coordinates": [103.85351,1.282516]}} 
{"id": "8152318791","server": "7267","farm": "8","userId": "99942665@N00","secret": "ed4a117ff2","title": "P1150509","loc": {"type": "Point","coordinates": [103.85351,1.282516]}} 
{"id": "8152354822","server": "7107","farm": "8","userId": "99942665@N00","secret": "25800d3cdf","title": "P1150482","loc": {"type": "Point","coordinates": [103.85351,1.282516]}} 
{"id": "8152351380","server": "7135","farm": "8","userId": "99942665@N00","secret": "28cddc675e","title": "P1150489","loc": {"type": "Point","coordinates": [103.85351,1.282516]}} 
{"id": "8152322293","server": "8477","farm": "9","userId": "99942665@N00","secret": "7cde1a05d2","title": "P1150501","loc": {"type": "Point","coordinates": [103.85351,1.282516]}} 
{"id": "8152353260","server": "7111","farm": "8","userId": "99942665@N00","secret": "b387349b69","title": "P1150485","loc": {"type": "Point","coordinates": [103.85351,1.282516]}} 
{"id": "8152326755","server": "8480","farm": "9","userId": "99942665@N00","secret": "469b71b139","title": "P1150487","loc": {"type": "Point","coordinates": [103.85351,1.282516]}} 
{"id": "8152349282","server": "8487","farm": "9","userId": "99942665@N00","secret": "911a441f5d","title": "P1150497","loc": {"type": "Point","coordinates": [103.85351,1.282516]}} 
{"id": "8152325407","server": "7274","farm": "8","userId": "99942665@N00","secret": "89c031397d","title": "P1150490","loc": {"type": "Point","coordinates": [103.85351,1.282516]}} 
{"id": "8152323241","server": "7135","farm": "8","userId": "99942665@N00","secret": "bcc9f46348","title": "P1150499","loc": {"type": "Point","coordinates": [103.85351,1.282516]}} 
{"id": "8152353714","server": "7123","farm": "8","userId": "99942665@N00","secret": "cfc991805b","title": "P1150484","loc": {"type": "Point","coordinates": [103.85351,1.282516]}} 
{"id": "8152328627","server": "8339","farm": "9","userId": "99942665@N00","secret": "4d06d20e5c","title": "P1150483","loc": {"type": "Point","coordinates": [103.85351,1.282516]}} 
{"id": "8150744455","server": "8195","farm": "9","userId": "32748795@N00","secret": "fe8d9da16c","title": "Ma ma ma my Corona...","loc": {"type": "Point","coordinates": [103.853485,1.281649]}} 
{"id": "8150009606","server": "8336","farm": "9","userId": "79022843@N00","secret": "fb2eb25c2e","title": "One raffles Quay, One Marina Boulevard (NTUC) and OUE Bayfront","loc": {"type": "Point","coordinates": [103.853714,1.282031]}} 
{"id": "8147879177","server": "8055","farm": "9","userId": "37147643@N02","secret": "6107122f19","title": "31)ct2012","loc": {"type": "Point","coordinates": [103.850204,1.283383]}} 
{"id": "8144694657","server": "8190","farm": "9","userId": "60629611@N05","secret": "1b2c18c373","title": "#011/365 - The Boat & Moon","loc": {"type": "Point","coordinates": [103.85377,1.281817]}} 
{"id": "8141729255","server": "8189","farm": "9","userId": "51489026@N02","secret": "e565b1e98e","title": "Inside:Outside (I)","loc": {"type": "Point","coordinates": [103.85034,1.284156]}} 
{"id": "8135192844","server": "8189","farm": "9","userId": "26092248@N07","secret": "8a7b4a7b23","title": "#singapore","loc": {"type": "Point","coordinates": [103.85379,1.283941]}} 
{"id": "8134224478","server": "8471","farm": "9","userId": "24141292@N02","secret": "97ee7a4670","title": "Singapore","loc": {"type": "Point","coordinates": [103.85017,1.281216]}} 
{"id": "8134198503","server": "8326","farm": "9","userId": "24141292@N02","secret": "526706502d","title": "Tower Block, Singapore","loc": {"type": "Point","coordinates": [103.849,1.28187]}} 
{"id": "8134198263","server": "8049","farm": "9","userId": "24141292@N02","secret": "d05ddcc87e","title": "Singapore","loc": {"type": "Point","coordinates": [103.849,1.28187]}} 
{"id": "8134224804","server": "8056","farm": "9","userId": "24141292@N02","secret": "566f5bea47","title": "Singapore","loc": {"type": "Point","coordinates": [103.84954,1.281538]}} 
{"id": "8130829276","server": "8194","farm": "9","userId": "62699773@N08","secret": "8933e36a89","title": "Busy Singapore","loc": {"type": "Point","coordinates": [103.85048,1.281216]}} 
{"id": "8130215905","server": "8336","farm": "9","userId": "24141292@N02","secret": "fd34e16981","title": "Abstract Decoration, Singapore","loc": {"type": "Point","coordinates": [103.85281,1.282825]}} 
{"id": "8130209655","server": "8331","farm": "9","userId": "24141292@N02","secret": "7a20929547","title": "Colourful Sculpture, Singapore","loc": {"type": "Point","coordinates": [103.85186,1.282525]}} 
{"id": "8130236828","server": "8050","farm": "9","userId": "24141292@N02","secret": "b8d3f33489","title": "Collyer Quay, Singapore","loc": {"type": "Point","coordinates": [103.85278,1.284155]}} 
{"id": "8130214993","server": "8048","farm": "9","userId": "24141292@N02","secret": "5f66c31d57","title": "Monolithic Sculpture, Collyer Quay, Singapore","loc": {"type": "Point","coordinates": [103.852325,1.28231]}} 
{"id": "8130210407","server": "8185","farm": "9","userId": "24141292@N02","secret": "27c18231d5","title": "Clifford Pier, Singapore","loc": {"type": "Point","coordinates": [103.853226,1.283983]}} 
{"id": "8130212859","server": "8472","farm": "9","userId": "24141292@N02","secret": "8b2c1e8c31","title": "Artwork, Singapore","loc": {"type": "Point","coordinates": [103.85181,1.28157]}} 
{"id": "8129571386","server": "8185","farm": "9","userId": "37147643@N02","secret": "e5d214c027","title": "26Oct2012","loc": {"type": "Point","coordinates": [103.852394,1.281602]}} 
{"id": "8128493425","server": "8045","farm": "9","userId": "58958757@N05","secret": "7e7d6c6c8f","title": "Marina_pano2","loc": {"type": "Point","coordinates": [103.85375,1.283082]}} 
{"id": "8128470642","server": "8475","farm": "9","userId": "58958757@N05","secret": "f51bb0d5db","title": "MBS Fountain","loc": {"type": "Point","coordinates": [103.85364,1.283962]}} 
{"id": "8128459500","server": "8186","farm": "9","userId": "58958757@N05","secret": "fcd21e1804","title": "MBS LaserShow","loc": {"type": "Point","coordinates": [103.85366,1.283168]}} 
{"id": "8121467221","server": "8474","farm": "9","userId": "24141292@N02","secret": "8b10898c69","title": "Raffles Place, Singapore","loc": {"type": "Point","coordinates": [103.85117,1.283983]}} 
{"id": "8121467401","server": "8190","farm": "9","userId": "24141292@N02","secret": "17343d1c5d","title": "Towers, Raffles Place, Singapore","loc": {"type": "Point","coordinates": [103.85093,1.284059]}} 
{"id": "8114313388","server": "8044","farm": "9","userId": "10619900@N06","secret": "5c84fbea8c","title": "Time for the Tourist Stuff","loc": {"type": "Point","coordinates": [103.853676,1.281194]}} 
{"id": "8104664008","server": "8045","farm": "9","userId": "9260704@N04","secret": "bb47dd5793","title": "Graffiti @ Kinki #graffiti #graphic #japanese #singapore #bar #art","loc": {"type": "Point","coordinates": [103.85365,1.282579]}} 
{"id": "8100345503","server": "8045","farm": "9","userId": "13276410@N04","secret": "591f4a38af","title": "Singapore","loc": {"type": "Point","coordinates": [103.85281,1.283233]}} 
{"id": "8100344743","server": "8052","farm": "9","userId": "13276410@N04","secret": "6f410c80f8","title": "Singapore","loc": {"type": "Point","coordinates": [103.85281,1.283233]}} 
