{"id": "9404776767","server": "5455","farm": "6","userId": "20390873@N05","secret": "b3009a0879","title": "Thinking","loc": {"type": "Point","coordinates": [103.84216,1.284833]}} 
{"id": "8813586732","server": "7414","farm": "8","userId": "24668146@N06","secret": "6815a5117d","title": "Red Bull Dark Knights 2013","loc": {"type": "Point","coordinates": [103.83994,1.28512]}} 
{"id": "8696304751","server": "8260","farm": "9","userId": "95350998@N02","secret": "99a1319a18","title": "Singapore skyline from Pearl's Hill","loc": {"type": "Point","coordinates": [103.84119,1.284705]}} 
{"id": "8495491922","server": "8097","farm": "9","userId": "12812990@N00","secret": "9b9f74c2d2","title": "Buddha","loc": {"type": "Point","coordinates": [103.83815,1.286549]}} 
{"id": "8351057321","server": "8465","farm": "9","userId": "25802865@N08","secret": "21006fa8de","title": "Cai Shen","loc": {"type": "Point","coordinates": [103.84282,1.28467]}} 
{"id": "8333606026","server": "8217","farm": "9","userId": "67267180@N04","secret": "5bc26ae5ff","title": "Double Celebration Day [001/365]","loc": {"type": "Point","coordinates": [103.83974,1.287263]}} 
{"id": "8274169547","server": "8485","farm": "9","userId": "43088124@N05","secret": "5e80b1709d","title": "Sharing","loc": {"type": "Point","coordinates": [103.84277,1.284284]}} 
{"id": "8188009948","server": "8482","farm": "9","userId": "34161192@N07","secret": "42c579c06b","title": "singapore","loc": {"type": "Point","coordinates": [103.8426,1.287084]}} 
{"id": "9427725722","server": "7451","farm": "8","userId": "15170730@N07","secret": "2a07f89673","title": "sugar cane juice / carrot cake","loc": {"type": "Point","coordinates": [103.8426,1.284863]}} 
{"id": "9427050552","server": "3752","farm": "4","userId": "15170730@N07","secret": "2729833f3c","title": "wheeelssss...","loc": {"type": "Point","coordinates": [103.8426,1.284863]}} 
{"id": "9032009407","server": "3726","farm": "4","userId": "63369917@N05","secret": "90db29c7a8","title": "2013-06-01 10.14.56","loc": {"type": "Point","coordinates": [103.84267,1.284333]}} 
{"id": "9020696647","server": "5335","farm": "6","userId": "75404268@N00","secret": "08fde7d467","title": "Finally visiting the SG office.","loc": {"type": "Point","coordinates": [103.840065,1.286857]}} 
{"id": "8839546540","server": "3764","farm": "4","userId": "95911167@N05","secret": "4133fdeedb","title": "IMG_0106","loc": {"type": "Point","coordinates": [103.839836,1.285499]}} 
{"id": "8839549064","server": "3713","farm": "4","userId": "95911167@N05","secret": "43098513f7","title": "IMG_0110","loc": {"type": "Point","coordinates": [103.8375,1.285499]}} 
{"id": "8838920875","server": "7414","farm": "8","userId": "95911167@N05","secret": "b48e9ed34a","title": "IMG_0109","loc": {"type": "Point","coordinates": [103.83767,1.285499]}} 
{"id": "8731161755","server": "7422","farm": "8","userId": "91122271@N03","secret": "1117b9b085","title": "#galaxys4 #galaxy #samsung #awesome :)","loc": {"type": "Point","coordinates": [103.842445,1.286956]}} 
{"id": "8708762143","server": "8137","farm": "9","userId": "73729003@N00","secret": "8c0e12a695","title": "Umbrella Here","loc": {"type": "Point","coordinates": [103.842804,1.284949]}} 
{"id": "8708761499","server": "8400","farm": "9","userId": "73729003@N00","secret": "7d8c5a88ac","title": "Directional Umbrella","loc": {"type": "Point","coordinates": [103.842804,1.284949]}} 
{"id": "8709884646","server": "8277","farm": "9","userId": "73729003@N00","secret": "a5ed479898","title": "Umbrella Here or Here","loc": {"type": "Point","coordinates": [103.842804,1.284949]}} 
{"id": "8669352369","server": "8392","farm": "9","userId": "8150902@N02","secret": "b9c7034b7f","title": "Combing for collectors item...for some :) for #sgmemory #sgchinatown","loc": {"type": "Point","coordinates": [103.8426,1.284863]}} 
{"id": "8632835287","server": "8401","farm": "9","userId": "67851013@N02","secret": "60b7665c5b","title": "#Concrete #jungle 09/04/13.","loc": {"type": "Point","coordinates": [103.83902,1.284436]}} 
{"id": "8627559682","server": "8532","farm": "9","userId": "35468141938@N01","secret": "f8b15b7b50","title": "Sundays are about doing crazy shit, with @peeallover & friends.","loc": {"type": "Point","coordinates": [103.839836,1.284241]}} 
{"id": "8594568569","server": "8245","farm": "9","userId": "54037109@N05","secret": "b39949fd37","title": "Depart:back to Singapore again night view03","loc": {"type": "Point","coordinates": [103.842735,1.286268]}} 
{"id": "8594573277","server": "8522","farm": "9","userId": "54037109@N05","secret": "93aeaa080c","title": "Depart:back to Singapore again night view 05","loc": {"type": "Point","coordinates": [103.842735,1.286268]}} 
{"id": "8595665270","server": "8241","farm": "9","userId": "54037109@N05","secret": "a33bdbba3f","title": "Depart:back to Singapore again night cutie 02","loc": {"type": "Point","coordinates": [103.842735,1.286268]}} 
{"id": "8595670114","server": "8366","farm": "9","userId": "54037109@N05","secret": "09a44302f2","title": "Depart:back to Singapore again night view 04","loc": {"type": "Point","coordinates": [103.842735,1.286268]}} 
{"id": "8582261524","server": "8229","farm": "9","userId": "51489026@N02","secret": "a1948c551e","title": "The bus driver","loc": {"type": "Point","coordinates": [103.842,1.286794]}} 
{"id": "8559330378","server": "8231","farm": "9","userId": "8150902@N02","secret": "84034257cf","title": "On MRT","loc": {"type": "Point","coordinates": [103.84267,1.286166]}} 
{"id": "8538962141","server": "8110","farm": "9","userId": "61108263@N00","secret": "1c31b59ecb","title": "Raised Zebra Crossing","loc": {"type": "Point","coordinates": [103.84196,1.28688]}} 
{"id": "8535920461","server": "8365","farm": "9","userId": "61108263@N00","secret": "2f6df5192c","title": "Tunnel Cleaning truck","loc": {"type": "Point","coordinates": [103.84196,1.28688]}} 
{"id": "8529754703","server": "8387","farm": "9","userId": "48889054224@N01","secret": "ed02c5c1d1","title": "On the set of 'Gangs of Tiong Baru'","loc": {"type": "Point","coordinates": [103.83902,1.284436]}} 
{"id": "8494798282","server": "8372","farm": "9","userId": "35633423@N00","secret": "d1bc61736c","title": "","loc": {"type": "Point","coordinates": [103.84243,1.28555]}} 
{"id": "8494798462","server": "8230","farm": "9","userId": "35633423@N00","secret": "7e0e16ed45","title": "","loc": {"type": "Point","coordinates": [103.84257,1.285442]}} 
{"id": "8489479360","server": "8093","farm": "9","userId": "69589505@N06","secret": "fd571faeaf","title": "Created","loc": {"type": "Point","coordinates": [103.83857,1.285206]}} 
{"id": "8466185181","server": "8226","farm": "9","userId": "74587661@N05","secret": "b3bdcae9c1","title": "Contasts in Chinatown, Singapore","loc": {"type": "Point","coordinates": [103.8426,1.285807]}} 
{"id": "8466185115","server": "8240","farm": "9","userId": "74587661@N05","secret": "daa05f62c4","title": "Pretty houses in Chinatown, Singapore","loc": {"type": "Point","coordinates": [103.8426,1.285807]}} 
{"id": "8466185149","server": "8505","farm": "9","userId": "74587661@N05","secret": "b92d2697e5","title": "Print shop, Chinatown, Singapore","loc": {"type": "Point","coordinates": [103.8426,1.285807]}} 
{"id": "8430905455","server": "8514","farm": "9","userId": "94459908@N00","secret": "a9f0dd46bb","title": "Chinese New Year-71","loc": {"type": "Point","coordinates": [103.84277,1.284262]}} 
{"id": "8430904761","server": "8075","farm": "9","userId": "94459908@N00","secret": "58e2e6626f","title": "Chinese New Year-9","loc": {"type": "Point","coordinates": [103.84277,1.284262]}} 
{"id": "8431989208","server": "8052","farm": "9","userId": "94459908@N00","secret": "5ee67be3be","title": "Chinese New Year-61","loc": {"type": "Point","coordinates": [103.84277,1.284262]}} 
{"id": "8430907231","server": "8376","farm": "9","userId": "94459908@N00","secret": "0d34e7443f","title": "Chinese New Year-14","loc": {"type": "Point","coordinates": [103.84277,1.284262]}} 
{"id": "8431989648","server": "8079","farm": "9","userId": "94459908@N00","secret": "2d5ea99811","title": "Chinese New Year-35","loc": {"type": "Point","coordinates": [103.84277,1.284262]}} 
{"id": "8430905845","server": "8085","farm": "9","userId": "94459908@N00","secret": "5173ab93c0","title": "Chinese New Year-57","loc": {"type": "Point","coordinates": [103.84277,1.284262]}} 
{"id": "8431988702","server": "8491","farm": "9","userId": "94459908@N00","secret": "5a0ebde6b5","title": "Chinese New Year-1","loc": {"type": "Point","coordinates": [103.84277,1.284262]}} 
{"id": "8431990004","server": "8046","farm": "9","userId": "94459908@N00","secret": "97c952436b","title": "Chinese New Year-22","loc": {"type": "Point","coordinates": [103.84277,1.284262]}} 
{"id": "8430906631","server": "8098","farm": "9","userId": "94459908@N00","secret": "da47036d29","title": "Chinese New Year-21","loc": {"type": "Point","coordinates": [103.84277,1.284262]}} 
{"id": "8430905489","server": "8237","farm": "9","userId": "94459908@N00","secret": "26ac6918f1","title": "Chinese New Year-69","loc": {"type": "Point","coordinates": [103.84277,1.284262]}} 
{"id": "8430904873","server": "8368","farm": "9","userId": "94459908@N00","secret": "97ec4eaf7d","title": "Chinese New Year-7","loc": {"type": "Point","coordinates": [103.84277,1.284262]}} 
{"id": "8431988520","server": "8078","farm": "9","userId": "94459908@N00","secret": "614da23293","title": "Chinese New Year-5","loc": {"type": "Point","coordinates": [103.84277,1.284262]}} 
{"id": "8430905327","server": "8051","farm": "9","userId": "94459908@N00","secret": "67327bbeb9","title": "Chinese New Year-74","loc": {"type": "Point","coordinates": [103.84277,1.284262]}} 
{"id": "8430906917","server": "8370","farm": "9","userId": "94459908@N00","secret": "70b0981b86","title": "Chinese New Year-17","loc": {"type": "Point","coordinates": [103.84277,1.284262]}} 
{"id": "8430904847","server": "8476","farm": "9","userId": "94459908@N00","secret": "6f016eb980","title": "Chinese New Year-6","loc": {"type": "Point","coordinates": [103.84277,1.284262]}} 
{"id": "8431988324","server": "8053","farm": "9","userId": "94459908@N00","secret": "d847e0cb08","title": "Chinese New Year-8","loc": {"type": "Point","coordinates": [103.84277,1.284262]}} 
{"id": "8430905181","server": "8499","farm": "9","userId": "94459908@N00","secret": "25aa503560","title": "Chinese New Year-75","loc": {"type": "Point","coordinates": [103.84277,1.284262]}} 
{"id": "8431989520","server": "8375","farm": "9","userId": "94459908@N00","secret": "f68cb05fc3","title": "Chinese New Year-50","loc": {"type": "Point","coordinates": [103.84277,1.284262]}} 
{"id": "8430904563","server": "8362","farm": "9","userId": "94459908@N00","secret": "49d41b39eb","title": "Chinese New Year-10","loc": {"type": "Point","coordinates": [103.84277,1.284262]}} 
{"id": "8430905875","server": "8327","farm": "9","userId": "94459908@N00","secret": "7afea79bc6","title": "Chinese New Year-56","loc": {"type": "Point","coordinates": [103.84277,1.284262]}} 
{"id": "8431988576","server": "8501","farm": "9","userId": "94459908@N00","secret": "703f0a8e48","title": "Chinese New Year-4","loc": {"type": "Point","coordinates": [103.84277,1.284262]}} 
{"id": "8431990284","server": "8499","farm": "9","userId": "94459908@N00","secret": "2c457acc54","title": "Chinese New Year-20","loc": {"type": "Point","coordinates": [103.84277,1.284262]}} 
{"id": "8418567835","server": "8230","farm": "9","userId": "20390873@N05","secret": "8170272566","title": "We're all winners","loc": {"type": "Point","coordinates": [103.839165,1.284262]}} 
{"id": "8388764866","server": "8467","farm": "9","userId": "51489026@N02","secret": "798e14229b","title": "The sleeper","loc": {"type": "Point","coordinates": [103.84085,1.287202]}} 
{"id": "8362466307","server": "8372","farm": "9","userId": "91526647@N02","secret": "294e6800bd","title": "friend.","loc": {"type": "Point","coordinates": [103.83902,1.284437]}} 
{"id": "8288066468","server": "8223","farm": "9","userId": "29693607@N00","secret": "a499b26f64","title": "杨支干露","loc": {"type": "Point","coordinates": [103.8427,1.285574]}} 
{"id": "8288066536","server": "8496","farm": "9","userId": "29693607@N00","secret": "aaba7df27c","title": "Temple roof","loc": {"type": "Point","coordinates": [103.8427,1.285574]}} 
{"id": "8265859681","server": "8500","farm": "9","userId": "22518454@N05","secret": "f6c61876ea","title": "Abalone seafood laksa","loc": {"type": "Point","coordinates": [103.838524,1.285268]}} 
{"id": "8258241038","server": "8364","farm": "9","userId": "86310994@N02","secret": "e2b9b016b9","title": "NO durians!","loc": {"type": "Point","coordinates": [103.83895,1.285785]}} 
{"id": "8245711283","server": "8197","farm": "9","userId": "69921557@N00","secret": "c624f11253","title": "upload","loc": {"type": "Point","coordinates": [103.83948,1.287169]}} 
{"id": "8204865669","server": "8199","farm": "9","userId": "11547490@N03","secret": "14a3f6a43e","title": "RVPS Retro Groove Night @ Hotel Re!","loc": {"type": "Point","coordinates": [103.83889,1.28548]}} 
{"id": "8197913973","server": "8200","farm": "9","userId": "54722042@N06","secret": "0c2dae0e90","title": "Chinatown Singapore","loc": {"type": "Point","coordinates": [103.84277,1.284777]}} 
{"id": "8197912467","server": "8489","farm": "9","userId": "54722042@N06","secret": "d287554028","title": "Pagoda St","loc": {"type": "Point","coordinates": [103.84277,1.284777]}} 
{"id": "8195881002","server": "8482","farm": "9","userId": "65778609@N03","secret": "d8f314416a","title": "Chinatown","loc": {"type": "Point","coordinates": [103.84166,1.286837]}} 
{"id": "8194788597","server": "8337","farm": "9","userId": "65778609@N03","secret": "ce3395c3b3","title": "Chinatown","loc": {"type": "Point","coordinates": [103.84166,1.286837]}} 
{"id": "8153521252","server": "7280","farm": "8","userId": "46157516@N06","secret": "feb0744b46","title": "People's Park Complex","loc": {"type": "Point","coordinates": [103.84275,1.284348]}} 
{"id": "8108238462","server": "8464","farm": "9","userId": "12118189@N08","secret": "3a36e5b70b","title": "5th SKWWPW-SG: 'Busy Corner'","loc": {"type": "Point","coordinates": [103.842735,1.284906]}} 
{"id": "8105644605","server": "8472","farm": "9","userId": "29060510@N04","secret": "26f3e22a31","title": "King of fruits - Durian","loc": {"type": "Point","coordinates": [103.84265,1.284262]}} 
