{"id": "8810420893","server": "2823","farm": "3","userId": "37131708@N07","secret": "8e5d1be343","title": "upload","loc": {"type": "Point","coordinates": [103.86895,1.289583]}} 
{"id": "8714147836","server": "8130","farm": "9","userId": "66358983@N07","secret": "c4c09940bf","title": "Pin Tailed Whydah Bird 2","loc": {"type": "Point","coordinates": [103.86916,1.288333]}} 
{"id": "8707071102","server": "8405","farm": "9","userId": "66358983@N07","secret": "a5a9232e98","title": "Pin Tailed Whydah Bird","loc": {"type": "Point","coordinates": [103.86923,1.2884]}} 
{"id": "8560523462","server": "8246","farm": "9","userId": "9514792@N06","secret": "f3b58e9ce2","title": "2013 Chingay  [ Fire in Snow 雪中火 ]__8538","loc": {"type": "Point","coordinates": [103.86487,1.290169]}} 
{"id": "8533838654","server": "8104","farm": "9","userId": "56292794@N02","secret": "16cf907e38","title": "20130303_Singapore_0071","loc": {"type": "Point","coordinates": [103.86937,1.28756]}} 
{"id": "8526131287","server": "8524","farm": "9","userId": "56292794@N02","secret": "a73c92d091","title": "20130303_Singapore_0075","loc": {"type": "Point","coordinates": [103.86937,1.28756]}} 
{"id": "8527260082","server": "8388","farm": "9","userId": "56292794@N02","secret": "c5e3cf1fbc","title": "20130303_Singapore_0024","loc": {"type": "Point","coordinates": [103.86937,1.28756]}} 
{"id": "8526120133","server": "8246","farm": "9","userId": "56292794@N02","secret": "b794551b3f","title": "20130303_Singapore_0077","loc": {"type": "Point","coordinates": [103.86937,1.28756]}} 
{"id": "8353367430","server": "8084","farm": "9","userId": "91309073@N03","secret": "b77de6fb8a","title": "Stillness","loc": {"type": "Point","coordinates": [103.86533,1.288166]}} 
{"id": "8340119705","server": "8357","farm": "9","userId": "44459794@N00","secret": "ac747226ee","title": "","loc": {"type": "Point","coordinates": [103.868706,1.290248]}} 
{"id": "8140718209","server": "8464","farm": "9","userId": "25777909@N00","secret": "e73a54a28f","title": "From this side","loc": {"type": "Point","coordinates": [103.8696,1.289668]}} 
{"id": "9431827825","server": "2854","farm": "3","userId": "45680334@N05","secret": "bc098bc601","title": "DSC04660","loc": {"type": "Point","coordinates": [103.8688,1.28841]}} 
{"id": "9404612862","server": "3687","farm": "4","userId": "97464780@N02","secret": "b65abb7aaa","title": "","loc": {"type": "Point","coordinates": [103.86529,1.289824]}} 
{"id": "9404656810","server": "7347","farm": "8","userId": "97464780@N02","secret": "7d7693bdf1","title": "","loc": {"type": "Point","coordinates": [103.86918,1.287675]}} 
{"id": "9404550442","server": "3728","farm": "4","userId": "97464780@N02","secret": "3e1b5137e9","title": "","loc": {"type": "Point","coordinates": [103.86533,1.289697]}} 
{"id": "9404553356","server": "5329","farm": "6","userId": "97464780@N02","secret": "45d1fa9287","title": "","loc": {"type": "Point","coordinates": [103.86533,1.289697]}} 
{"id": "9348608529","server": "7418","farm": "8","userId": "57735144@N08","secret": "db306e60ce","title": "花火 Fireworks Display","loc": {"type": "Point","coordinates": [103.868996,1.288124]}} 
{"id": "9351390736","server": "3685","farm": "4","userId": "57735144@N08","secret": "6d7e43e69a","title": "花火 Fireworks Display","loc": {"type": "Point","coordinates": [103.868996,1.288124]}} 
{"id": "9348610103","server": "5480","farm": "6","userId": "57735144@N08","secret": "a749d4c676","title": "花火 Fireworks Display","loc": {"type": "Point","coordinates": [103.868996,1.288124]}} 
{"id": "9348608065","server": "5490","farm": "6","userId": "57735144@N08","secret": "fba6964681","title": "花火 Fireworks Display","loc": {"type": "Point","coordinates": [103.868996,1.288124]}} 
{"id": "9348611239","server": "5348","farm": "6","userId": "57735144@N08","secret": "1b67ec2d47","title": "花火 Fireworks Display","loc": {"type": "Point","coordinates": [103.868996,1.288124]}} 
{"id": "9348612419","server": "5481","farm": "6","userId": "57735144@N08","secret": "e39286b4aa","title": "花火 Fireworks Display","loc": {"type": "Point","coordinates": [103.868996,1.288124]}} 
{"id": "9348613263","server": "2858","farm": "3","userId": "57735144@N08","secret": "ebcce77f5b","title": "花火 Fireworks Display","loc": {"type": "Point","coordinates": [103.868996,1.288124]}} 
{"id": "9351394596","server": "3805","farm": "4","userId": "57735144@N08","secret": "2dd57c36c2","title": "花火 Fireworks Display","loc": {"type": "Point","coordinates": [103.868996,1.288124]}} 
{"id": "9343283872","server": "2815","farm": "3","userId": "45680334@N05","secret": "c910d4b058","title": "DSC04470","loc": {"type": "Point","coordinates": [103.867836,1.29028]}} 
{"id": "9333376834","server": "5548","farm": "6","userId": "57735144@N08","secret": "0c472412fc","title": "Marina Bay Blue Hour Magic","loc": {"type": "Point","coordinates": [103.868996,1.288124]}} 
{"id": "9330583511","server": "5520","farm": "6","userId": "57735144@N08","secret": "03905e0101","title": "Kid Cycling","loc": {"type": "Point","coordinates": [103.868996,1.288124]}} 
{"id": "9327494160","server": "3706","farm": "4","userId": "45680334@N05","secret": "4b885715b8","title": "Cloud Forest","loc": {"type": "Point","coordinates": [103.86892,1.28823]}} 
{"id": "9230654958","server": "2889","farm": "3","userId": "91963736@N02","secret": "a6470021e3","title": "upload","loc": {"type": "Point","coordinates": [103.86895,1.289583]}} 
{"id": "9098666072","server": "7286","farm": "8","userId": "66358983@N07","secret": "22bd704028","title": "","loc": {"type": "Point","coordinates": [103.869064,1.287983]}} 
{"id": "8968513110","server": "8123","farm": "9","userId": "45680334@N05","secret": "1330f986d8","title": "Marina Bay Singapore","loc": {"type": "Point","coordinates": [103.86938,1.288724]}} 
{"id": "8908299555","server": "3761","farm": "4","userId": "10451744@N06","secret": "6860ed1050","title": "Sundown Marathon 2013","loc": {"type": "Point","coordinates": [103.869,1.287999]}} 
{"id": "8822586980","server": "5460","farm": "6","userId": "67024773@N06","secret": "abb95bd6bd","title": "The Last Sunset of 2012","loc": {"type": "Point","coordinates": [103.87019,1.287587]}} 
{"id": "8822584338","server": "8407","farm": "9","userId": "67024773@N06","secret": "a03b8cc059","title": "Marina Bay","loc": {"type": "Point","coordinates": [103.87019,1.287587]}} 
{"id": "8810436701","server": "3717","farm": "4","userId": "37131708@N07","secret": "52a44a0a3d","title": "upload","loc": {"type": "Point","coordinates": [103.86895,1.289583]}} 
{"id": "8810441273","server": "7452","farm": "8","userId": "37131708@N07","secret": "261c5162d3","title": "upload","loc": {"type": "Point","coordinates": [103.86895,1.289583]}} 
{"id": "8799695277","server": "7395","farm": "8","userId": "66358983@N07","secret": "84b6043010","title": "Heron in a Tree","loc": {"type": "Point","coordinates": [103.86972,1.289316]}} 
{"id": "8713044025","server": "8414","farm": "9","userId": "66358983@N07","secret": "5268fffc4c","title": "Pin Tailed Whydah Bird 3","loc": {"type": "Point","coordinates": [103.86916,1.288611]}} 
{"id": "8647776554","server": "8122","farm": "9","userId": "66358983@N07","secret": "6ac755cbfb","title": "Crow","loc": {"type": "Point","coordinates": [103.86916,1.288333]}} 
{"id": "8605823614","server": "8108","farm": "9","userId": "74006149@N07","secret": "b9abbdb707","title": "The rain is coming! #sg","loc": {"type": "Point","coordinates": [103.86895,1.289583]}} 
{"id": "8584794902","server": "8373","farm": "9","userId": "66358983@N07","secret": "f6c6c6a698","title": "Bath Time","loc": {"type": "Point","coordinates": [103.8694,1.288639]}} 
{"id": "8581422187","server": "8522","farm": "9","userId": "66358983@N07","secret": "9de74b5f6d","title": "Moorhen","loc": {"type": "Point","coordinates": [103.86933,1.2875]}} 
{"id": "8564085214","server": "8250","farm": "9","userId": "54615328@N00","secret": "aedf885fe0","title": "Dragon Boats","loc": {"type": "Point","coordinates": [103.86645,1.287394]}} 
{"id": "8561645405","server": "8085","farm": "9","userId": "31081742@N07","secret": "e7e34a286f","title": "glorious sunset","loc": {"type": "Point","coordinates": [103.869896,1.287523]}} 
{"id": "8561473659","server": "8529","farm": "9","userId": "31081742@N07","secret": "3293a30e9c","title": "lightening over singapore","loc": {"type": "Point","coordinates": [103.86903,1.288896]}} 
{"id": "8526189737","server": "8521","farm": "9","userId": "56292794@N02","secret": "b42b1b8211","title": "20130303_Singapore_0009","loc": {"type": "Point","coordinates": [103.86937,1.28756]}} 
{"id": "8527282544","server": "8228","farm": "9","userId": "56292794@N02","secret": "8205769052","title": "20130303_Singapore_0010","loc": {"type": "Point","coordinates": [103.86937,1.28756]}} 
{"id": "8471277242","server": "8228","farm": "9","userId": "77114385@N07","secret": "72cafd388a","title": "IMG_1292f","loc": {"type": "Point","coordinates": [103.87019,1.287742]}} 
{"id": "8470184631","server": "8373","farm": "9","userId": "77114385@N07","secret": "f6b0a59ba8","title": "IMG_1261f","loc": {"type": "Point","coordinates": [103.86997,1.287741]}} 
{"id": "8456825991","server": "8225","farm": "9","userId": "66358983@N07","secret": "11f9ab087b","title": "Young Monitor Lizard","loc": {"type": "Point","coordinates": [103.86961,1.287533]}} 
{"id": "8440952185","server": "8378","farm": "9","userId": "21036459@N05","secret": "d4ba384a6a","title": "Marina Bay Sands, Singapore","loc": {"type": "Point","coordinates": [103.870026,1.288596]}} 
{"id": "8440952015","server": "8511","farm": "9","userId": "21036459@N05","secret": "ecd04097f3","title": "Marina Bay Sands Hotel, Singapore","loc": {"type": "Point","coordinates": [103.870026,1.288596]}} 
{"id": "8442045510","server": "8513","farm": "9","userId": "21036459@N05","secret": "927bb532da","title": "Marina Bay Sands Hotel, Singapore","loc": {"type": "Point","coordinates": [103.870026,1.288596]}} 
{"id": "8442045378","server": "8366","farm": "9","userId": "21036459@N05","secret": "55fcf636fd","title": "Marina Bay Sands Hotel, Singapore","loc": {"type": "Point","coordinates": [103.870026,1.288596]}} 
{"id": "8433638525","server": "8517","farm": "9","userId": "66358983@N07","secret": "8fe54a55a8","title": "Walkies 'Not'","loc": {"type": "Point","coordinates": [103.868164,1.289999]}} 
{"id": "8346456278","server": "8358","farm": "9","userId": "30983068@N06","secret": "2c3cff2023","title": "IMG_0001.jpg","loc": {"type": "Point","coordinates": [103.86926,1.287602]}} 
{"id": "8332952541","server": "8222","farm": "9","userId": "44459794@N00","secret": "2a56687b0c","title": "","loc": {"type": "Point","coordinates": [103.86845,1.288982]}} 
{"id": "8333920382","server": "8356","farm": "9","userId": "70108735@N06","secret": "7fba132437","title": "Marina Bay view (pano)","loc": {"type": "Point","coordinates": [103.86908,1.287909]}} 
{"id": "8332623879","server": "8079","farm": "9","userId": "48412889@N02","secret": "4214ee79c8","title": "Sunset at Marina Bay","loc": {"type": "Point","coordinates": [103.86903,1.288338]}} 
{"id": "8332624651","server": "8493","farm": "9","userId": "48412889@N02","secret": "218b7aea81","title": "Marina Bay in Blue","loc": {"type": "Point","coordinates": [103.86994,1.287866]}} 
{"id": "8332059761","server": "8364","farm": "9","userId": "66358983@N07","secret": "fd642a5eec","title": "Sunbird","loc": {"type": "Point","coordinates": [103.86967,1.289499]}} 
{"id": "8296616456","server": "8213","farm": "9","userId": "66358983@N07","secret": "e7d20100aa","title": "Sunbird","loc": {"type": "Point","coordinates": [103.86912,1.287883]}} 
{"id": "8293255575","server": "8497","farm": "9","userId": "66358983@N07","secret": "4ab3bace9d","title": "","loc": {"type": "Point","coordinates": [103.869316,1.2882]}} 
{"id": "8288071136","server": "8082","farm": "9","userId": "29693607@N00","secret": "644e7740af","title": "Helicopters carrying the Singapore flag flies past the Conservatory Domes of the Gardens by the Bay during the preview of the National Day Parade 2012.","loc": {"type": "Point","coordinates": [103.86835,1.289205]}} 
{"id": "8287012501","server": "8343","farm": "9","userId": "29693607@N00","secret": "0bb0080c65","title": "Lone photographer","loc": {"type": "Point","coordinates": [103.86895,1.289583]}} 
{"id": "8280227357","server": "8357","farm": "9","userId": "50499036@N02","secret": "194c4caaec","title": "Singapore Flyer","loc": {"type": "Point","coordinates": [103.86555,1.288081]}} 
{"id": "8280232379","server": "8491","farm": "9","userId": "50499036@N02","secret": "692d40d32e","title": "The Flyer fr. Duck Boat","loc": {"type": "Point","coordinates": [103.86611,1.28984]}} 
{"id": "8261099526","server": "8080","farm": "9","userId": "82167220@N06","secret": "78cf9bb466","title": "IMAG1042","loc": {"type": "Point","coordinates": [103.86929,1.287622]}} 
{"id": "8261046744","server": "8057","farm": "9","userId": "82167220@N06","secret": "f9c95536a0","title": "IMAG1039","loc": {"type": "Point","coordinates": [103.86929,1.287599]}} 
{"id": "8259979731","server": "8064","farm": "9","userId": "82167220@N06","secret": "f4ae541d05","title": "IMAG1040","loc": {"type": "Point","coordinates": [103.869316,1.287599]}} 
{"id": "8236478017","server": "8338","farm": "9","userId": "66358983@N07","secret": "1877ecb8b4","title": "Sasa","loc": {"type": "Point","coordinates": [103.869415,1.288249]}} 
{"id": "8234443340","server": "8057","farm": "9","userId": "66358983@N07","secret": "e3bbbdcb4f","title": "Monitor Lizard","loc": {"type": "Point","coordinates": [103.8693,1.288166]}} 
{"id": "8234445290","server": "8068","farm": "9","userId": "66358983@N07","secret": "222981390a","title": "Two Young Moorhens","loc": {"type": "Point","coordinates": [103.86933,1.288183]}} 
{"id": "8233378077","server": "8342","farm": "9","userId": "66358983@N07","secret": "a05c22498f","title": "Agamid Lizard","loc": {"type": "Point","coordinates": [103.86958,1.289083]}} 
{"id": "8232402384","server": "8344","farm": "9","userId": "62183684@N04","secret": "448671e1be","title": "","loc": {"type": "Point","coordinates": [103.86903,1.289153]}} 
{"id": "8231277815","server": "8057","farm": "9","userId": "62183684@N04","secret": "fa22499b35","title": "","loc": {"type": "Point","coordinates": [103.86921,1.288467]}} 
{"id": "8231278323","server": "8340","farm": "9","userId": "62183684@N04","secret": "1f639c2247","title": "Gardens by the bay","loc": {"type": "Point","coordinates": [103.868095,1.290355]}} 
{"id": "8231278037","server": "8481","farm": "9","userId": "62183684@N04","secret": "4dcc665c48","title": "","loc": {"type": "Point","coordinates": [103.86869,1.290012]}} 
{"id": "8232341118","server": "8339","farm": "9","userId": "62183684@N04","secret": "e229b4bcec","title": "","loc": {"type": "Point","coordinates": [103.86929,1.28881]}} 
{"id": "8231277949","server": "8206","farm": "9","userId": "62183684@N04","secret": "217ff57454","title": "","loc": {"type": "Point","coordinates": [103.86852,1.290183]}} 
{"id": "8232340990","server": "8203","farm": "9","userId": "62183684@N04","secret": "768757e0ae","title": "","loc": {"type": "Point","coordinates": [103.86929,1.28821]}} 
{"id": "8192301709","server": "8343","farm": "9","userId": "58196275@N04","secret": "5d62132b2d","title": "Sunrise - Garden By The Bay","loc": {"type": "Point","coordinates": [103.86493,1.290355]}} 
{"id": "8191681371","server": "8341","farm": "9","userId": "66358983@N07","secret": "3b138e047c","title": "Moorhen","loc": {"type": "Point","coordinates": [103.869385,1.288233]}} 
{"id": "8182258768","server": "8338","farm": "9","userId": "77114385@N07","secret": "4dd79b3fdf","title": "IMG_8717f","loc": {"type": "Point","coordinates": [103.86786,1.28984]}} 
{"id": "8182219919","server": "8486","farm": "9","userId": "77114385@N07","secret": "eabf658e28","title": "Singapore - Panorama view from Marina Barrage","loc": {"type": "Point","coordinates": [103.86485,1.29014]}} 
{"id": "8175026547","server": "8490","farm": "9","userId": "59265565@N07","secret": "c65fcef7d0","title": "Sunset @ Tanjong Rhu","loc": {"type": "Point","coordinates": [103.869255,1.288338]}} 
