{"id": "9384984900","server": "2846","farm": "3","userId": "57745596@N00","secret": "787284abb2","title": "Signature pizza #Instagram #photography #ig #iphonegraphy #instagramhub #iphonesia #asia #instagifted #instago #instagood #instamood #instagold #singapore #dailycomp #photooftheday #travel #travels #bestoftheday #iphoneography #sgig #instasg #webstagram #","loc": {"type": "Point","coordinates": [103.819984,1.255261]}} 
{"id": "9381508199","server": "2831","farm": "3","userId": "57745596@N00","secret": "88ca6fcd2d","title": "Burundi french press #Instagram #photography #ig #iphonegraphy #instagramhub #iphonesia #asia #instagifted #instago #instagood #instamood #instagold #singapore #dailycomp #photooftheday #travel #travels #bestoftheday #iphoneography #sgig #instasg #webstag","loc": {"type": "Point","coordinates": [103.82027,1.256474]}} 
{"id": "9207616200","server": "7322","farm": "8","userId": "52582306@N03","secret": "e02f28785d","title": "沙漠玫瑰(天寶花) Adenium obesum [新加坡 Sentosa, Singapore]","loc": {"type": "Point","coordinates": [103.81986,1.256177]}} 
{"id": "9207627616","server": "3712","farm": "4","userId": "52582306@N03","secret": "7eac7215d9","title": "紅花月桃(紅薑花) Alpinia purpurata [新加坡 Sentosa, Singapore]","loc": {"type": "Point","coordinates": [103.81986,1.256177]}} 
{"id": "9207630940","server": "3788","farm": "4","userId": "52582306@N03","secret": "dde84b7344","title": "紅雞蛋花 Plumeria rubra [新加坡 Sentosa, Singapore]","loc": {"type": "Point","coordinates": [103.81986,1.256177]}} 
{"id": "9141107749","server": "5525","farm": "6","userId": "55413882@N00","secret": "c98b0641a7","title": "Us, at twilight.","loc": {"type": "Point","coordinates": [103.81914,1.254021]}} 
{"id": "9141100097","server": "7291","farm": "8","userId": "55413882@N00","secret": "972522e73b","title": "Merlion at twilight. #merlion #sentosa #twilight","loc": {"type": "Point","coordinates": [103.81914,1.254021]}} 
{"id": "9131112175","server": "2816","farm": "3","userId": "55413882@N00","secret": "6a91330e45","title": "Idris, first time in a hotel. #festivehotel #staycation #sentosa","loc": {"type": "Point","coordinates": [103.81887,1.256031]}} 
{"id": "8908187648","server": "5346","farm": "6","userId": "55093020@N03","secret": "6e09b4e3ef","title": "ตัวอะไร รู้มั้ยเอ่ย? #Merlion #Singapore #CBD #Sentosa #mythical #creature with the #head of a #lion and the #body of a #fish #mascot #trademark","loc": {"type": "Point","coordinates": [103.81914,1.254021]}} 
{"id": "8838915423","server": "5462","farm": "6","userId": "95911167@N05","secret": "10c819671a","title": "IMG_0099","loc": {"type": "Point","coordinates": [103.81733,1.255333]}} 
{"id": "8799898572","server": "8396","farm": "9","userId": "16253319@N00","secret": "a217fa56df","title": "Toto lavabo","loc": {"type": "Point","coordinates": [103.819534,1.25343]}} 
{"id": "8799897356","server": "7450","farm": "8","userId": "16253319@N00","secret": "a26dba4be5","title": "Hotel room","loc": {"type": "Point","coordinates": [103.819534,1.25343]}} 
{"id": "8741469823","server": "7294","farm": "8","userId": "28704898@N00","secret": "e0a36f1744","title": "Head and shoulders","loc": {"type": "Point","coordinates": [103.817665,1.255227]}} 
{"id": "8684345341","server": "8257","farm": "9","userId": "85343868@N03","secret": "e456821b31","title": "DSC_0507-_V10","loc": {"type": "Point","coordinates": [103.81727,1.255484]}} 
{"id": "8684346641","server": "8125","farm": "9","userId": "85343868@N03","secret": "de8417b16b","title": "DSC_0068-_J10","loc": {"type": "Point","coordinates": [103.81727,1.255484]}} 
{"id": "8684345747","server": "8533","farm": "9","userId": "85343868@N03","secret": "10a002804c","title": "DSC_0494-_V10","loc": {"type": "Point","coordinates": [103.81727,1.255484]}} 
{"id": "8685462336","server": "8118","farm": "9","userId": "85343868@N03","secret": "b9730d4250","title": "DSC_0527-_J10","loc": {"type": "Point","coordinates": [103.81727,1.255484]}} 
{"id": "9433503270","server": "5340","farm": "6","userId": "90876244@N04","secret": "236bb30d90","title": "Sentosa! #KateDates #K8 #OutOfTheOffice","loc": {"type": "Point","coordinates": [103.82077,1.255764]}} 
{"id": "9428053061","server": "7327","farm": "8","userId": "74006149@N07","secret": "6d488a2e33","title": "Relac Lah @skl0_ is awesome #streetart #stickerlady","loc": {"type": "Point","coordinates": [103.81965,1.253564]}} 
{"id": "9377969168","server": "5442","farm": "6","userId": "84448690@N06","secret": "fbe24b1537","title": "Merlion statue","loc": {"type": "Point","coordinates": [103.81996,1.254594]}} 
{"id": "9375188651","server": "7345","farm": "8","userId": "84448690@N06","secret": "6c40666548","title": "Sentosa sculpture","loc": {"type": "Point","coordinates": [103.82003,1.254637]}} 
{"id": "9370460286","server": "7356","farm": "8","userId": "39952962@N00","secret": "679ffb1b4b","title": "Afternoon thunderstorms approaching","loc": {"type": "Point","coordinates": [103.81953,1.254472]}} 
{"id": "9349684094","server": "3795","farm": "4","userId": "12166501@N00","secret": "65e2d74b27","title": "#instagram #foody #instafood #instamood #instadaily #yummy #tummyfiller #goody #rws #osia","loc": {"type": "Point","coordinates": [103.82033,1.25572]}} 
{"id": "9346888101","server": "5445","farm": "6","userId": "12166501@N00","secret": "584da65113","title": "#instagram #foody #instafood #instamood #instadaily #yummy #tummyfiller #goody #rws #osia","loc": {"type": "Point","coordinates": [103.82033,1.25572]}} 
{"id": "9349681112","server": "2840","farm": "3","userId": "12166501@N00","secret": "3fcfda7ab4","title": "#instagram #foody #instafood #instamood #instadaily #yummy #tummyfiller #goody #rws #osia","loc": {"type": "Point","coordinates": [103.82033,1.25572]}} 
{"id": "9349677276","server": "5449","farm": "6","userId": "12166501@N00","secret": "736851ba32","title": "#instagram #foody #instafood #instamood #instadaily #yummy #tummyfiller #goody #rws #osia","loc": {"type": "Point","coordinates": [103.82033,1.25572]}} 
{"id": "9346891407","server": "3700","farm": "4","userId": "12166501@N00","secret": "e99ced2e26","title": "#instagram #foody #instafood #instamood #instadaily #yummy #tummyfiller #goody #rws #osia","loc": {"type": "Point","coordinates": [103.82033,1.25572]}} 
{"id": "9349584202","server": "3707","farm": "4","userId": "12166501@N00","secret": "bbcf147f66","title": "#instagram #foody #instafood #instamood #instadaily #yummy #tummyfiller #goody #rws #osia","loc": {"type": "Point","coordinates": [103.82033,1.25572]}} 
{"id": "9349587208","server": "7315","farm": "8","userId": "12166501@N00","secret": "8b73e5887b","title": "#instagram #foody #instafood #instamood #instadaily #yummy #tummyfiller #goody #osia #rws","loc": {"type": "Point","coordinates": [103.82033,1.25572]}} 
{"id": "9346786007","server": "7372","farm": "8","userId": "12166501@N00","secret": "1af123d534","title": "#instagram #foody #instafood #instamood #instadaily #yummy #tummyfiller #goody #rws #osia","loc": {"type": "Point","coordinates": [103.82033,1.25572]}} 
{"id": "9349562174","server": "7442","farm": "8","userId": "12166501@N00","secret": "e4ba994150","title": "#instagram #foody #instafood #instamood #instadaily #yummy #tummyfiller #goody #osia #rws","loc": {"type": "Point","coordinates": [103.82033,1.25572]}} 
{"id": "9349576278","server": "5324","farm": "6","userId": "12166501@N00","secret": "fd00658b2a","title": "#instagram #foody #instafood #instamood #instadaily #yummy #tummyfiller #goody #rws #osia","loc": {"type": "Point","coordinates": [103.82033,1.25572]}} 
{"id": "9349567434","server": "5342","farm": "6","userId": "12166501@N00","secret": "fb46b8f06d","title": "#instagram #foody #instafood #instamood #instadaily #yummy #tummyfiller #goody #rws #osia","loc": {"type": "Point","coordinates": [103.82033,1.25572]}} 
{"id": "9346775143","server": "7302","farm": "8","userId": "12166501@N00","secret": "5f88ca51a0","title": "#instagram #foody #instafood #instamood #instadaily #yummy #tummyfiller #goody #rws #osia","loc": {"type": "Point","coordinates": [103.82033,1.25572]}} 
{"id": "9346730693","server": "2857","farm": "3","userId": "12166501@N00","secret": "5d5743bc8d","title": "#instagram #foody #instafood #instamood #instadaily #yummy #tummyfiller #goody #rws #osia","loc": {"type": "Point","coordinates": [103.82033,1.25572]}} 
{"id": "9349520152","server": "3747","farm": "4","userId": "12166501@N00","secret": "35d2a9ac2b","title": "#instagram #foody #instafood #instamood #instadaily #yummy #tummyfiller #goody #rws #osia","loc": {"type": "Point","coordinates": [103.82033,1.25572]}} 
{"id": "9349512706","server": "3682","farm": "4","userId": "12166501@N00","secret": "61c2e2c182","title": "#instagram #foody #instafood #instamood #instadaily #yummy #tummyfiller #goody #rws #osia","loc": {"type": "Point","coordinates": [103.82033,1.25572]}} 
{"id": "9346703199","server": "3714","farm": "4","userId": "12166501@N00","secret": "94b1dffe1d","title": "#instagram #foody #instafood #instamood #instadaily #yummy #tummyfiller #goody","loc": {"type": "Point","coordinates": [103.82033,1.25572]}} 
{"id": "9346737905","server": "7402","farm": "8","userId": "12166501@N00","secret": "d29c518b04","title": "#instagram #foody #instafood #instamood #instadaily #yummy #tummyfiller #goody #rws #osia","loc": {"type": "Point","coordinates": [103.82033,1.25572]}} 
{"id": "9346686325","server": "3714","farm": "4","userId": "12166501@N00","secret": "afcd08d229","title": "#instagram #foody #instafood #instamood #instadaily #yummy #tummyfiller #goody","loc": {"type": "Point","coordinates": [103.82033,1.25572]}} 
{"id": "9346690441","server": "3816","farm": "4","userId": "12166501@N00","secret": "48f782299c","title": "#instagram #foody #instafood #instamood #instadaily #yummy #tummyfiller #goody","loc": {"type": "Point","coordinates": [103.82033,1.25572]}} 
{"id": "9349480116","server": "3787","farm": "4","userId": "12166501@N00","secret": "c44347a6d3","title": "#instagram #foody #instafood #instamood #instadaily #yummy #tummyfiller #goody","loc": {"type": "Point","coordinates": [103.82033,1.25572]}} 
{"id": "9300361437","server": "7314","farm": "8","userId": "51907839@N00","secret": "0273a190c8","title": "IMG_0142","loc": {"type": "Point","coordinates": [103.8208,1.2564]}} 
{"id": "9303109664","server": "2811","farm": "3","userId": "51907839@N00","secret": "c2317403e8","title": "IMG_0141","loc": {"type": "Point","coordinates": [103.82066,1.256167]}} 
{"id": "9303061082","server": "2812","farm": "3","userId": "51907839@N00","secret": "76261956a1","title": "IMG_0140","loc": {"type": "Point","coordinates": [103.8205,1.256167]}} 
{"id": "9300275437","server": "7365","farm": "8","userId": "51907839@N00","secret": "4bbeeaf17a","title": "IMG_0138","loc": {"type": "Point","coordinates": [103.82017,1.256]}} 
{"id": "9257936781","server": "3739","farm": "4","userId": "12166501@N00","secret": "7e515ddbc4","title": "#instagram #instamood #instadaily #iphonephotooftheday #rws #iphone5","loc": {"type": "Point","coordinates": [103.82033,1.256479]}} 
{"id": "9235071125","server": "3782","farm": "4","userId": "48784929@N03","secret": "030a78a1d7","title": "With #intrepidfamily on our big day out for @kaiasays' birthday #365/189 @mairinraisdana","loc": {"type": "Point","coordinates": [103.82064,1.256439]}} 
{"id": "9229608648","server": "3818","farm": "4","userId": "14385475@N05","secret": "9defe23d7d","title": "IMG_8805","loc": {"type": "Point","coordinates": [103.815834,1.2555]}} 
{"id": "9226820147","server": "7448","farm": "8","userId": "14385475@N05","secret": "7675650990","title": "IMG_8797","loc": {"type": "Point","coordinates": [103.81633,1.255166]}} 
{"id": "9229603480","server": "2890","farm": "3","userId": "14385475@N05","secret": "3a8d327a06","title": "IMG_8798","loc": {"type": "Point","coordinates": [103.816,1.2555]}} 
{"id": "9229570360","server": "3807","farm": "4","userId": "14385475@N05","secret": "85b4582450","title": "IMG_8771","loc": {"type": "Point","coordinates": [103.815834,1.2555]}} 
{"id": "9226828399","server": "7283","farm": "8","userId": "14385475@N05","secret": "9db11be305","title": "IMG_8801","loc": {"type": "Point","coordinates": [103.815834,1.2555]}} 
{"id": "9226822635","server": "3732","farm": "4","userId": "14385475@N05","secret": "59f8531af6","title": "IMG_8803","loc": {"type": "Point","coordinates": [103.816,1.2555]}} 
{"id": "9226824189","server": "7330","farm": "8","userId": "14385475@N05","secret": "4551f88579","title": "IMG_8799","loc": {"type": "Point","coordinates": [103.815834,1.2555]}} 
{"id": "9229607656","server": "3685","farm": "4","userId": "14385475@N05","secret": "63d0a68eda","title": "IMG_8800","loc": {"type": "Point","coordinates": [103.815834,1.2555]}} 
{"id": "9229571824","server": "3826","farm": "4","userId": "14385475@N05","secret": "ebcd3d02e9","title": "IMG_8772","loc": {"type": "Point","coordinates": [103.815834,1.255333]}} 
{"id": "9229569018","server": "3698","farm": "4","userId": "14385475@N05","secret": "53eaf8504b","title": "IMG_8770","loc": {"type": "Point","coordinates": [103.816,1.2555]}} 
{"id": "9229551140","server": "7289","farm": "8","userId": "14385475@N05","secret": "13fa718f1e","title": "IMG_8757","loc": {"type": "Point","coordinates": [103.819336,1.2535]}} 
{"id": "9229549576","server": "7377","farm": "8","userId": "14385475@N05","secret": "1c9e1c5f73","title": "IMG_8804","loc": {"type": "Point","coordinates": [103.819336,1.2535]}} 
{"id": "9226766145","server": "2838","farm": "3","userId": "14385475@N05","secret": "7a3a9c8273","title": "IMG_8754","loc": {"type": "Point","coordinates": [103.819336,1.2535]}} 
{"id": "9226764517","server": "5476","farm": "6","userId": "14385475@N05","secret": "02a889ce6c","title": "IMG_8753","loc": {"type": "Point","coordinates": [103.819336,1.2535]}} 
{"id": "9226782113","server": "7315","farm": "8","userId": "14385475@N05","secret": "cbb21977d0","title": "IMG_8767","loc": {"type": "Point","coordinates": [103.81633,1.255333]}} 
{"id": "9226772525","server": "2865","farm": "3","userId": "14385475@N05","secret": "74456487d8","title": "IMG_8759","loc": {"type": "Point","coordinates": [103.819336,1.2535]}} 
{"id": "9229567390","server": "5511","farm": "6","userId": "14385475@N05","secret": "51b866d357","title": "IMG_8769","loc": {"type": "Point","coordinates": [103.816,1.255833]}} 
{"id": "9226770939","server": "7368","farm": "8","userId": "14385475@N05","secret": "76b7b7d771","title": "IMG_8758","loc": {"type": "Point","coordinates": [103.819336,1.2535]}} 
{"id": "9229544740","server": "7340","farm": "8","userId": "14385475@N05","secret": "c676a78d48","title": "IMG_8751","loc": {"type": "Point","coordinates": [103.819336,1.2535]}} 
{"id": "9226774017","server": "5333","farm": "6","userId": "14385475@N05","secret": "e5852112fc","title": "IMG_8760","loc": {"type": "Point","coordinates": [103.819496,1.2535]}} 
{"id": "9229565668","server": "3696","farm": "4","userId": "14385475@N05","secret": "8560073a88","title": "IMG_8768","loc": {"type": "Point","coordinates": [103.816,1.256]}} 
{"id": "9229562548","server": "2829","farm": "3","userId": "14385475@N05","secret": "071bf0b803","title": "IMG_8766","loc": {"type": "Point","coordinates": [103.8165,1.255333]}} 
{"id": "9214642183","server": "2827","farm": "3","userId": "97705734@N02","secret": "39f08db1a1","title": "IMAG1081","loc": {"type": "Point","coordinates": [103.81937,1.254325]}} 
{"id": "9214659513","server": "2878","farm": "3","userId": "97705734@N02","secret": "e941bac55a","title": "IMAG1079","loc": {"type": "Point","coordinates": [103.81937,1.254338]}} 
{"id": "9198171955","server": "5344","farm": "6","userId": "52582306@N03","secret": "79e6fe56e9","title": "紫鶴花 Asystasia intrusa [新加坡 Sentosa, Singapore]","loc": {"type": "Point","coordinates": [103.81986,1.256177]}} 
{"id": "9200945568","server": "7429","farm": "8","userId": "52582306@N03","secret": "2c7b669372","title": "藍雪花 Plumbago capensis [新加坡 Sentosa, Singapore]","loc": {"type": "Point","coordinates": [103.81986,1.256177]}} 
{"id": "9164301426","server": "7312","farm": "8","userId": "24131681@N00","secret": "53048ebd01","title": "DSC00744","loc": {"type": "Point","coordinates": [103.819275,1.254255]}} 
{"id": "9152920888","server": "7295","farm": "8","userId": "30456413@N00","secret": "944b8f8722","title": "Singapore","loc": {"type": "Point","coordinates": [103.82017,1.255]}} 
{"id": "9148419174","server": "2869","farm": "3","userId": "96136457@N05","secret": "7306a62105","title": "P1010572.JPG","loc": {"type": "Point","coordinates": [103.8198,1.2558]}} 
{"id": "9148415492","server": "7392","farm": "8","userId": "96136457@N05","secret": "e06e33219c","title": "P1010574.JPG","loc": {"type": "Point","coordinates": [103.8198,1.2558]}} 
{"id": "9146188115","server": "5494","farm": "6","userId": "96136457@N05","secret": "a5fe19745f","title": "P1010571.JPG","loc": {"type": "Point","coordinates": [103.8198,1.2558]}} 
{"id": "9148414290","server": "2871","farm": "3","userId": "96136457@N05","secret": "932936ab15","title": "P1010577.JPG","loc": {"type": "Point","coordinates": [103.8198,1.2558]}} 
{"id": "9146188025","server": "2807","farm": "3","userId": "96136457@N05","secret": "20fdd01c65","title": "P1010575.JPG","loc": {"type": "Point","coordinates": [103.8198,1.2558]}} 
{"id": "9146188353","server": "3779","farm": "4","userId": "96136457@N05","secret": "124c15dcd9","title": "P1010578.JPG","loc": {"type": "Point","coordinates": [103.8198,1.2558]}} 
{"id": "9146190195","server": "3768","farm": "4","userId": "96136457@N05","secret": "8058dd077e","title": "P1010580.JPG","loc": {"type": "Point","coordinates": [103.819,1.2541]}} 
{"id": "9146188969","server": "3830","farm": "4","userId": "96136457@N05","secret": "7fb3cee170","title": "P1010582.JPG","loc": {"type": "Point","coordinates": [103.8189,1.2541]}} 
{"id": "9146196635","server": "7432","farm": "8","userId": "96136457@N05","secret": "bca8e887e2","title": "P1010581.JPG","loc": {"type": "Point","coordinates": [103.819,1.2541]}} 
{"id": "9148414648","server": "5339","farm": "6","userId": "96136457@N05","secret": "b39c7b692e","title": "P1010579.JPG","loc": {"type": "Point","coordinates": [103.819,1.2541]}} 
{"id": "9148424700","server": "5330","farm": "6","userId": "96136457@N05","secret": "18d14d6e88","title": "P1010576.JPG","loc": {"type": "Point","coordinates": [103.8198,1.2558]}} 
{"id": "9136867061","server": "5540","farm": "6","userId": "38909255@N03","secret": "eca53c7853","title": "When you see it you'll shit...","loc": {"type": "Point","coordinates": [103.81623,1.255674]}} 
{"id": "9132836336","server": "5498","farm": "6","userId": "12166501@N00","secret": "099a4aab06","title": "#starbucksreserve #iphone #instapic #instacool #instafood #instagood #instagram #iphonesia #instadaily #starbucks #rws","loc": {"type": "Point","coordinates": [103.82084,1.256443]}} 
{"id": "9105432329","server": "2810","farm": "3","userId": "91765621@N04","secret": "3d9ed7f482","title": "","loc": {"type": "Point","coordinates": [103.81914,1.254022]}} 
{"id": "9059336608","server": "7352","farm": "8","userId": "39265673@N05","secret": "8dc6d58736","title": "Pink!","loc": {"type": "Point","coordinates": [103.81737,1.254572]}} 
{"id": "9059336700","server": "5540","farm": "6","userId": "39265673@N05","secret": "d1be8c82c8","title": "Cable Car","loc": {"type": "Point","coordinates": [103.81737,1.254572]}} 
{"id": "9058792092","server": "5324","farm": "6","userId": "39265673@N05","secret": "e8f6361869","title": "Oh Hollywood!","loc": {"type": "Point","coordinates": [103.81737,1.254572]}} 
{"id": "9058798390","server": "3764","farm": "4","userId": "39265673@N05","secret": "c923fbd360","title": "The Props on the set","loc": {"type": "Point","coordinates": [103.81737,1.254572]}} 
{"id": "9056572919","server": "3746","farm": "4","userId": "39265673@N05","secret": "af8860040e","title": "Gone Terminal","loc": {"type": "Point","coordinates": [103.81737,1.254572]}} 
{"id": "9056576437","server": "5515","farm": "6","userId": "39265673@N05","secret": "cc32890b5a","title": "I think I'm Lost","loc": {"type": "Point","coordinates": [103.81737,1.254572]}} 
{"id": "9058787696","server": "5466","farm": "6","userId": "39265673@N05","secret": "f127053061","title": "Water World Set","loc": {"type": "Point","coordinates": [103.81737,1.254572]}} 
{"id": "9056565139","server": "5447","farm": "6","userId": "39265673@N05","secret": "d3df53be7f","title": "The Blast","loc": {"type": "Point","coordinates": [103.81737,1.254572]}} 
{"id": "9056573729","server": "7374","farm": "8","userId": "39265673@N05","secret": "1391fa5ec9","title": "Isn't It Knowledge","loc": {"type": "Point","coordinates": [103.81737,1.254572]}} 
{"id": "9058791252","server": "5490","farm": "6","userId": "39265673@N05","secret": "272ee062a7","title": "Yello Cab Taxi","loc": {"type": "Point","coordinates": [103.81737,1.254572]}} 
{"id": "9058789310","server": "3666","farm": "4","userId": "39265673@N05","secret": "fe98fe926c","title": "Water world Tower","loc": {"type": "Point","coordinates": [103.81737,1.254572]}} 
{"id": "9056493855","server": "7296","farm": "8","userId": "39265673@N05","secret": "0544e4ca6e","title": "Bumble Bee on the roof","loc": {"type": "Point","coordinates": [103.81737,1.254572]}} 
{"id": "9056493523","server": "2870","farm": "3","userId": "39265673@N05","secret": "009bbc213b","title": "Serving the gods","loc": {"type": "Point","coordinates": [103.81737,1.254572]}} 
{"id": "9056493727","server": "5502","farm": "6","userId": "39265673@N05","secret": "3d7469b531","title": "the face of Egyptian god","loc": {"type": "Point","coordinates": [103.81737,1.254572]}} 
{"id": "9056493461","server": "2893","farm": "3","userId": "39265673@N05","secret": "236546cddf","title": "the man on the gate","loc": {"type": "Point","coordinates": [103.81737,1.254572]}} 
{"id": "9056493355","server": "7345","farm": "8","userId": "39265673@N05","secret": "6b6b738f78","title": "golden crown","loc": {"type": "Point","coordinates": [103.81737,1.254572]}} 
{"id": "9056493581","server": "2844","farm": "3","userId": "39265673@N05","secret": "56278be0b9","title": "Egyptian god","loc": {"type": "Point","coordinates": [103.81737,1.254572]}} 
{"id": "9047542855","server": "7358","farm": "8","userId": "9454157@N08","secret": "8159676b38","title": "#merlion #sg","loc": {"type": "Point","coordinates": [103.81914,1.254021]}} 
{"id": "9045777087","server": "7312","farm": "8","userId": "91963736@N02","secret": "dbe8b9a1a3","title": "upload","loc": {"type": "Point","coordinates": [103.82068,1.255727]}} 
{"id": "9034936383","server": "5486","farm": "6","userId": "7131703@N03","secret": "683c931dfd","title": "IMG_2974","loc": {"type": "Point","coordinates": [103.82,1.254333]}} 
{"id": "9037160412","server": "7290","farm": "8","userId": "7131703@N03","secret": "ecfce6ac3e","title": "IMG_2973","loc": {"type": "Point","coordinates": [103.82,1.254333]}} 
{"id": "8993601299","server": "7456","farm": "8","userId": "25718534@N05","secret": "96ff0ee944","title": "wp82_130603_041","loc": {"type": "Point","coordinates": [103.81984,1.254077]}} 
{"id": "8992578581","server": "3755","farm": "4","userId": "95503244@N08","secret": "a026fbe068","title": "IMG_0277","loc": {"type": "Point","coordinates": [103.817665,1.255]}} 
{"id": "8993771906","server": "3676","farm": "4","userId": "95503244@N08","secret": "951a5e1e50","title": "IMG_0272","loc": {"type": "Point","coordinates": [103.817665,1.255]}} 
{"id": "8992578431","server": "7407","farm": "8","userId": "95503244@N08","secret": "cd3ca818cb","title": "IMG_0279","loc": {"type": "Point","coordinates": [103.817665,1.255]}} 
{"id": "8992577865","server": "7372","farm": "8","userId": "95503244@N08","secret": "5d0268a051","title": "IMG_0285","loc": {"type": "Point","coordinates": [103.819,1.253833]}} 
{"id": "8993771012","server": "3665","farm": "4","userId": "95503244@N08","secret": "36f01e24f5","title": "IMG_0283","loc": {"type": "Point","coordinates": [103.81917,1.254]}} 
{"id": "8992578219","server": "7305","farm": "8","userId": "95503244@N08","secret": "c7c7acb560","title": "IMG_0280","loc": {"type": "Point","coordinates": [103.81783,1.255]}} 
{"id": "8954475107","server": "2813","farm": "3","userId": "92593934@N04","secret": "beea34b6d5","title": "Above You Vol. 118","loc": {"type": "Point","coordinates": [103.82001,1.255237]}} 
{"id": "8944358052","server": "8550","farm": "9","userId": "37279068@N00","secret": "a1a15de302","title": "upload","loc": {"type": "Point","coordinates": [103.81623,1.255674]}} 
{"id": "8924632016","server": "3706","farm": "4","userId": "83592540@N07","secret": "e619b9eabe","title": "Mixed Photo in Singapore","loc": {"type": "Point","coordinates": [103.82083,1.255666]}} 
{"id": "8922977087","server": "3776","farm": "4","userId": "27193031@N05","secret": "fd03106be7","title": "IMG_0546","loc": {"type": "Point","coordinates": [103.82016,1.255988]}} 
{"id": "8915520414","server": "7447","farm": "8","userId": "58964175@N06","secret": "b8abc289d2","title": "SingaporeF1_2010_0926(042)","loc": {"type": "Point","coordinates": [103.81884,1.253714]}} 
{"id": "8914905387","server": "2865","farm": "3","userId": "58964175@N06","secret": "6f72a8ecc3","title": "SingaporeF1_2010_0926(040)","loc": {"type": "Point","coordinates": [103.81884,1.253714]}} 
{"id": "8915521846","server": "3804","farm": "4","userId": "58964175@N06","secret": "7dc5c55588","title": "SingaporeF1_2010_0926(041)","loc": {"type": "Point","coordinates": [103.81884,1.253714]}} 
{"id": "8915523638","server": "3712","farm": "4","userId": "58964175@N06","secret": "a43270ed31","title": "SingaporeF1_2010_0926(039)","loc": {"type": "Point","coordinates": [103.81884,1.253714]}} 
{"id": "8914907189","server": "5446","farm": "6","userId": "58964175@N06","secret": "6b5e2e2898","title": "SingaporeF1_2010_0926(038)","loc": {"type": "Point","coordinates": [103.81884,1.253714]}} 
{"id": "8915525436","server": "2865","farm": "3","userId": "58964175@N06","secret": "4f98739067","title": "SingaporeF1_2010_0926(037)","loc": {"type": "Point","coordinates": [103.81884,1.253714]}} 
{"id": "8914910319","server": "7310","farm": "8","userId": "58964175@N06","secret": "3db2704c25","title": "SingaporeF1_2010_0926(035)","loc": {"type": "Point","coordinates": [103.81884,1.253714]}} 
{"id": "8915534308","server": "2862","farm": "3","userId": "58964175@N06","secret": "509e757aec","title": "SingaporeF1_2010_0926(028)","loc": {"type": "Point","coordinates": [103.81885,1.25439]}} 
{"id": "8914902067","server": "3673","farm": "4","userId": "58964175@N06","secret": "62b958d925","title": "SingaporeF1_2010_0926(043)","loc": {"type": "Point","coordinates": [103.81884,1.253714]}} 
{"id": "8914916537","server": "2861","farm": "3","userId": "58964175@N06","secret": "04480f9562","title": "SingaporeF1_2010_0926(029)","loc": {"type": "Point","coordinates": [103.81885,1.25439]}} 
{"id": "8915529654","server": "2891","farm": "3","userId": "58964175@N06","secret": "394957557c","title": "SingaporeF1_2010_0926(033)","loc": {"type": "Point","coordinates": [103.81884,1.253714]}} 
{"id": "8914910927","server": "7387","farm": "8","userId": "58964175@N06","secret": "9134d365f6","title": "SingaporeF1_2010_0926(034)","loc": {"type": "Point","coordinates": [103.81884,1.253714]}} 
{"id": "8914913773","server": "3719","farm": "4","userId": "58964175@N06","secret": "aefa37786d","title": "SingaporeF1_2010_0926(032)","loc": {"type": "Point","coordinates": [103.81884,1.253714]}} 
{"id": "8914914825","server": "2859","farm": "3","userId": "58964175@N06","secret": "7a7d0d2679","title": "SingaporeF1_2010_0926(031)","loc": {"type": "Point","coordinates": [103.81884,1.253714]}} 
{"id": "8914909649","server": "3721","farm": "4","userId": "58964175@N06","secret": "c65e7927b3","title": "SingaporeF1_2010_0926(036)","loc": {"type": "Point","coordinates": [103.81884,1.253714]}} 
{"id": "8902333310","server": "7425","farm": "8","userId": "56868656@N08","secret": "44d5b1a3b7","title": "Is that a Merlion or a demon?","loc": {"type": "Point","coordinates": [103.81914,1.254021]}} 
{"id": "8878515911","server": "8132","farm": "9","userId": "53207432@N00","secret": "2d8d4071f7","title": "L1033595","loc": {"type": "Point","coordinates": [103.81892,1.253511]}} 
{"id": "8867817299","server": "7356","farm": "8","userId": "54530665@N08","secret": "7b365e3f9d","title": "Okay let's gamble  #sentosa #casino #ios #me #sg #singapore #lovely #amazing #bestoftheday #picoftheday #awesomeplaces #travel #money #gamble #poker #anotherday #instagramers #followtofollow","loc": {"type": "Point","coordinates": [103.82015,1.25646]}} 
{"id": "8851111299","server": "3746","farm": "4","userId": "33938770@N05","secret": "c9da7dd846","title": "Mall at Sentosa Island, Singapore","loc": {"type": "Point","coordinates": [103.819496,1.255333]}} 
{"id": "8851554872","server": "8125","farm": "9","userId": "33938770@N05","secret": "3c6d402b95","title": "Merlion and Sentosa Sign, Singapore","loc": {"type": "Point","coordinates": [103.819336,1.254166]}} 
{"id": "8850919453","server": "3816","farm": "4","userId": "33938770@N05","secret": "ca2f018550","title": "Resorts World Sentosa Sign, Singapore","loc": {"type": "Point","coordinates": [103.81763,1.256117]}} 
{"id": "8839542494","server": "3744","farm": "4","userId": "95911167@N05","secret": "1667f36cc0","title": "IMG_0098","loc": {"type": "Point","coordinates": [103.817665,1.255333]}} 
{"id": "8831566332","server": "7439","farm": "8","userId": "79102856@N00","secret": "63f7263f5b","title": "Wedding/Honeymoon","loc": {"type": "Point","coordinates": [103.819336,1.254]}} 
{"id": "8799904904","server": "2873","farm": "3","userId": "16253319@N00","secret": "8676ef79fb","title": "Walter playing in the elevator","loc": {"type": "Point","coordinates": [103.819534,1.25343]}} 
{"id": "8799899678","server": "5453","farm": "6","userId": "16253319@N00","secret": "5a61582159","title": "Lounge","loc": {"type": "Point","coordinates": [103.819534,1.25343]}} 
{"id": "8789318189","server": "5329","farm": "6","userId": "16253319@N00","secret": "d741731870","title": "Hotel entrance","loc": {"type": "Point","coordinates": [103.819534,1.25343]}} 
{"id": "8799902122","server": "8126","farm": "9","userId": "16253319@N00","secret": "07a79b90b0","title": "Illuminated Merlion and chess","loc": {"type": "Point","coordinates": [103.819534,1.25343]}} 
{"id": "8799901154","server": "3745","farm": "4","userId": "16253319@N00","secret": "90c6ff1dbc","title": "Lamps at Wow bar","loc": {"type": "Point","coordinates": [103.819534,1.25343]}} 
{"id": "8789315135","server": "2809","farm": "3","userId": "16253319@N00","secret": "c9883e47fa","title": "Bathtub","loc": {"type": "Point","coordinates": [103.819534,1.25343]}} 
{"id": "8799898160","server": "3678","farm": "4","userId": "16253319@N00","secret": "2b876504b3","title": "Cushions","loc": {"type": "Point","coordinates": [103.819534,1.25343]}} 
{"id": "8799901382","server": "7426","farm": "8","userId": "16253319@N00","secret": "4ddce40957","title": "Wow whisky bar","loc": {"type": "Point","coordinates": [103.819534,1.25343]}} 
{"id": "8799897654","server": "5464","farm": "6","userId": "16253319@N00","secret": "e84e09371d","title": "Desk","loc": {"type": "Point","coordinates": [103.819534,1.25343]}} 
{"id": "8799899090","server": "5441","farm": "6","userId": "16253319@N00","secret": "ac24f9a3da","title": "Swimming pool","loc": {"type": "Point","coordinates": [103.819534,1.25343]}} 
{"id": "8799904552","server": "8414","farm": "9","userId": "16253319@N00","secret": "241dc53f4a","title": "Hotel reception","loc": {"type": "Point","coordinates": [103.819534,1.25343]}} 
{"id": "8799900322","server": "7297","farm": "8","userId": "16253319@N00","secret": "f338b0459b","title": "Dinner buffet","loc": {"type": "Point","coordinates": [103.819534,1.25343]}} 
{"id": "8789320615","server": "3687","farm": "4","userId": "16253319@N00","secret": "669068231b","title": "Chocolate display","loc": {"type": "Point","coordinates": [103.819534,1.25343]}} 
{"id": "8789315677","server": "8278","farm": "9","userId": "16253319@N00","secret": "ea5b7ef6ea","title": "Illuminated merlion","loc": {"type": "Point","coordinates": [103.819534,1.25343]}} 
{"id": "8799900038","server": "3679","farm": "4","userId": "16253319@N00","secret": "6d1276a07f","title": "Wow bar by Waldhaus am See, St. Moritz, with whisky expert Christoph Nyfeler","loc": {"type": "Point","coordinates": [103.819534,1.25343]}} 
{"id": "8789320281","server": "8277","farm": "9","userId": "16253319@N00","secret": "240d5b0900","title": "Wow bar by Waldhaus am See, St. Moritz","loc": {"type": "Point","coordinates": [103.819534,1.25343]}} 
{"id": "8789314209","server": "2879","farm": "3","userId": "16253319@N00","secret": "5e3a5aa60f","title": "Bedroom and bathroom","loc": {"type": "Point","coordinates": [103.819534,1.25343]}} 
{"id": "8789316823","server": "7454","farm": "8","userId": "16253319@N00","secret": "74159d510d","title": "Wow bar lamps","loc": {"type": "Point","coordinates": [103.819534,1.25343]}} 
{"id": "8789319933","server": "8549","farm": "9","userId": "16253319@N00","secret": "9ef36fd0a9","title": "Illuminated entertainment park","loc": {"type": "Point","coordinates": [103.819534,1.25343]}} 
{"id": "8799905132","server": "7344","farm": "8","userId": "16253319@N00","secret": "3f69843fde","title": "Pool loungers","loc": {"type": "Point","coordinates": [103.819534,1.25343]}} 
{"id": "8789314617","server": "8274","farm": "9","userId": "16253319@N00","secret": "463410c708","title": "Mirror decoration","loc": {"type": "Point","coordinates": [103.819534,1.25343]}} 
{"id": "8789317111","server": "7308","farm": "8","userId": "16253319@N00","secret": "47996a0d34","title": "Peking duck","loc": {"type": "Point","coordinates": [103.819534,1.25343]}} 
{"id": "8799902748","server": "8257","farm": "9","userId": "16253319@N00","secret": "4b0ef29841","title": "Moevenpick illuminated facade","loc": {"type": "Point","coordinates": [103.819534,1.25343]}} 
{"id": "8799903090","server": "3834","farm": "4","userId": "16253319@N00","secret": "7f1003eec7","title": "Whisky expert Christoph Nyfeler at Moewenpick's Wow bar","loc": {"type": "Point","coordinates": [103.819534,1.25343]}} 
{"id": "8755138219","server": "3665","farm": "4","userId": "14385475@N05","secret": "322f409116","title": "IMG_5801","loc": {"type": "Point","coordinates": [103.81567,1.254333]}} 
{"id": "8743574732","server": "7293","farm": "8","userId": "78843304@N02","secret": "1bb4746d07","title": "新加坡圣淘沙","loc": {"type": "Point","coordinates": [103.81997,1.254134]}} 
{"id": "8742586426","server": "7292","farm": "8","userId": "28704898@N00","secret": "2ca9cf8c97","title": "Singapore city","loc": {"type": "Point","coordinates": [103.817665,1.255227]}} 
{"id": "8741469945","server": "7293","farm": "8","userId": "28704898@N00","secret": "1ef83a1fbe","title": "Attack","loc": {"type": "Point","coordinates": [103.817665,1.255227]}} 
{"id": "8742585876","server": "7294","farm": "8","userId": "28704898@N00","secret": "809a22fca7","title": "Pool from above","loc": {"type": "Point","coordinates": [103.817665,1.255227]}} 
{"id": "8726591031","server": "7402","farm": "8","userId": "92593934@N04","secret": "09674d5ff2","title": "Here for #RunLikeMad @Sentosa_Island. So early!!","loc": {"type": "Point","coordinates": [103.819435,1.254086]}} 
{"id": "8709047357","server": "8416","farm": "9","userId": "8870193@N03","secret": "e9f60455ff","title": "This view somehow always reminds me of the group with Leme and Mego(?) Subcomms hahaha #dscfresh #refresh #Leme","loc": {"type": "Point","coordinates": [103.81914,1.254021]}} 
{"id": "8684345875","server": "8261","farm": "9","userId": "85343868@N03","secret": "777f2e53b9","title": "DSC_0302-_J10","loc": {"type": "Point","coordinates": [103.81727,1.255484]}} 
{"id": "8685463750","server": "8393","farm": "9","userId": "85343868@N03","secret": "9c0331554a","title": "DSC_0078__V10","loc": {"type": "Point","coordinates": [103.81727,1.255484]}} 
{"id": "8684344631","server": "8116","farm": "9","userId": "85343868@N03","secret": "b151dd5b88","title": "DSC_0256-_J10","loc": {"type": "Point","coordinates": [103.81727,1.255484]}} 
{"id": "8685462910","server": "8546","farm": "9","userId": "85343868@N03","secret": "1701621305","title": "DSC_0418-_J10","loc": {"type": "Point","coordinates": [103.81727,1.255484]}} 
{"id": "8685462528","server": "8401","farm": "9","userId": "85343868@N03","secret": "854512fbe8","title": "DSC_0505-_J10","loc": {"type": "Point","coordinates": [103.81727,1.255484]}} 
{"id": "8684346541","server": "8124","farm": "9","userId": "85343868@N03","secret": "1f227075a8","title": "DSC_0079-_J10","loc": {"type": "Point","coordinates": [103.81727,1.255484]}} 
{"id": "8684345931","server": "8523","farm": "9","userId": "85343868@N03","secret": "8c586e14ae","title": "DSC_0299-_V10","loc": {"type": "Point","coordinates": [103.81727,1.255484]}} 
{"id": "8685463052","server": "8116","farm": "9","userId": "85343868@N03","secret": "01184affbf","title": "DSC_0261-_J10","loc": {"type": "Point","coordinates": [103.81727,1.255484]}} 
{"id": "8685462768","server": "8521","farm": "9","userId": "85343868@N03","secret": "92ac703976","title": "DSC_0495-_V10","loc": {"type": "Point","coordinates": [103.81727,1.255484]}} 
{"id": "8685463972","server": "8387","farm": "9","userId": "85343868@N03","secret": "b03fa5c5a0","title": "DSC_0054-_J10","loc": {"type": "Point","coordinates": [103.81974,1.254025]}} 
{"id": "8685463252","server": "8257","farm": "9","userId": "85343868@N03","secret": "80263309b1","title": "DSC_0254-_J10","loc": {"type": "Point","coordinates": [103.81727,1.255484]}} 
{"id": "8684345283","server": "8546","farm": "9","userId": "85343868@N03","secret": "58cbcb0232","title": "DSC_0513-_J10","loc": {"type": "Point","coordinates": [103.81727,1.255484]}} 
{"id": "8684345513","server": "8406","farm": "9","userId": "85343868@N03","secret": "50b858b73e","title": "DSC_0503-_J10","loc": {"type": "Point","coordinates": [103.81727,1.255484]}} 
{"id": "8685464034","server": "8122","farm": "9","userId": "85343868@N03","secret": "6708ed4042","title": "DSC_0051-_J10","loc": {"type": "Point","coordinates": [103.81974,1.254025]}} 
{"id": "8684345585","server": "8523","farm": "9","userId": "85343868@N03","secret": "059a25a301","title": "DSC_0500-_V10","loc": {"type": "Point","coordinates": [103.81727,1.255484]}} 
{"id": "8674426297","server": "8523","farm": "9","userId": "93610102@N06","secret": "f07e078712","title": "photo(2)","loc": {"type": "Point","coordinates": [103.820335,1.256333]}} 
{"id": "8668095756","server": "8528","farm": "9","userId": "99942665@N00","secret": "388aa2d242","title": "_DSC8308","loc": {"type": "Point","coordinates": [103.81693,1.253693]}} 
{"id": "8668096688","server": "8539","farm": "9","userId": "99942665@N00","secret": "c24d7905ea","title": "_DSC8310","loc": {"type": "Point","coordinates": [103.81693,1.253693]}} 
{"id": "8668094270","server": "8545","farm": "9","userId": "99942665@N00","secret": "6505ec12f4","title": "_DSC8302","loc": {"type": "Point","coordinates": [103.81693,1.253693]}} 
{"id": "8668096224","server": "8522","farm": "9","userId": "99942665@N00","secret": "beb7ff5215","title": "_DSC8309","loc": {"type": "Point","coordinates": [103.81693,1.253693]}} 
{"id": "8668095228","server": "8536","farm": "9","userId": "99942665@N00","secret": "40bc2fb9d1","title": "_DSC8306","loc": {"type": "Point","coordinates": [103.81693,1.253693]}} 
{"id": "8668097064","server": "8526","farm": "9","userId": "99942665@N00","secret": "9a5951db34","title": "_DSC8317","loc": {"type": "Point","coordinates": [103.81693,1.253693]}} 
{"id": "8657411302","server": "8110","farm": "9","userId": "92593934@N04","secret": "ec64649cfd","title": "Down for the Masterchef Rodrigo set lunch, part of the World Gourmet Summit series.","loc": {"type": "Point","coordinates": [103.82033,1.25572]}} 
{"id": "8668097064","server": "8526","farm": "9","userId": "99942665@N00","secret": "9a5951db34","title": "_DSC8317","loc": {"type": "Point","coordinates": [103.81693,1.253693]}} 
{"id": "8657411302","server": "8110","farm": "9","userId": "92593934@N04","secret": "ec64649cfd","title": "Down for the Masterchef Rodrigo set lunch, part of the World Gourmet Summit series.","loc": {"type": "Point","coordinates": [103.82033,1.25572]}} 
{"id": "8654964992","server": "8259","farm": "9","userId": "58438099@N04","secret": "7b4cc79335","title": "Sentosa","loc": {"type": "Point","coordinates": [103.81788,1.25455]}} 
{"id": "8653858395","server": "8122","farm": "9","userId": "58438099@N04","secret": "184bdb3f93","title": "Sentosa","loc": {"type": "Point","coordinates": [103.81713,1.254283]}} 
{"id": "8654961952","server": "8256","farm": "9","userId": "58438099@N04","secret": "78c3858133","title": "Sentosa","loc": {"type": "Point","coordinates": [103.81709,1.254236]}} 
{"id": "8653856323","server": "8121","farm": "9","userId": "58438099@N04","secret": "aa9227340d","title": "Sentosa","loc": {"type": "Point","coordinates": [103.817856,1.254533]}} 
{"id": "8654964022","server": "8257","farm": "9","userId": "58438099@N04","secret": "8beb928a4e","title": "Sentosa","loc": {"type": "Point","coordinates": [103.81783,1.254813]}} 
{"id": "8585828668","server": "8520","farm": "9","userId": "68536437@N08","secret": "18a682092a","title": "DSC_0090","loc": {"type": "Point","coordinates": [103.817085,1.255323]}} 
{"id": "8568083307","server": "8377","farm": "9","userId": "64408374@N05","secret": "f59b808065","title": "Universal Studios Singapore","loc": {"type": "Point","coordinates": [103.8205,1.255044]}} 
{"id": "8567328467","server": "8382","farm": "9","userId": "64408374@N05","secret": "60a6f24854","title": "Universal Studios Singapore","loc": {"type": "Point","coordinates": [103.820114,1.255001]}} 
{"id": "8567274143","server": "8385","farm": "9","userId": "64408374@N05","secret": "09c8113aba","title": "Universal Studios Singapore","loc": {"type": "Point","coordinates": [103.819725,1.255259]}} 
{"id": "8498562483","server": "8107","farm": "9","userId": "59091154@N04","secret": "9eb2e0a5fe","title": "Sentosa Bus - Mini Volvo bus","loc": {"type": "Point","coordinates": [103.82042,1.25367]}} 
{"id": "8481321060","server": "8098","farm": "9","userId": "95362622@N00","secret": "9eb9fcde9e","title": "upload","loc": {"type": "Point","coordinates": [103.817375,1.254482]}} 
{"id": "8466131039","server": "8243","farm": "9","userId": "92657326@N00","secret": "c88ebac25f","title": "Snakes on a drink","loc": {"type": "Point","coordinates": [103.81879,1.254241]}} 
{"id": "8393776119","server": "8359","farm": "9","userId": "9036889@N06","secret": "304092e632","title": "Images of Singapore","loc": {"type": "Point","coordinates": [103.81834,1.254166]}} 
{"id": "8393773033","server": "8517","farm": "9","userId": "9036889@N06","secret": "9ba821d0c1","title": "Tiger Tower at Resorts World Sentosa Singapore","loc": {"type": "Point","coordinates": [103.817665,1.255]}} 
{"id": "8393773713","server": "8053","farm": "9","userId": "9036889@N06","secret": "1a5cd9272d","title": "Cable Car at Resorts World Sentosa Singapore","loc": {"type": "Point","coordinates": [103.817665,1.255]}} 
{"id": "8394859276","server": "8238","farm": "9","userId": "9036889@N06","secret": "3fd0daf366","title": "Resorts World Sentosa","loc": {"type": "Point","coordinates": [103.82017,1.255833]}} 
{"id": "8394856142","server": "8372","farm": "9","userId": "9036889@N06","secret": "4136e09763","title": "Tiger Tower at Resorts World Sentosa Singapore","loc": {"type": "Point","coordinates": [103.817665,1.255]}} 
{"id": "8394857064","server": "8332","farm": "9","userId": "9036889@N06","secret": "3546a3f81d","title": "Tiger Tower at Resorts World Sentosa Singapore","loc": {"type": "Point","coordinates": [103.817665,1.255]}} 
{"id": "8393775441","server": "8495","farm": "9","userId": "9036889@N06","secret": "f4f0104ccb","title": "Resorts World Sentosa","loc": {"type": "Point","coordinates": [103.82017,1.255833]}} 
{"id": "8393775099","server": "8227","farm": "9","userId": "9036889@N06","secret": "18f7a43041","title": "Resorts World Sentosa","loc": {"type": "Point","coordinates": [103.820335,1.255833]}} 
{"id": "8394853232","server": "8073","farm": "9","userId": "9036889@N06","secret": "ff3428af85","title": "Tiger Tower at Resorts World Sentosa Singapore","loc": {"type": "Point","coordinates": [103.817665,1.255]}} 
{"id": "8393772035","server": "8044","farm": "9","userId": "9036889@N06","secret": "e42f731f62","title": "Tiger Tower at Resorts World Sentosa Singapore","loc": {"type": "Point","coordinates": [103.817665,1.255]}} 
{"id": "8393768619","server": "8472","farm": "9","userId": "9036889@N06","secret": "8a63cbd5dc","title": "Resorts World Sentosa Singapore","loc": {"type": "Point","coordinates": [103.817665,1.255]}} 
{"id": "8393770019","server": "8096","farm": "9","userId": "9036889@N06","secret": "36f7552c95","title": "Tiger Tower at Resorts World Sentosa Singapore","loc": {"type": "Point","coordinates": [103.817665,1.255]}} 
{"id": "8393768311","server": "8475","farm": "9","userId": "9036889@N06","secret": "5b6cc89358","title": "Resorts World Sentosa Singapore","loc": {"type": "Point","coordinates": [103.817665,1.255]}} 
{"id": "8394852478","server": "8228","farm": "9","userId": "9036889@N06","secret": "b0c10a80cc","title": "Resorts World Sentosa Singapore","loc": {"type": "Point","coordinates": [103.8175,1.255]}} 
{"id": "8394855338","server": "8096","farm": "9","userId": "9036889@N06","secret": "f3cb4081df","title": "Tiger Tower at Resorts World Sentosa Singapore","loc": {"type": "Point","coordinates": [103.817665,1.255]}} 
{"id": "8394854518","server": "8328","farm": "9","userId": "9036889@N06","secret": "fffa4b09f7","title": "Tiger Tower at Resorts World Sentosa Singapore","loc": {"type": "Point","coordinates": [103.817665,1.255]}} 
{"id": "8394854074","server": "8186","farm": "9","userId": "9036889@N06","secret": "929a0a560e","title": "Tiger Tower at Resorts World Sentosa Singapore","loc": {"type": "Point","coordinates": [103.817665,1.254666]}} 
{"id": "8394852768","server": "8192","farm": "9","userId": "9036889@N06","secret": "4a759a95ff","title": "Tiger Tower at Resorts World Sentosa Singapore","loc": {"type": "Point","coordinates": [103.817665,1.255]}} 
{"id": "8394854972","server": "8497","farm": "9","userId": "9036889@N06","secret": "a04d440763","title": "Tiger Tower at Resorts World Sentosa Singapore","loc": {"type": "Point","coordinates": [103.817665,1.255]}} 
{"id": "8393971092","server": "8231","farm": "9","userId": "25802865@N08","secret": "b1cf06bd28","title": "Sentosa Luge and Skyride","loc": {"type": "Point","coordinates": [103.81707,1.254665]}} 
{"id": "8351716337","server": "8237","farm": "9","userId": "86606207@N08","secret": "33725cd9a2","title": "导游 in action","loc": {"type": "Point","coordinates": [103.817314,1.254944]}} 
{"id": "8344733416","server": "8497","farm": "9","userId": "25802865@N08","secret": "a195f5ebee","title": "Merlion Plaza","loc": {"type": "Point","coordinates": [103.81956,1.253843]}} 
{"id": "8324921526","server": "8503","farm": "9","userId": "75976259@N00","secret": "6a77262f07","title": "Let's build......another Monorail!","loc": {"type": "Point","coordinates": [103.81935,1.253778]}} 
{"id": "8307002634","server": "8077","farm": "9","userId": "88525127@N00","secret": "b97e6c66ee","title": "Playtime","loc": {"type": "Point","coordinates": [103.81697,1.255473]}} 
{"id": "8304082185","server": "8500","farm": "9","userId": "88525127@N00","secret": "0510b52d8e","title": "Hands in Hand","loc": {"type": "Point","coordinates": [103.81697,1.255473]}} 
{"id": "8290692937","server": "8215","farm": "9","userId": "47291429@N04","secret": "a6078f2e9d","title": "Images of Singapore 万象馆 (Singapore 新加坡)","loc": {"type": "Point","coordinates": [103.819824,1.253757]}} 
{"id": "8283379085","server": "8354","farm": "9","userId": "75976259@N00","secret": "5128c285c7","title": "Let's build a Monorail!","loc": {"type": "Point","coordinates": [103.815445,1.25543]}} 
{"id": "8283246911","server": "8339","farm": "9","userId": "91223673@N06","secret": "6339c4a25a","title": "Orchid glass","loc": {"type": "Point","coordinates": [103.82033,1.253972]}} 
{"id": "8656890310","server": "8116","farm": "9","userId": "98544088@N00","secret": "a64d0e751c","title": "Day1_.05","loc": {"type": "Point","coordinates": [103.82066,1.255833]}} 
{"id": "8654387625","server": "8112","farm": "9","userId": "90183519@N04","secret": "3693ce783f","title": "For Min Min.. #dinner #post #birthday #superb #atelier #robuchon #smile #happy #friendship #love #potd #march #sg #instahappy #instaphoto Image created with #Snapseed","loc": {"type": "Point","coordinates": [103.82053,1.255808]}} 
{"id": "8653857407","server": "8104","farm": "9","userId": "58438099@N04","secret": "544ed0113e","title": "Sentosa","loc": {"type": "Point","coordinates": [103.81715,1.254305]}} 
{"id": "8653859357","server": "8264","farm": "9","userId": "58438099@N04","secret": "8f4007b8e5","title": "Sentosa","loc": {"type": "Point","coordinates": [103.817085,1.254255]}} 
{"id": "8653855143","server": "8254","farm": "9","userId": "58438099@N04","secret": "05055fa5e4","title": "Sentosa","loc": {"type": "Point","coordinates": [103.81774,1.254652]}} 
{"id": "8646211601","server": "8392","farm": "9","userId": "35266357@N00","secret": "f7689c2844","title": "Palio","loc": {"type": "Point","coordinates": [103.819756,1.256077]}} 
{"id": "8647307074","server": "8123","farm": "9","userId": "35266357@N00","secret": "36c0989ff4","title": "Palio","loc": {"type": "Point","coordinates": [103.81978,1.256005]}} 
{"id": "8646210217","server": "8525","farm": "9","userId": "35266357@N00","secret": "bd906c2ab5","title": "Palio","loc": {"type": "Point","coordinates": [103.819916,1.255536]}} 
{"id": "8646219855","server": "8394","farm": "9","userId": "35266357@N00","secret": "71afbe8d17","title": "RWS","loc": {"type": "Point","coordinates": [103.82003,1.255402]}} 
{"id": "8646220417","server": "8122","farm": "9","userId": "35266357@N00","secret": "041659a2d9","title": "RWS","loc": {"type": "Point","coordinates": [103.82003,1.255402]}} 
{"id": "8647306842","server": "8528","farm": "9","userId": "35266357@N00","secret": "f064874075","title": "Palio","loc": {"type": "Point","coordinates": [103.81983,1.25583]}} 
{"id": "8647307266","server": "8113","farm": "9","userId": "35266357@N00","secret": "f0c0caaa88","title": "Palio","loc": {"type": "Point","coordinates": [103.81977,1.256022]}} 
{"id": "8647306614","server": "8398","farm": "9","userId": "35266357@N00","secret": "0c6f7dbc48","title": "Palio","loc": {"type": "Point","coordinates": [103.819885,1.255655]}} 
{"id": "8647316868","server": "8395","farm": "9","userId": "35266357@N00","secret": "19d3d8c669","title": "RWS","loc": {"type": "Point","coordinates": [103.82003,1.255402]}} 
{"id": "8647306386","server": "8540","farm": "9","userId": "35266357@N00","secret": "635dc41eb2","title": "Palio","loc": {"type": "Point","coordinates": [103.819916,1.255538]}} 
{"id": "8647299448","server": "8124","farm": "9","userId": "35266357@N00","secret": "96c5b664e3","title": "RWS","loc": {"type": "Point","coordinates": [103.819725,1.256177]}} 
{"id": "8646203119","server": "8532","farm": "9","userId": "35266357@N00","secret": "e5ae7e27f6","title": "RWS","loc": {"type": "Point","coordinates": [103.81973,1.256169]}} 
{"id": "8646027815","server": "8251","farm": "9","userId": "35266357@N00","secret": "c4d16d31db","title": "Sweet","loc": {"type": "Point","coordinates": [103.82003,1.255402]}} 
{"id": "8599015984","server": "8225","farm": "9","userId": "32884264@N05","secret": "bf924fe484","title": "Sentosa Island","loc": {"type": "Point","coordinates": [103.82001,1.254179]}} 
{"id": "8592712004","server": "8094","farm": "9","userId": "34811143@N00","secret": "5f29faf539","title": "S.E.A. Aquarium - Resorts World Sentosa","loc": {"type": "Point","coordinates": [103.82056,1.255833]}} 
{"id": "8591610187","server": "8520","farm": "9","userId": "34811143@N00","secret": "1037a4bce8","title": "S.E.A. Aquarium - Resorts World Sentosa","loc": {"type": "Point","coordinates": [103.82083,1.255833]}} 
{"id": "8592711040","server": "8373","farm": "9","userId": "34811143@N00","secret": "5d6daf0403","title": "S.E.A. Aquarium - Resorts World Sentosa","loc": {"type": "Point","coordinates": [103.82083,1.255833]}} 
{"id": "8591610935","server": "8368","farm": "9","userId": "34811143@N00","secret": "ed794a9ba1","title": "S.E.A. Aquarium - Resorts World Sentosa","loc": {"type": "Point","coordinates": [103.82083,1.255833]}} 
{"id": "8591611261","server": "8242","farm": "9","userId": "34811143@N00","secret": "a07df61182","title": "S.E.A. Aquarium - Resorts World Sentosa","loc": {"type": "Point","coordinates": [103.82083,1.255833]}} 
{"id": "8591774074","server": "8508","farm": "9","userId": "94377283@N03","secret": "d9e86ded30","title": "DSC06413","loc": {"type": "Point","coordinates": [103.820625,1.25645]}} 
{"id": "8585853744","server": "8111","farm": "9","userId": "68536437@N08","secret": "4768343a9c","title": "DSC_0087_01","loc": {"type": "Point","coordinates": [103.81737,1.255237]}} 
{"id": "8564384167","server": "8532","farm": "9","userId": "76458452@N02","secret": "079dea8ca1","title": "Sentosa in the rain","loc": {"type": "Point","coordinates": [103.82066,1.256]}} 
{"id": "8565485926","server": "8382","farm": "9","userId": "76458452@N02","secret": "2a5bf5800f","title": "Sentosa","loc": {"type": "Point","coordinates": [103.8205,1.255666]}} 
{"id": "8563555173","server": "8089","farm": "9","userId": "60026216@N00","secret": "43c1c56359","title": "The #luge.","loc": {"type": "Point","coordinates": [103.8172,1.254354]}} 
{"id": "8563523267","server": "8252","farm": "9","userId": "60026216@N00","secret": "0b0fc886e8","title": "Packed inside the #monorail #train.","loc": {"type": "Point","coordinates": [103.819435,1.254086]}} 
{"id": "8563082009","server": "8252","farm": "9","userId": "60026216@N00","secret": "755ab26516","title": "#Festive #hotel #swimming #pool.","loc": {"type": "Point","coordinates": [103.819725,1.256112]}} 
{"id": "8564166352","server": "8247","farm": "9","userId": "60026216@N00","secret": "0501b0a9e4","title": "Festive Hotel lobby.","loc": {"type": "Point","coordinates": [103.81887,1.256031]}} 
{"id": "8561749636","server": "8382","farm": "9","userId": "60026216@N00","secret": "ed2dd6facb","title": "#Beef #salami #risotto for #lunch.","loc": {"type": "Point","coordinates": [103.82022,1.256267]}} 
{"id": "8552742627","server": "8095","farm": "9","userId": "55486190@N00","secret": "58f499bbf3","title": "Weee!! Up the #Sentosa #Luge #Skyride we go!  Great view of the #Straits of #Singapore and beyond.","loc": {"type": "Point","coordinates": [103.8172,1.254354]}} 
{"id": "8551273009","server": "8243","farm": "9","userId": "55486190@N00","secret": "e65ae319c2","title": "Water in a Zip Lock Bag!! ... Hee Hee  #BritishCouncil #AmazingRace 2013","loc": {"type": "Point","coordinates": [103.8172,1.254354]}} 
{"id": "8548689610","server": "8525","farm": "9","userId": "55486190@N00","secret": "5c2d3c5c63","title": "BIG thanks to these #Indonesian #students who took a #photo with us!!","loc": {"type": "Point","coordinates": [103.81914,1.254021]}} 
{"id": "8548450388","server": "8509","farm": "9","userId": "55486190@N00","secret": "9a79745ec2","title": "@sgBritish #BritishCouncil Amazing #Race Silver Team","loc": {"type": "Point","coordinates": [103.8172,1.254354]}} 
{"id": "8542565672","server": "8372","farm": "9","userId": "91323720@N04","secret": "880ffd09ec","title": "IMG_0560","loc": {"type": "Point","coordinates": [103.81891,1.253929]}} 
{"id": "8541632922","server": "8250","farm": "9","userId": "89975165@N07","secret": "8bffc29dde","title": "VIP Seats at Incanto.","loc": {"type": "Point","coordinates": [103.82027,1.25641]}} 
{"id": "8541626560","server": "8099","farm": "9","userId": "89975165@N07","secret": "ece817008a","title": "VIP Seats at Incanto.","loc": {"type": "Point","coordinates": [103.82027,1.25641]}} 
{"id": "8537705076","server": "8512","farm": "9","userId": "58716938@N00","secret": "c37901b855","title": "Sentosa Merlion Evil in night!","loc": {"type": "Point","coordinates": [103.81914,1.254021]}} 
{"id": "8505995351","server": "8371","farm": "9","userId": "60026216@N00","secret": "5d163a2e33","title": "Sentosa cable car station.","loc": {"type": "Point","coordinates": [103.81767,1.255312]}} 
{"id": "8481295789","server": "8367","farm": "9","userId": "62395687@N02","secret": "a7039fbbf4","title": "Sentosa, SG'13","loc": {"type": "Point","coordinates": [103.81934,1.255269]}} 
{"id": "8481576254","server": "8230","farm": "9","userId": "19454593@N00","secret": "d348763630","title": "IMG_0772_F","loc": {"type": "Point","coordinates": [103.817924,1.254336]}} 
{"id": "8481579520","server": "8521","farm": "9","userId": "19454593@N00","secret": "b4e1e694c5","title": "IMG_0761_F","loc": {"type": "Point","coordinates": [103.82081,1.25583]}} 
{"id": "8480486667","server": "8515","farm": "9","userId": "19454593@N00","secret": "bc7bf9836a","title": "IMG_0768_F","loc": {"type": "Point","coordinates": [103.818596,1.254002]}} 
{"id": "8480487463","server": "8532","farm": "9","userId": "19454593@N00","secret": "1194b10520","title": "IMG_0765_F","loc": {"type": "Point","coordinates": [103.81896,1.25368]}} 
{"id": "8474167842","server": "8518","farm": "9","userId": "19454593@N00","secret": "1e48568903","title": "IMG_0760_F","loc": {"type": "Point","coordinates": [103.82044,1.256222]}} 
{"id": "8472457654","server": "8093","farm": "9","userId": "19454593@N00","secret": "5bfcbd4b8d","title": "IMG_0719_F","loc": {"type": "Point","coordinates": [103.82067,1.255747]}} 
{"id": "8466335813","server": "8387","farm": "9","userId": "61993470@N03","secret": "0e13ebdde9","title": "Latte-Nology ......","loc": {"type": "Point","coordinates": [103.82022,1.256267]}} 
{"id": "8466260375","server": "8105","farm": "9","userId": "61993470@N03","secret": "17402aa074","title": "Gateway 2 Future......","loc": {"type": "Point","coordinates": [103.82015,1.25646]}} 
{"id": "8463619810","server": "8228","farm": "9","userId": "86611549@N00","secret": "e2fa6443fe","title": "Sentosa Island - Merlion","loc": {"type": "Point","coordinates": [103.819016,1.253683]}} 
{"id": "8461007156","server": "8521","farm": "9","userId": "86611549@N00","secret": "8a43e86863","title": "Sentosa - Merlion","loc": {"type": "Point","coordinates": [103.81903,1.253644]}} 
{"id": "8459907011","server": "8508","farm": "9","userId": "86611549@N00","secret": "86375a6136","title": "Sentosa - Through the Merlion","loc": {"type": "Point","coordinates": [103.818855,1.253447]}} 
{"id": "8459906523","server": "8382","farm": "9","userId": "86611549@N00","secret": "845bf07c74","title": "Sentosa Express - Approaching Imbiah Station","loc": {"type": "Point","coordinates": [103.819664,1.253969]}} 
{"id": "8457165369","server": "8515","farm": "9","userId": "92391615@N06","secret": "b0d3a698f0","title": "嗷呜〜","loc": {"type": "Point","coordinates": [103.81914,1.254021]}} 
{"id": "8438747872","server": "8084","farm": "9","userId": "74855524@N00","secret": "b5002dc51f","title": "","loc": {"type": "Point","coordinates": [103.82017,1.256]}} 
{"id": "8415981479","server": "8369","farm": "9","userId": "9036889@N06","secret": "f86968cfbc","title": "image (22)","loc": {"type": "Point","coordinates": [103.81883,1.2535]}} 
{"id": "8415981719","server": "8080","farm": "9","userId": "9036889@N06","secret": "80448a516b","title": "image (20)","loc": {"type": "Point","coordinates": [103.817665,1.255]}} 
{"id": "8415981595","server": "8336","farm": "9","userId": "9036889@N06","secret": "7239b9fde2","title": "image (21)","loc": {"type": "Point","coordinates": [103.817665,1.255]}} 
{"id": "8415981205","server": "8083","farm": "9","userId": "9036889@N06","secret": "07ba1d2bf7","title": "Sentosa Express, Singapore","loc": {"type": "Point","coordinates": [103.81883,1.2535]}} 
{"id": "8417077280","server": "8375","farm": "9","userId": "9036889@N06","secret": "decaee99f0","title": "image (23)","loc": {"type": "Point","coordinates": [103.81883,1.2535]}} 
{"id": "8417077788","server": "8473","farm": "9","userId": "9036889@N06","secret": "782aef3a45","title": "image (19)","loc": {"type": "Point","coordinates": [103.817665,1.255]}} 
{"id": "8415720407","server": "8213","farm": "9","userId": "54112231@N00","secret": "a32643e38d","title": "#merlion #sentosa #singapore #ngaumm","loc": {"type": "Point","coordinates": [103.819046,1.253855]}} 
{"id": "8416819142","server": "8236","farm": "9","userId": "54112231@N00","secret": "ae5ec6bd1e","title": "#beca #imagesofsingapore #sentosa #singapore","loc": {"type": "Point","coordinates": [103.81804,1.254348]}} 
{"id": "8416802092","server": "8194","farm": "9","userId": "54112231@N00","secret": "33093e736a","title": "#nazar #imagesofsingapore #sentosa #singapore","loc": {"type": "Point","coordinates": [103.81804,1.254348]}} 
{"id": "8416668730","server": "8352","farm": "9","userId": "92807938@N00","secret": "a4dbc3bf81","title": "Now that's a bottle of Grange","loc": {"type": "Point","coordinates": [103.82029,1.255494]}} 
{"id": "8414299551","server": "8188","farm": "9","userId": "9036889@N06","secret": "46dfc8a266","title": "DSC01128","loc": {"type": "Point","coordinates": [103.81886,1.253469]}} 
{"id": "8415401256","server": "8509","farm": "9","userId": "9036889@N06","secret": "4f1d6216ab","title": "DSC01123","loc": {"type": "Point","coordinates": [103.81765,1.255041]}} 
{"id": "8414306045","server": "8097","farm": "9","userId": "9036889@N06","secret": "9679f4f412","title": "DSC01122","loc": {"type": "Point","coordinates": [103.81769,1.254952]}} 
{"id": "8414301773","server": "8217","farm": "9","userId": "9036889@N06","secret": "8a1805b549","title": "DSC01125","loc": {"type": "Point","coordinates": [103.81768,1.254997]}} 
{"id": "8414307305","server": "8192","farm": "9","userId": "9036889@N06","secret": "faf2a62a69","title": "DSC01121","loc": {"type": "Point","coordinates": [103.81765,1.255044]}} 
{"id": "8414303005","server": "8218","farm": "9","userId": "9036889@N06","secret": "5cd02969b2","title": "DSC01124","loc": {"type": "Point","coordinates": [103.81769,1.254991]}} 
{"id": "8411332622","server": "8495","farm": "9","userId": "74855524@N00","secret": "f438ec5b89","title": "Through the Jungle","loc": {"type": "Point","coordinates": [103.81917,1.254]}} 
{"id": "8410236263","server": "8085","farm": "9","userId": "74855524@N00","secret": "aa377ebca1","title": "Dragon","loc": {"type": "Point","coordinates": [103.82,1.255833]}} 
{"id": "8398139825","server": "8052","farm": "9","userId": "92376062@N02","secret": "945071eb45","title": "IMG_0659","loc": {"type": "Point","coordinates": [103.819496,1.254166]}} 
{"id": "8399176948","server": "8191","farm": "9","userId": "92376062@N02","secret": "5950c0384e","title": "IMG_0547","loc": {"type": "Point","coordinates": [103.817665,1.255166]}} 
{"id": "8399223768","server": "8472","farm": "9","userId": "92376062@N02","secret": "e4788252e3","title": "IMG_0658","loc": {"type": "Point","coordinates": [103.819496,1.254166]}} 
{"id": "8391421311","server": "8367","farm": "9","userId": "51432267@N04","secret": "d0a80ddcda","title": "Robots @ Sentosa Island","loc": {"type": "Point","coordinates": [103.82016,1.254594]}} 
{"id": "8379269086","server": "8363","farm": "9","userId": "62614785@N06","secret": "a02127342e","title": "DSC00773","loc": {"type": "Point","coordinates": [103.8188,1.253501]}} 
{"id": "8378212725","server": "8374","farm": "9","userId": "62614785@N06","secret": "90428bf50a","title": "DSC00759","loc": {"type": "Point","coordinates": [103.82046,1.256099]}} 
{"id": "8378226025","server": "8072","farm": "9","userId": "62614785@N06","secret": "ab29ae98a0","title": "DSC00749","loc": {"type": "Point","coordinates": [103.82046,1.256099]}} 
{"id": "8378167045","server": "8191","farm": "9","userId": "62614785@N06","secret": "09cba5b804","title": "DSC00787","loc": {"type": "Point","coordinates": [103.8188,1.253501]}} 
{"id": "8378204965","server": "8227","farm": "9","userId": "62614785@N06","secret": "bbfe7325a0","title": "DSC00764","loc": {"type": "Point","coordinates": [103.82046,1.256099]}} 
{"id": "8379286550","server": "8220","farm": "9","userId": "62614785@N06","secret": "23d970126b","title": "DSC00762","loc": {"type": "Point","coordinates": [103.82046,1.256099]}} 
{"id": "8378174671","server": "8043","farm": "9","userId": "62614785@N06","secret": "cde4b76a48","title": "DSC00783","loc": {"type": "Point","coordinates": [103.8188,1.253501]}} 
{"id": "8379298578","server": "8236","farm": "9","userId": "62614785@N06","secret": "75ca6e9c88","title": "DSC00755","loc": {"type": "Point","coordinates": [103.82046,1.256099]}} 
{"id": "8378218395","server": "8504","farm": "9","userId": "62614785@N06","secret": "db8ccb85f2","title": "DSC00756","loc": {"type": "Point","coordinates": [103.82046,1.256099]}} 
{"id": "8379277372","server": "8097","farm": "9","userId": "62614785@N06","secret": "60c09828d1","title": "DSC00767","loc": {"type": "Point","coordinates": [103.82046,1.256099]}} 
{"id": "8379292834","server": "8075","farm": "9","userId": "62614785@N06","secret": "a7f7a5579e","title": "DSC00758","loc": {"type": "Point","coordinates": [103.82046,1.256099]}} 
{"id": "8378224633","server": "8082","farm": "9","userId": "62614785@N06","secret": "85d6092e38","title": "DSC00750","loc": {"type": "Point","coordinates": [103.82046,1.256099]}} 
{"id": "8379273500","server": "8094","farm": "9","userId": "62614785@N06","secret": "5d42884514","title": "DSC00770","loc": {"type": "Point","coordinates": [103.8188,1.253501]}} 
{"id": "8378169223","server": "8469","farm": "9","userId": "62614785@N06","secret": "d9a77dd882","title": "DSC00786","loc": {"type": "Point","coordinates": [103.8188,1.253501]}} 
{"id": "8378222019","server": "8231","farm": "9","userId": "62614785@N06","secret": "84fe926136","title": "DSC00752","loc": {"type": "Point","coordinates": [103.82046,1.256099]}} 
{"id": "8379262262","server": "8056","farm": "9","userId": "62614785@N06","secret": "be2c2a4dbd","title": "DSC00778","loc": {"type": "Point","coordinates": [103.8188,1.253501]}} 
{"id": "8378223433","server": "8503","farm": "9","userId": "62614785@N06","secret": "74917e37bb","title": "DSC00751","loc": {"type": "Point","coordinates": [103.82046,1.256099]}} 
{"id": "8379249668","server": "8046","farm": "9","userId": "62614785@N06","secret": "94a283e4e4","title": "DSC00785","loc": {"type": "Point","coordinates": [103.8188,1.253501]}} 
{"id": "8378187907","server": "8376","farm": "9","userId": "62614785@N06","secret": "54b2fd2b39","title": "DSC00776","loc": {"type": "Point","coordinates": [103.8188,1.253501]}} 
{"id": "8378173165","server": "8216","farm": "9","userId": "62614785@N06","secret": "f3c73be88d","title": "DSC00784","loc": {"type": "Point","coordinates": [103.8188,1.253501]}} 
{"id": "8378192343","server": "8463","farm": "9","userId": "62614785@N06","secret": "77f67d66d0","title": "DSC00772","loc": {"type": "Point","coordinates": [103.8188,1.253501]}} 
{"id": "8378209643","server": "8071","farm": "9","userId": "62614785@N06","secret": "c3bb87e410","title": "DSC00760","loc": {"type": "Point","coordinates": [103.82046,1.256099]}} 
{"id": "8378186507","server": "8476","farm": "9","userId": "62614785@N06","secret": "da3ab6d874","title": "DSC00777","loc": {"type": "Point","coordinates": [103.8188,1.253501]}} 
{"id": "8379294988","server": "8190","farm": "9","userId": "62614785@N06","secret": "fd663195a4","title": "DSC00757","loc": {"type": "Point","coordinates": [103.82046,1.256099]}} 
{"id": "8379281720","server": "8514","farm": "9","userId": "62614785@N06","secret": "60429aebd1","title": "DSC00765","loc": {"type": "Point","coordinates": [103.82046,1.256099]}} 
{"id": "8379256892","server": "8232","farm": "9","userId": "62614785@N06","secret": "fb2e4b5ea3","title": "DSC00781","loc": {"type": "Point","coordinates": [103.8188,1.253501]}} 
{"id": "8379306106","server": "8352","farm": "9","userId": "62614785@N06","secret": "3e71057340","title": "DSC00747","loc": {"type": "Point","coordinates": [103.82046,1.256099]}} 
{"id": "8378201177","server": "8052","farm": "9","userId": "62614785@N06","secret": "3e798b3441","title": "DSC00766","loc": {"type": "Point","coordinates": [103.82046,1.256099]}} 
{"id": "8379285048","server": "8323","farm": "9","userId": "62614785@N06","secret": "d3962e3ee9","title": "DSC00763","loc": {"type": "Point","coordinates": [103.82046,1.256099]}} 
{"id": "8378180551","server": "8051","farm": "9","userId": "62614785@N06","secret": "43b1d4f041","title": "DSC00780","loc": {"type": "Point","coordinates": [103.8188,1.253501]}} 
{"id": "8379275406","server": "8469","farm": "9","userId": "62614785@N06","secret": "f60a97be8d","title": "DSC00768","loc": {"type": "Point","coordinates": [103.82046,1.256099]}} 
{"id": "8379260442","server": "8362","farm": "9","userId": "62614785@N06","secret": "539f401abe","title": "DSC00779","loc": {"type": "Point","coordinates": [103.8188,1.253501]}} 
{"id": "8378176829","server": "8183","farm": "9","userId": "62614785@N06","secret": "b670ca6375","title": "DSC00782","loc": {"type": "Point","coordinates": [103.8188,1.253501]}} 
{"id": "8378189021","server": "8097","farm": "9","userId": "62614785@N06","secret": "18c6ef4021","title": "DSC00774","loc": {"type": "Point","coordinates": [103.8188,1.253501]}} 
{"id": "8379271940","server": "8499","farm": "9","userId": "62614785@N06","secret": "c7582cba84","title": "DSC00771","loc": {"type": "Point","coordinates": [103.8188,1.253501]}} 
{"id": "8378024453","server": "8045","farm": "9","userId": "67622575@N00","secret": "4980da7b6d","title": "Merlion statue on Sentosa","loc": {"type": "Point","coordinates": [103.81914,1.254022]}} 
{"id": "8379082716","server": "8079","farm": "9","userId": "67622575@N00","secret": "a7e36f596c","title": "Festive Walk at Universal Singapore","loc": {"type": "Point","coordinates": [103.82023,1.256428]}} 
{"id": "8352783894","server": "8234","farm": "9","userId": "86606207@N08","secret": "75ba89e65e","title": "sweet sweet","loc": {"type": "Point","coordinates": [103.817276,1.25488]}} 
{"id": "8352781024","server": "8185","farm": "9","userId": "86606207@N08","secret": "63bfab3c30","title": "DSC_1236","loc": {"type": "Point","coordinates": [103.817314,1.254908]}} 
{"id": "8352789914","server": "8518","farm": "9","userId": "86606207@N08","secret": "e639e5f56b","title": "lets ride","loc": {"type": "Point","coordinates": [103.817276,1.254888]}} 
{"id": "8351734481","server": "8087","farm": "9","userId": "86606207@N08","secret": "6cdb4aa9b5","title": "nervous smile","loc": {"type": "Point","coordinates": [103.81739,1.254808]}} 
{"id": "8351731475","server": "8075","farm": "9","userId": "86606207@N08","secret": "3457cab98e","title": "DSC_1246","loc": {"type": "Point","coordinates": [103.81732,1.254897]}} 
{"id": "8353234888","server": "8469","farm": "9","userId": "86606207@N08","secret": "d0c560d29d","title": "DSC_1722","loc": {"type": "Point","coordinates": [103.81935,1.254047]}} 
{"id": "8352771078","server": "8331","farm": "9","userId": "86606207@N08","secret": "41ebb8e8da","title": "DSC_1220","loc": {"type": "Point","coordinates": [103.81722,1.254722]}} 
{"id": "8352786856","server": "8235","farm": "9","userId": "86606207@N08","secret": "e8109e03ca","title": "DSC_1240","loc": {"type": "Point","coordinates": [103.81727,1.25488]}} 
{"id": "8351713259","server": "8218","farm": "9","userId": "86606207@N08","secret": "866c3b137a","title": "DSC_1226","loc": {"type": "Point","coordinates": [103.81723,1.254725]}} 
{"id": "8353237540","server": "8476","farm": "9","userId": "86606207@N08","secret": "4e5c21f63f","title": "DSC_1723","loc": {"type": "Point","coordinates": [103.81938,1.254047]}} 
{"id": "8352767278","server": "8183","farm": "9","userId": "86606207@N08","secret": "f184e5d5f4","title": "DSC_1218s","loc": {"type": "Point","coordinates": [103.81722,1.254719]}} 
{"id": "8352126897","server": "8049","farm": "9","userId": "8236395@N05","secret": "968b92c9e3","title": "upload","loc": {"type": "Point","coordinates": [103.81914,1.254021]}} 
{"id": "8315431633","server": "8501","farm": "9","userId": "50157791@N07","secret": "41862fb25b","title": "Merlion","loc": {"type": "Point","coordinates": [103.81876,1.253521]}} 
{"id": "8311601282","server": "8073","farm": "9","userId": "91501450@N04","secret": "42abbb34b1","title": "","loc": {"type": "Point","coordinates": [103.81733,1.256]}} 
{"id": "8299790580","server": "8080","farm": "9","userId": "9523596@N05","secret": "0c700c21cd","title": "Singapore, the lion city!","loc": {"type": "Point","coordinates": [103.81914,1.254021]}} 
{"id": "8283248527","server": "8346","farm": "9","userId": "91223673@N06","secret": "5ca3616819","title": "Cross Light","loc": {"type": "Point","coordinates": [103.81844,1.254315]}} 
{"id": "8282218164","server": "8199","farm": "9","userId": "45328525@N00","secret": "7168902793","title": "IMG_1062","loc": {"type": "Point","coordinates": [103.819214,1.254044]}} 
{"id": "8279664486","server": "8492","farm": "9","userId": "7681231@N02","secret": "5069d8260d","title": "Sentosa","loc": {"type": "Point","coordinates": [103.819664,1.255]}} 
{"id": "8278605583","server": "8212","farm": "9","userId": "7681231@N02","secret": "dfe569b319","title": "Sentosa","loc": {"type": "Point","coordinates": [103.819,1.255666]}} 
{"id": "8279664198","server": "8206","farm": "9","userId": "7681231@N02","secret": "4046bbbb5b","title": "Sentosa","loc": {"type": "Point","coordinates": [103.81917,1.2555]}} 
{"id": "8267183182","server": "8355","farm": "9","userId": "68788452@N00","secret": "611c9f724e","title": "Smiley face","loc": {"type": "Point","coordinates": [103.81755,1.254495]}} 
{"id": "8262808494","server": "8060","farm": "9","userId": "90844050@N02","secret": "276d7487fe","title": "DSC01914","loc": {"type": "Point","coordinates": [103.81977,1.254787]}} 
{"id": "8259721002","server": "8058","farm": "9","userId": "56947085@N07","secret": "e694dc2944","title": "Sentosa 4D Magix 1","loc": {"type": "Point","coordinates": [103.817856,1.254368]}} 
{"id": "8258652849","server": "8204","farm": "9","userId": "56947085@N07","secret": "51b909bde8","title": "Sentosa 4D Magix 2","loc": {"type": "Point","coordinates": [103.817825,1.254401]}} 
{"id": "8253794551","server": "8499","farm": "9","userId": "23436061@N00","secret": "a4de278fdb","title": "Rawr #merlion #sentosa #singapore #mythical #fantasy #night","loc": {"type": "Point","coordinates": [103.81914,1.254021]}} 
{"id": "8252597363","server": "8202","farm": "9","userId": "76587677@N06","secret": "3b88a8236f","title": "DSC08116","loc": {"type": "Point","coordinates": [103.8205,1.253907]}} 
{"id": "8252595793","server": "8211","farm": "9","userId": "76587677@N06","secret": "f9ffd43328","title": "DSC08112","loc": {"type": "Point","coordinates": [103.8205,1.253907]}} 
{"id": "8253668296","server": "8214","farm": "9","userId": "76587677@N06","secret": "208794374b","title": "DSC08115","loc": {"type": "Point","coordinates": [103.8205,1.253907]}} 
{"id": "8253669140","server": "8078","farm": "9","userId": "76587677@N06","secret": "f2a4d294c9","title": "DSC08117","loc": {"type": "Point","coordinates": [103.8205,1.253907]}} 
{"id": "8253664998","server": "8488","farm": "9","userId": "76587677@N06","secret": "b540399e48","title": "DSC08107","loc": {"type": "Point","coordinates": [103.81729,1.254497]}} 
{"id": "8252595549","server": "8071","farm": "9","userId": "76587677@N06","secret": "783907cca2","title": "DSC08111","loc": {"type": "Point","coordinates": [103.81729,1.254497]}} 
{"id": "8252595085","server": "8479","farm": "9","userId": "76587677@N06","secret": "d24e5b91bb","title": "DSC08110","loc": {"type": "Point","coordinates": [103.81729,1.254497]}} 
{"id": "8252592851","server": "8481","farm": "9","userId": "76587677@N06","secret": "e212f4969c","title": "DSC08105","loc": {"type": "Point","coordinates": [103.81729,1.254497]}} 
{"id": "8252596213","server": "8360","farm": "9","userId": "76587677@N06","secret": "ff6cedb086","title": "DSC08113","loc": {"type": "Point","coordinates": [103.8205,1.253907]}} 
{"id": "8252593221","server": "8076","farm": "9","userId": "76587677@N06","secret": "1359ccb509","title": "DSC08106","loc": {"type": "Point","coordinates": [103.81729,1.254497]}} 
{"id": "8252596649","server": "8349","farm": "9","userId": "76587677@N06","secret": "192b454c0b","title": "DSC08114","loc": {"type": "Point","coordinates": [103.8205,1.253907]}} 
{"id": "8252594591","server": "8502","farm": "9","userId": "76587677@N06","secret": "615c801367","title": "DSC08109","loc": {"type": "Point","coordinates": [103.81729,1.254497]}} 
{"id": "8253665350","server": "8066","farm": "9","userId": "76587677@N06","secret": "c42014542f","title": "DSC08108","loc": {"type": "Point","coordinates": [103.81729,1.254497]}} 
{"id": "8252588233","server": "8199","farm": "9","userId": "76587677@N06","secret": "19b96b1ca9","title": "DSC08095","loc": {"type": "Point","coordinates": [103.81729,1.254497]}} 
{"id": "8252590777","server": "8482","farm": "9","userId": "76587677@N06","secret": "57f532e39f","title": "DSC08100","loc": {"type": "Point","coordinates": [103.81729,1.254497]}} 
{"id": "8253659866","server": "8364","farm": "9","userId": "76587677@N06","secret": "9038917845","title": "DSC08096","loc": {"type": "Point","coordinates": [103.81729,1.254497]}} 
{"id": "8253661530","server": "8211","farm": "9","userId": "76587677@N06","secret": "1bd144cd34","title": "DSC08099","loc": {"type": "Point","coordinates": [103.81729,1.254497]}} 
{"id": "8223937025","server": "8198","farm": "9","userId": "24141292@N02","secret": "cd27bc9137","title": "Merlion by Night, Sentosa","loc": {"type": "Point","coordinates": [103.81879,1.253639]}} 
{"id": "8220123133","server": "8062","farm": "9","userId": "32204075@N08","secret": "d86f4bcd41","title": "Hello !","loc": {"type": "Point","coordinates": [103.81991,1.25468]}} 
{"id": "8223584944","server": "8064","farm": "9","userId": "24141292@N02","secret": "5e42968a97","title": "Sentosa Merlion","loc": {"type": "Point","coordinates": [103.81879,1.253639]}} 
{"id": "8221205816","server": "8203","farm": "9","userId": "32204075@N08","secret": "f5c721525c","title": "Day Out To Sentosa*","loc": {"type": "Point","coordinates": [103.82008,1.254433]}} 
{"id": "8213466744","server": "8477","farm": "9","userId": "25802865@N08","secret": "5c9120023c","title": "Hibiscus","loc": {"type": "Point","coordinates": [103.819664,1.254079]}} 
{"id": "8213097112","server": "8350","farm": "9","userId": "25802865@N08","secret": "7bc0fb70f0","title": "Deepavali Decorations","loc": {"type": "Point","coordinates": [103.81938,1.254229]}} 
{"id": "8212008655","server": "8201","farm": "9","userId": "25802865@N08","secret": "dbcfbaeb98","title": "Santa's Sleight #2","loc": {"type": "Point","coordinates": [103.81889,1.253907]}} 
{"id": "8213098558","server": "8346","farm": "9","userId": "25802865@N08","secret": "f069ff65db","title": "Santa's Sleight #1","loc": {"type": "Point","coordinates": [103.81932,1.254036]}} 
{"id": "8121157202","server": "8323","farm": "9","userId": "26071009@N04","secret": "f224348772","title": "Singapore Straight Ships","loc": {"type": "Point","coordinates": [103.81707,1.255243]}} 
{"id": "8253663654","server": "8202","farm": "9","userId": "76587677@N06","secret": "4bdcc95c40","title": "DSC08104","loc": {"type": "Point","coordinates": [103.81729,1.254497]}} 
{"id": "8252589095","server": "8503","farm": "9","userId": "76587677@N06","secret": "5bbcf16ff5","title": "DSC08097","loc": {"type": "Point","coordinates": [103.81729,1.254497]}} 
{"id": "8253663344","server": "8073","farm": "9","userId": "76587677@N06","secret": "91da1bc556","title": "DSC08103","loc": {"type": "Point","coordinates": [103.81729,1.254497]}} 
{"id": "8253662414","server": "8494","farm": "9","userId": "76587677@N06","secret": "a7112a5c28","title": "DSC08101","loc": {"type": "Point","coordinates": [103.81729,1.254497]}} 
{"id": "8253662850","server": "8077","farm": "9","userId": "76587677@N06","secret": "f5f6aa5468","title": "DSC08102","loc": {"type": "Point","coordinates": [103.81729,1.254497]}} 
{"id": "8245096855","server": "8201","farm": "9","userId": "80839252@N00","secret": "18d9c896c6","title": "IMG_9278.jpg","loc": {"type": "Point","coordinates": [103.820366,1.256163]}} 
{"id": "8246166638","server": "8338","farm": "9","userId": "80839252@N00","secret": "2789ea7321","title": "IMG_9289.jpg","loc": {"type": "Point","coordinates": [103.820724,1.25593]}} 
{"id": "8245097775","server": "8199","farm": "9","userId": "80839252@N00","secret": "b35f812551","title": "IMG_9283.jpg","loc": {"type": "Point","coordinates": [103.82065,1.25598]}} 
{"id": "8246165540","server": "8487","farm": "9","userId": "80839252@N00","secret": "9170b34355","title": "IMG_9287.jpg","loc": {"type": "Point","coordinates": [103.82069,1.255955]}} 
{"id": "8245103575","server": "8346","farm": "9","userId": "80839252@N00","secret": "04098eab9a","title": "IMG_9388.jpg","loc": {"type": "Point","coordinates": [103.82071,1.255552]}} 
{"id": "8245094809","server": "8203","farm": "9","userId": "80839252@N00","secret": "e5dd5f6723","title": "IMG_9261.jpg","loc": {"type": "Point","coordinates": [103.81993,1.255888]}} 
{"id": "8246162872","server": "8209","farm": "9","userId": "80839252@N00","secret": "257bde597f","title": "IMG_9274.jpg","loc": {"type": "Point","coordinates": [103.82033,1.256191]}} 
{"id": "8245069333","server": "8485","farm": "9","userId": "80839252@N00","secret": "f126f85257","title": "IMG_9052.jpg","loc": {"type": "Point","coordinates": [103.82068,1.255733]}} 
{"id": "8234085197","server": "8070","farm": "9","userId": "90671512@N08","secret": "015e8f644d","title": "IMG_9849 (3500x2333)","loc": {"type": "Point","coordinates": [103.816895,1.255548]}} 
{"id": "8233425141","server": "8344","farm": "9","userId": "11008075@N00","secret": "9b386c28e7","title": "Saturday feast with @sourplumfairy @iamminpot @thadoy, Ressa and Jamie! ☺","loc": {"type": "Point","coordinates": [103.82064,1.256439]}} 
{"id": "8223936733","server": "8070","farm": "9","userId": "24141292@N02","secret": "cd6755f9f6","title": "Merlion by Night, Sentosa","loc": {"type": "Point","coordinates": [103.81879,1.253639]}} 
{"id": "8225015706","server": "8070","farm": "9","userId": "24141292@N02","secret": "b91be9cb2d","title": "Sentosa by Night","loc": {"type": "Point","coordinates": [103.81792,1.256353]}} 
{"id": "8223936419","server": "8204","farm": "9","userId": "24141292@N02","secret": "7030b86ebd","title": "Merlion, Sentosa","loc": {"type": "Point","coordinates": [103.81879,1.253639]}} 
{"id": "8223582984","server": "8485","farm": "9","userId": "24141292@N02","secret": "5a3c68d832","title": "Sentosa Merlion","loc": {"type": "Point","coordinates": [103.81879,1.253639]}} 
{"id": "8222509765","server": "8068","farm": "9","userId": "24141292@N02","secret": "a0f945e10d","title": "Sentosa Merlion","loc": {"type": "Point","coordinates": [103.81879,1.253639]}} 
{"id": "8223583270","server": "8206","farm": "9","userId": "24141292@N02","secret": "d8c1c829bb","title": "Sentosa Merlion","loc": {"type": "Point","coordinates": [103.81879,1.253639]}} 
{"id": "8219307711","server": "8341","farm": "9","userId": "24141292@N02","secret": "a9b1255cc4","title": "Illuminated Canopy, Sentosa","loc": {"type": "Point","coordinates": [103.820274,1.255463]}} 
{"id": "8220394122","server": "8339","farm": "9","userId": "24141292@N02","secret": "bdff5599d2","title": "Merlion by Night, Sentosa","loc": {"type": "Point","coordinates": [103.81879,1.253639]}} 
{"id": "8219307093","server": "8482","farm": "9","userId": "24141292@N02","secret": "dc50f5a465","title": "Lake of Dreams Fountain","loc": {"type": "Point","coordinates": [103.82086,1.256471]}} 
{"id": "8219306731","server": "8488","farm": "9","userId": "24141292@N02","secret": "642d4578c3","title": "Candy Trees","loc": {"type": "Point","coordinates": [103.82086,1.256471]}} 
{"id": "8213516172","server": "8341","farm": "9","userId": "24141292@N02","secret": "bf0d33b28e","title": "Ceiling Canopy Detail","loc": {"type": "Point","coordinates": [103.82033,1.255548]}} 
{"id": "8212425735","server": "8062","farm": "9","userId": "24141292@N02","secret": "049d4794bf","title": "The Sentosa Merlion","loc": {"type": "Point","coordinates": [103.81879,1.253639]}} 
{"id": "8212429495","server": "8198","farm": "9","userId": "24141292@N02","secret": "e368d19ca2","title": "Lake of Dreams Fountain, Sentosa","loc": {"type": "Point","coordinates": [103.820595,1.255774]}} 
{"id": "8213517366","server": "8487","farm": "9","userId": "24141292@N02","secret": "69c6e553ff","title": "Post Modernist Hotels, Sentosa","loc": {"type": "Point","coordinates": [103.81994,1.255001]}} 
{"id": "8212425401","server": "8340","farm": "9","userId": "24141292@N02","secret": "81866ef89a","title": "Giant Merlion, Sentosa","loc": {"type": "Point","coordinates": [103.81879,1.253639]}} 
{"id": "8212430877","server": "8343","farm": "9","userId": "24141292@N02","secret": "b614e4a712","title": "Approach to Universal Studios, Sentosa","loc": {"type": "Point","coordinates": [103.81994,1.255001]}} 
{"id": "8210028921","server": "8205","farm": "9","userId": "24141292@N02","secret": "84ed105c4f","title": "Tiger Skytower, Sentosa","loc": {"type": "Point","coordinates": [103.81879,1.253639]}} 
{"id": "8210023569","server": "8483","farm": "9","userId": "24141292@N02","secret": "bb0aa8b600","title": "In the Merlion's Mouth","loc": {"type": "Point","coordinates": [103.81879,1.253639]}} 
{"id": "8211102258","server": "8346","farm": "9","userId": "24141292@N02","secret": "fa5e601251","title": "Sentosa from the Merlion's Mouth","loc": {"type": "Point","coordinates": [103.81879,1.253639]}} 
{"id": "8210005235","server": "8061","farm": "9","userId": "24141292@N02","secret": "3c0bf387dc","title": "The Merlion, Sentosa","loc": {"type": "Point","coordinates": [103.81879,1.253639]}} 
{"id": "8211117810","server": "8480","farm": "9","userId": "24141292@N02","secret": "ec9d279901","title": "Merlion's Nose!","loc": {"type": "Point","coordinates": [103.81879,1.253639]}} 
{"id": "8210023091","server": "8069","farm": "9","userId": "24141292@N02","secret": "f074323518","title": "Atop the Merlion, Sentosa","loc": {"type": "Point","coordinates": [103.81879,1.253639]}} 
{"id": "8210022905","server": "8343","farm": "9","userId": "24141292@N02","secret": "7a925d94b7","title": "Entrance to Merlion, Sentosa","loc": {"type": "Point","coordinates": [103.81879,1.253639]}} 
{"id": "8211112180","server": "8207","farm": "9","userId": "24141292@N02","secret": "27d3cab9f3","title": "Sentosa Monorail & Merlion Walk","loc": {"type": "Point","coordinates": [103.81879,1.253639]}} 
{"id": "8211112334","server": "8059","farm": "9","userId": "24141292@N02","secret": "91b05b7644","title": "Inside the Merlion, Sentosa","loc": {"type": "Point","coordinates": [103.81879,1.253639]}} 
{"id": "8211102896","server": "8479","farm": "9","userId": "24141292@N02","secret": "8c9f47ba1a","title": "Resorts World, Sentosa","loc": {"type": "Point","coordinates": [103.81879,1.253639]}} 
{"id": "8210023725","server": "8348","farm": "9","userId": "24141292@N02","secret": "02b120cde0","title": "Sentosa Merlion","loc": {"type": "Point","coordinates": [103.81879,1.253639]}} 
{"id": "8211102452","server": "8064","farm": "9","userId": "24141292@N02","secret": "4d8c56e989","title": "View over Sentosa","loc": {"type": "Point","coordinates": [103.81879,1.253639]}} 
{"id": "8211102690","server": "8490","farm": "9","userId": "24141292@N02","secret": "f35388a8e3","title": "'Feeding' the Mercubs","loc": {"type": "Point","coordinates": [103.81879,1.253639]}} 
{"id": "8209639150","server": "8342","farm": "9","userId": "24141292@N02","secret": "566b9b6196","title": "Merlion Walk, Sentosa","loc": {"type": "Point","coordinates": [103.81879,1.253639]}} 
{"id": "8209638876","server": "8479","farm": "9","userId": "24141292@N02","secret": "f13d2e6ab0","title": "Merlion, Sentosa","loc": {"type": "Point","coordinates": [103.81879,1.253639]}} 
{"id": "8209639412","server": "8063","farm": "9","userId": "24141292@N02","secret": "94b7f017d9","title": "Sentosa Merlion","loc": {"type": "Point","coordinates": [103.81879,1.253639]}} 
{"id": "8208549865","server": "8197","farm": "9","userId": "24141292@N02","secret": "98af863cf2","title": "Sentosa Merlion","loc": {"type": "Point","coordinates": [103.81879,1.253639]}} 
{"id": "8166757690","server": "7123","farm": "8","userId": "18673521@N00","secret": "ba3496e8ff","title": "Gala Night - Incanto, a magical spectacular","loc": {"type": "Point","coordinates": [103.81961,1.255945]}} 
{"id": "8165427911","server": "7111","farm": "8","userId": "51489026@N02","secret": "a0f41af917","title": "Beware the bumps","loc": {"type": "Point","coordinates": [103.82001,1.255237]}} 
{"id": "8162634227","server": "7108","farm": "8","userId": "51489026@N02","secret": "e92499889e","title": "A tall and a short","loc": {"type": "Point","coordinates": [103.82001,1.255237]}} 
{"id": "8156934381","server": "7132","farm": "8","userId": "51489026@N02","secret": "c2d3042e16","title": "Of bricks and water","loc": {"type": "Point","coordinates": [103.82001,1.255237]}} 
{"id": "8144527099","server": "8048","farm": "9","userId": "8284816@N05","secret": "ff36893008","title": "","loc": {"type": "Point","coordinates": [103.8185,1.254167]}} 
{"id": "8144526217","server": "8474","farm": "9","userId": "8284816@N05","secret": "57a8c689b4","title": "","loc": {"type": "Point","coordinates": [103.81783,1.2545]}} 
{"id": "8135555992","server": "8324","farm": "9","userId": "61011867@N00","secret": "cbf32909eb","title": "P1040567","loc": {"type": "Point","coordinates": [103.818756,1.254143]}} 
{"id": "8133948341","server": "8470","farm": "9","userId": "95484412@N00","secret": "013a80ff2b","title": "Jellyfish","loc": {"type": "Point","coordinates": [103.81578,1.255302]}} 
{"id": "8133983006","server": "8044","farm": "9","userId": "95484412@N00","secret": "ff02ee9b31","title": "Merlion","loc": {"type": "Point","coordinates": [103.8181,1.255023]}} 
{"id": "8133940249","server": "8053","farm": "9","userId": "95484412@N00","secret": "d62ae495c9","title": "Sea horses","loc": {"type": "Point","coordinates": [103.81578,1.255302]}} 
{"id": "8129906520","server": "8469","farm": "9","userId": "19678512@N00","secret": "4ec529cfe2","title": "Sentosa aquarium","loc": {"type": "Point","coordinates": [103.81988,1.254551]}} 
{"id": "8129894693","server": "8186","farm": "9","userId": "19678512@N00","secret": "60d0b55ecb","title": "Sentosa aquarium","loc": {"type": "Point","coordinates": [103.81988,1.254551]}} 
{"id": "8129911758","server": "8326","farm": "9","userId": "19678512@N00","secret": "8ae213a19d","title": "Sentosa aquarium","loc": {"type": "Point","coordinates": [103.81988,1.254551]}} 
{"id": "8129890393","server": "8473","farm": "9","userId": "19678512@N00","secret": "f450690442","title": "Sentosa aquarium","loc": {"type": "Point","coordinates": [103.81988,1.254551]}} 
{"id": "8129901230","server": "8046","farm": "9","userId": "19678512@N00","secret": "f890a27d88","title": "Sentosa aquarium","loc": {"type": "Point","coordinates": [103.81988,1.254551]}} 
{"id": "8129895740","server": "8326","farm": "9","userId": "19678512@N00","secret": "c84a6fcb73","title": "Cable car to Sentosa","loc": {"type": "Point","coordinates": [103.81988,1.254551]}} 
{"id": "8121141753","server": "8186","farm": "9","userId": "26071009@N04","secret": "95c98f1ea7","title": "Giant Merlion, Sentosa Island","loc": {"type": "Point","coordinates": [103.82035,1.253714]}} 
{"id": "8109125903","server": "8470","farm": "9","userId": "32659680@N00","secret": "a889ac5913","title": "IMG_0171","loc": {"type": "Point","coordinates": [103.818665,1.253833]}} 
