{"id": "8759821171","server": "3821","farm": "4","userId": "10966331@N04","secret": "ba9885ac64","title": "","loc": {"type": "Point","coordinates": [103.80766,1.286833]}} 
{"id": "8291585026","server": "8215","farm": "9","userId": "10966331@N04","secret": "6c22bb5a2e","title": "","loc": {"type": "Point","coordinates": [103.80783,1.286833]}} 
{"id": "8234238885","server": "8483","farm": "9","userId": "41298448@N08","secret": "171d85019e","title": "Still lonely","loc": {"type": "Point","coordinates": [103.80603,1.286988]}} 
{"id": "9368058917","server": "5519","farm": "6","userId": "38662956@N00","secret": "f2703c3259","title": "Lovebirds","loc": {"type": "Point","coordinates": [103.80447,1.286316]}} 
{"id": "9288351555","server": "2822","farm": "3","userId": "96909191@N06","secret": "215ab37c92","title": "How to pick the best chicken rice in Singapore ? You find a store who display these hanging chicken with spine and you know it's not bad. This is my recommendation for picking good chicken rice in singspore #singapore #singaporefood #hawker #foodporn","loc": {"type": "Point","coordinates": [103.80681,1.286086]}} 
{"id": "9173756721","server": "7394","farm": "8","userId": "58072194@N08","secret": "1314d382c3","title": "6_5","loc": {"type": "Point","coordinates": [103.80617,1.287]}} 
{"id": "9165368330","server": "3811","farm": "4","userId": "35468141938@N01","secret": "0500108415","title": "Power Chendol for $1.50, a necessary poison.","loc": {"type": "Point","coordinates": [103.80801,1.286908]}} 
{"id": "8977556922","server": "8255","farm": "9","userId": "58658168@N02","secret": "cf2d011d52","title": "Munchlax's Dinner Time!! WOW WOW WEST FISH & CHIPS!! SO GOOD!!","loc": {"type": "Point","coordinates": [103.808334,1.287035]}} 
{"id": "8974411523","server": "7456","farm": "8","userId": "49098167@N07","secret": "95c3fc7183","title": "Lunch @ Fatty Cheong :)","loc": {"type": "Point","coordinates": [103.80805,1.28688]}} 
{"id": "8844851946","server": "3701","farm": "4","userId": "69921557@N00","secret": "29ef3ab467","title": "End of Party!","loc": {"type": "Point","coordinates": [103.80984,1.285519]}} 
{"id": "8844841882","server": "3774","farm": "4","userId": "69921557@N00","secret": "ae8634ed7b","title": "When push comes to shove","loc": {"type": "Point","coordinates": [103.80984,1.285519]}} 
{"id": "8843049822","server": "3815","farm": "4","userId": "69921557@N00","secret": "db49381c0f","title": "We are Zach and Jo!","loc": {"type": "Point","coordinates": [103.80984,1.285519]}} 
{"id": "8842604078","server": "2834","farm": "3","userId": "69921557@N00","secret": "139f316c96","title": "The kiss from my LCD screen","loc": {"type": "Point","coordinates": [103.80984,1.285519]}} 
{"id": "8842225820","server": "2877","farm": "3","userId": "69921557@N00","secret": "a078847971","title": "The lindy hoppers","loc": {"type": "Point","coordinates": [103.80984,1.285519]}} 
{"id": "8841558503","server": "5450","farm": "6","userId": "69921557@N00","secret": "a241c21081","title": "Zelda rocks, Chinese style","loc": {"type": "Point","coordinates": [103.80984,1.285519]}} 
{"id": "8840576901","server": "7358","farm": "8","userId": "69921557@N00","secret": "55bf8fd126","title": "#zachwedsjo","loc": {"type": "Point","coordinates": [103.80984,1.285519]}} 
{"id": "8840080535","server": "8121","farm": "9","userId": "69921557@N00","secret": "7d4a5638f1","title": "In the light","loc": {"type": "Point","coordinates": [103.80984,1.285519]}} 
{"id": "8783267424","server": "2888","farm": "3","userId": "67208377@N05","secret": "e9c15e2002","title": "Photo 12-7-12 10 45 27 AM","loc": {"type": "Point","coordinates": [103.8075,1.2865]}} 
{"id": "8723205598","server": "7333","farm": "8","userId": "61670399@N07","secret": "7acd2e0cac","title": "Awesome Char Siew rice","loc": {"type": "Point","coordinates": [103.80805,1.28688]}} 
{"id": "8682882272","server": "8541","farm": "9","userId": "78686549@N00","secret": "6cb5ee4dc7","title": "Avocado for you? Yummy!","loc": {"type": "Point","coordinates": [103.80447,1.286316]}} 
{"id": "8675060173","server": "8399","farm": "9","userId": "8659935@N03","secret": "f09d60e2d6","title": "Old Empire","loc": {"type": "Point","coordinates": [103.80487,1.286311]}} 
{"id": "8674065734","server": "8402","farm": "9","userId": "72009647@N06","secret": "b64523294b","title": "coconut","loc": {"type": "Point","coordinates": [103.8055,1.285166]}} 
{"id": "8674066688","server": "8265","farm": "9","userId": "72009647@N06","secret": "d549f075a7","title": "too tired.","loc": {"type": "Point","coordinates": [103.804665,1.2855]}} 
{"id": "8639788806","server": "8392","farm": "9","userId": "92381791@N05","secret": "4a15fc6266","title": "ikea","loc": {"type": "Point","coordinates": [103.806,1.287]}} 
{"id": "8638661549","server": "8522","farm": "9","userId": "92381791@N05","secret": "dc98de1468","title": "meatballs","loc": {"type": "Point","coordinates": [103.80883,1.284666]}} 
{"id": "8632935225","server": "8539","farm": "9","userId": "78686549@N00","secret": "c0a5332818","title": "Fatty meat at Fatty Cheong. The slightly burnt part was yummy!","loc": {"type": "Point","coordinates": [103.80808,1.286695]}} 
{"id": "8613564114","server": "8103","farm": "9","userId": "89975165@N07","secret": "4f9c001f34","title": "Taken a liking for Hokkien Mee recently.","loc": {"type": "Point","coordinates": [103.80805,1.28688]}} 
{"id": "8587168819","server": "8372","farm": "9","userId": "10966331@N04","secret": "b6218ee140","title": "","loc": {"type": "Point","coordinates": [103.8095,1.284666]}} 
{"id": "8544307934","server": "8510","farm": "9","userId": "28261482@N05","secret": "444a52348a","title": "My beloved mother.. Nom nom nom nom.. Hurhur.. #lunch #mother #mum","loc": {"type": "Point","coordinates": [103.80446,1.286357]}} 
{"id": "8543184325","server": "8375","farm": "9","userId": "28261482@N05","secret": "26107f1a56","title": "Lunch with mum after Ikea shopping..","loc": {"type": "Point","coordinates": [103.80446,1.286357]}} 
{"id": "8544286276","server": "8376","farm": "9","userId": "28261482@N05","secret": "1354df6119","title": "I love Lor Mee :)","loc": {"type": "Point","coordinates": [103.80446,1.286357]}} 
{"id": "8539412030","server": "8230","farm": "9","userId": "44065876@N03","secret": "506b1faecc","title": "100g Pork Burger","loc": {"type": "Point","coordinates": [103.80483,1.285833]}} 
{"id": "8528086856","server": "8372","farm": "9","userId": "80217014@N00","secret": "4ef3833c23","title": "Dinner then a ride home","loc": {"type": "Point","coordinates": [103.80446,1.286357]}} 
{"id": "8516917097","server": "8095","farm": "9","userId": "8583503@N07","secret": "e8544cd232","title": "Hungry!!!","loc": {"type": "Point","coordinates": [103.804825,1.285796]}} 
{"id": "8448925941","server": "8359","farm": "9","userId": "10966331@N04","secret": "757c40a69d","title": "","loc": {"type": "Point","coordinates": [103.809166,1.286166]}} 
{"id": "8383626332","server": "8376","farm": "9","userId": "14385475@N05","secret": "0719b6ac63","title": "IMG_0946","loc": {"type": "Point","coordinates": [103.809166,1.285]}} 
{"id": "8382544417","server": "8194","farm": "9","userId": "14385475@N05","secret": "893986592a","title": "IMG_0949","loc": {"type": "Point","coordinates": [103.80933,1.284833]}} 
{"id": "8382545811","server": "8086","farm": "9","userId": "14385475@N05","secret": "00626ab2c8","title": "IMG_0951","loc": {"type": "Point","coordinates": [103.8085,1.284666]}} 
{"id": "8382545157","server": "8335","farm": "9","userId": "14385475@N05","secret": "8216ca5971","title": "IMG_0950","loc": {"type": "Point","coordinates": [103.809,1.284666]}} 
{"id": "8382783660","server": "8215","farm": "9","userId": "67267180@N04","secret": "c6359165b1","title": "Ikea Potato Wedges [013/365]","loc": {"type": "Point","coordinates": [103.80883,1.284833]}} 
{"id": "8350653760","server": "8223","farm": "9","userId": "16102830@N05","secret": "a505a0c98d","title": "1211_NovemberRandoms_HR_012","loc": {"type": "Point","coordinates": [103.807335,1.285999]}} 
{"id": "8308445089","server": "8360","farm": "9","userId": "42594504@N00","secret": "f841a93e04","title": "To infinity and beyond!! @hisbelovedpig","loc": {"type": "Point","coordinates": [103.8087,1.285144]}} 
{"id": "8309482074","server": "8499","farm": "9","userId": "42594504@N00","secret": "d56ee12842","title": "Reflections - The Awesome Bunch :) plus @vintage_yee","loc": {"type": "Point","coordinates": [103.808,1.286826]}} 
{"id": "8308433849","server": "8355","farm": "9","userId": "42594504@N00","secret": "a32968615c","title": "The Hazy view from MBS, photos from last week. Testing #noir #sgig #zengliwei #landscape #iphoneonly #iphoneography","loc": {"type": "Point","coordinates": [103.8083,1.285564]}} 
{"id": "8308424301","server": "8075","farm": "9","userId": "42594504@N00","secret": "ca540ac908","title": "trek heaven","loc": {"type": "Point","coordinates": [103.80813,1.284646]}} 
{"id": "8309476360","server": "8082","farm": "9","userId": "42594504@N00","secret": "000c158342","title": "Drools bet this will help my bike split timing.. :)","loc": {"type": "Point","coordinates": [103.80813,1.284646]}} 
{"id": "8308433095","server": "8360","farm": "9","userId": "42594504@N00","secret": "866ff8a03a","title": "The evening glow","loc": {"type": "Point","coordinates": [103.8083,1.285603]}} 
{"id": "8292622267","server": "8500","farm": "9","userId": "10966331@N04","secret": "34ec5a3f52","title": "","loc": {"type": "Point","coordinates": [103.808334,1.285499]}} 
{"id": "8290529309","server": "8355","farm": "9","userId": "10966331@N04","secret": "07968f1098","title": "","loc": {"type": "Point","coordinates": [103.80617,1.286333]}} 
{"id": "8280187262","server": "8502","farm": "9","userId": "16105436@N00","secret": "426c0eefd6","title": "Top deck seat counter","loc": {"type": "Point","coordinates": [103.80817,1.286166]}} 
{"id": "8267626309","server": "8203","farm": "9","userId": "10966331@N04","secret": "7217d161ba","title": "","loc": {"type": "Point","coordinates": [103.80983,1.284833]}} 
{"id": "8262557141","server": "8491","farm": "9","userId": "10966331@N04","secret": "2c7a831bf9","title": "","loc": {"type": "Point","coordinates": [103.80983,1.285499]}} 
{"id": "8256002449","server": "8477","farm": "9","userId": "41298448@N08","secret": "e919a983d3","title": "Eleanor","loc": {"type": "Point","coordinates": [103.80603,1.286988]}} 
{"id": "8256930716","server": "8496","farm": "9","userId": "41298448@N08","secret": "051687d534","title": "Eleanor","loc": {"type": "Point","coordinates": [103.80603,1.286988]}} 
{"id": "8254069592","server": "8341","farm": "9","userId": "21596674@N00","secret": "c7ddcbd861","title": "That was a lil too much #Sambal... #Claypot #Laksa fr. Alexandra. #foodporn !","loc": {"type": "Point","coordinates": [103.80445,1.286322]}} 
{"id": "8204608562","server": "8479","farm": "9","userId": "99942665@N00","secret": "b44f156975","title": "P1150757","loc": {"type": "Point","coordinates": [103.80504,1.286265]}} 
{"id": "8204608080","server": "8339","farm": "9","userId": "99942665@N00","secret": "7b0f8f1243","title": "P1150758","loc": {"type": "Point","coordinates": [103.80504,1.286265]}} 
{"id": "8204610864","server": "8345","farm": "9","userId": "99942665@N00","secret": "74ec9a62e6","title": "P1150751","loc": {"type": "Point","coordinates": [103.80504,1.286265]}} 
{"id": "8203518685","server": "8347","farm": "9","userId": "99942665@N00","secret": "7a6129ee1a","title": "P1150754","loc": {"type": "Point","coordinates": [103.80504,1.286265]}} 
{"id": "8204611572","server": "8342","farm": "9","userId": "99942665@N00","secret": "ab2af21176","title": "P1150750","loc": {"type": "Point","coordinates": [103.80504,1.286265]}} 
{"id": "8203518133","server": "8200","farm": "9","userId": "99942665@N00","secret": "cae27af73b","title": "P1150755","loc": {"type": "Point","coordinates": [103.80504,1.286265]}} 
{"id": "8203521193","server": "8486","farm": "9","userId": "99942665@N00","secret": "9cf77aa26f","title": "P1150744","loc": {"type": "Point","coordinates": [103.80504,1.286265]}} 
{"id": "8204610280","server": "8338","farm": "9","userId": "99942665@N00","secret": "7bc4c768ef","title": "P1150753","loc": {"type": "Point","coordinates": [103.80504,1.286265]}} 
{"id": "8194984333","server": "8059","farm": "9","userId": "7151283@N05","secret": "927c36efd2","title": "Tokyo vending","loc": {"type": "Point","coordinates": [103.80783,1.2865]}} 
{"id": "8180793240","server": "8068","farm": "9","userId": "21596674@N00","secret": "7e20cabc97","title": "The Indian Burger fr. De Burg, #Dwali festive #burger. This has a 200g Chicken #Tandoori  patty, sliced onion rings, crunched #papadam, #mesclun greens, and topping it off with mint yogurt.  The Chicken tandoori patty was dlish!","loc": {"type": "Point","coordinates": [103.804695,1.285882]}} 
{"id": "8171313006","server": "8344","farm": "9","userId": "49098167@N07","secret": "4b0f80404a","title": "Ikea's Meatball, Salmon and Pasta :)","loc": {"type": "Point","coordinates": [103.80799,1.284755]}} 
{"id": "8166367480","server": "8477","farm": "9","userId": "10966331@N04","secret": "63ab38e933","title": "","loc": {"type": "Point","coordinates": [103.80933,1.285667]}} 
{"id": "8147030465","server": "8193","farm": "9","userId": "69379954@N08","secret": "e0af471a88","title": "Green dress","loc": {"type": "Point","coordinates": [103.80781,1.286741]}} 
{"id": "8147066600","server": "8184","farm": "9","userId": "69379954@N08","secret": "b7689ec63b","title": "A round hat","loc": {"type": "Point","coordinates": [103.80798,1.286383]}} 
{"id": "8140779908","server": "8195","farm": "9","userId": "22311697@N06","secret": "0de1711789","title": "331 ever changing cityscape","loc": {"type": "Point","coordinates": [103.806,1.287166]}} 
