{"id": "9143590496","server": "2847","farm": "3","userId": "37412421@N06","secret": "a6867490ec","title": "Mount Faber-4-2","loc": {"type": "Point","coordinates": [103.81707,1.275982]}} 
{"id": "8684909361","server": "8115","farm": "9","userId": "46275416@N04","secret": "63059fb4c3","title": "Telok Blangah Area","loc": {"type": "Point","coordinates": [103.81934,1.276218]}} 
{"id": "8685598524","server": "8541","farm": "9","userId": "46275416@N04","secret": "6e7ebbde97","title": "Telok Blangah Area","loc": {"type": "Point","coordinates": [103.81887,1.277217]}} 
{"id": "9440781986","server": "7413","farm": "8","userId": "99233151@N00","secret": "04aeda4f3c","title": "Monday morning run","loc": {"type": "Point","coordinates": [103.815414,1.276218]}} 
{"id": "9432737958","server": "2824","farm": "3","userId": "35468141938@N01","secret": "f916aefdfd","title": "Discovering the Southern Ridges? Nay, more like getting destroyed by the countless steep ascents. Btw, we do walk our bikes at some point to give way to joggers.","loc": {"type": "Point","coordinates": [103.815414,1.276218]}} 
{"id": "9347455941","server": "3705","farm": "4","userId": "97868790@N00","secret": "0faeb8ef0c","title": "Singapore and Kuala Lumpur 2013","loc": {"type": "Point","coordinates": [103.81544,1.275966]}} 
{"id": "9346609709","server": "5486","farm": "6","userId": "9895689@N04","secret": "36e2723691","title": "Dusk","loc": {"type": "Point","coordinates": [103.81623,1.275811]}} 
{"id": "9323708484","server": "3672","farm": "4","userId": "21997205@N00","secret": "beb339a19e","title": "3.40am Braised Duck Noodles Breakfast","loc": {"type": "Point","coordinates": [103.81875,1.277312]}} 
{"id": "9323504556","server": "7401","farm": "8","userId": "21997205@N00","secret": "668ae2b04c","title": "3am Tumbling Dry at the Laundromat with Agatha Christie...","loc": {"type": "Point","coordinates": [103.81883,1.277666]}} 
{"id": "9323314004","server": "3751","farm": "4","userId": "21997205@N00","secret": "9b8df007ff","title": "2am at the Laundromat (my very first time!)...","loc": {"type": "Point","coordinates": [103.81883,1.277666]}} 
{"id": "9246735877","server": "5532","farm": "6","userId": "21997205@N00","secret": "5a3003efc3","title": "Candy Crushing Moment","loc": {"type": "Point","coordinates": [103.81914,1.277218]}} 
{"id": "9165372436","server": "5441","farm": "6","userId": "55531333@N08","secret": "b34ac43641","title": "film49-07","loc": {"type": "Point","coordinates": [103.81558,1.275873]}} 
{"id": "9165373470","server": "7400","farm": "8","userId": "55531333@N08","secret": "733757140b","title": "film49-08","loc": {"type": "Point","coordinates": [103.81558,1.275873]}} 
{"id": "9156499839","server": "7372","farm": "8","userId": "46815012@N00","secret": "7fb3151b15","title": "","loc": {"type": "Point","coordinates": [103.81733,1.277499]}} 
{"id": "9155969459","server": "2823","farm": "3","userId": "46815012@N00","secret": "4b55e79f1b","title": "Strike!","loc": {"type": "Point","coordinates": [103.8175,1.277666]}} 
{"id": "9157563164","server": "7407","farm": "8","userId": "46815012@N00","secret": "6063e10d05","title": "Nice","loc": {"type": "Point","coordinates": [103.8175,1.277499]}} 
{"id": "9116866578","server": "7415","farm": "8","userId": "21997205@N00","secret": "5fd61a0330","title": "For the last few hazy days I'd gone out wearing just my bandana or surgical masks to filter out a bit of the harmful particles in the air, as I couldn't get any N95 masks. But as I was walking past the neighbourhood community centre just now, I saw they w","loc": {"type": "Point","coordinates": [103.81973,1.276142]}} 
{"id": "9082595407","server": "7284","farm": "8","userId": "45145143@N08","secret": "861d5f5ddb","title": "","loc": {"type": "Point","coordinates": [103.81917,1.275]}} 
{"id": "9055979464","server": "5506","farm": "6","userId": "55486190@N00","secret": "ac7eced37b","title": "Lush #green #foliage surrounds urbanisation in #Singapore","loc": {"type": "Point","coordinates": [103.815414,1.276218]}} 
{"id": "9051148300","server": "3807","farm": "4","userId": "96406011@N08","secret": "6d4f7f46cc","title": "IMG_8787_DxO","loc": {"type": "Point","coordinates": [103.81575,1.275869]}} 
{"id": "8995854809","server": "5326","farm": "6","userId": "40601139@N03","secret": "d0f6091fa2","title": "Henderson Waves","loc": {"type": "Point","coordinates": [103.815414,1.276218]}} 
{"id": "8783260104","server": "5447","farm": "6","userId": "67208377@N05","secret": "ca3381017b","title": "IMG_0197","loc": {"type": "Point","coordinates": [103.819336,1.275833]}} 
{"id": "8733847757","server": "7289","farm": "8","userId": "21997205@N00","secret": "9a9f5b0d05","title": "Perfect weather for a dip.","loc": {"type": "Point","coordinates": [103.817474,1.2771]}} 
{"id": "8700084399","server": "8117","farm": "9","userId": "8583503@N07","secret": "fe051785bf","title": "Subway Club with Hearty Italian.","loc": {"type": "Point","coordinates": [103.817604,1.277647]}} 
{"id": "8684997795","server": "8262","farm": "9","userId": "46275416@N04","secret": "7e7dd44443","title": "Telok Blangah Area","loc": {"type": "Point","coordinates": [103.81728,1.276647]}} 
{"id": "8648511416","server": "8523","farm": "9","userId": "24358066@N08","secret": "7ba48e1372","title": "Henderson Waves","loc": {"type": "Point","coordinates": [103.81781,1.275724]}} 
{"id": "8647964874","server": "8395","farm": "9","userId": "24358066@N08","secret": "9f9b3f43e0","title": "Henderson Waves at Mount Faber","loc": {"type": "Point","coordinates": [103.81781,1.275724]}} 
{"id": "8527232408","server": "8234","farm": "9","userId": "8583503@N07","secret": "ff5b6e5299","title": "Pool here looks good. Should come here for noon swim soon.","loc": {"type": "Point","coordinates": [103.81741,1.277305]}} 
{"id": "8519658875","server": "8389","farm": "9","userId": "23436061@N00","secret": "4735f9eaa1","title": "SCUBAing #scuba #diving #enclosed #pool #water #class #summer","loc": {"type": "Point","coordinates": [103.81741,1.277305]}} 
{"id": "8482320096","server": "8235","farm": "9","userId": "35468141938@N01","secret": "59acdb20c4","title": "Stairway to Mt Faber","loc": {"type": "Point","coordinates": [103.818665,1.275666]}} 
{"id": "8468866086","server": "8366","farm": "9","userId": "93110113@N07","secret": "5a8b42563d","title": "Henderson Waves","loc": {"type": "Point","coordinates": [103.815414,1.27581]}} 
{"id": "8457794115","server": "8248","farm": "9","userId": "55751090@N00","secret": "df34f11e0a","title": "Család Szingapúrban","loc": {"type": "Point","coordinates": [103.81552,1.276136]}} 
{"id": "8458896358","server": "8234","farm": "9","userId": "55751090@N00","secret": "07628074e7","title": "Család Szingapúrban","loc": {"type": "Point","coordinates": [103.81551,1.276152]}} 
{"id": "8458895888","server": "8508","farm": "9","userId": "55751090@N00","secret": "58aaca662d","title": "Család Szingapúrban","loc": {"type": "Point","coordinates": [103.81551,1.276152]}} 
{"id": "8436993665","server": "8236","farm": "9","userId": "99381909@N00","secret": "4d31d6ec78","title": "Feb 2•Pattern | Not bad. One walk and I can take photos for three days' worth of #fmsphotoaday. (Yes, am cheating but still...)","loc": {"type": "Point","coordinates": [103.815414,1.276218]}} 
{"id": "8429661062","server": "8087","farm": "9","userId": "21997205@N00","secret": "aa4e61a4ec","title": "High-Rise Crates","loc": {"type": "Point","coordinates": [103.81875,1.277312]}} 
{"id": "8370660070","server": "8086","farm": "9","userId": "91334033@N06","secret": "d25d328dcb","title": "#water #drop #leaf #night #shot #photo #henderson #bridge","loc": {"type": "Point","coordinates": [103.815414,1.276218]}} 
{"id": "8370436254","server": "8370","farm": "9","userId": "38417840@N08","secret": "0f72060130","title": "Kite Over Handerson Height","loc": {"type": "Point","coordinates": [103.81553,1.276529]}} 
{"id": "8369360155","server": "8226","farm": "9","userId": "38417840@N08","secret": "2a3948626b","title": "Kite Over Handerson Height","loc": {"type": "Point","coordinates": [103.81553,1.276529]}} 
{"id": "8350798614","server": "8504","farm": "9","userId": "91197205@N05","secret": "453babef7f","title": "Henderson Waves","loc": {"type": "Point","coordinates": [103.816,1.275833]}} 
{"id": "8341890058","server": "8494","farm": "9","userId": "7942071@N02","secret": "1b9dca3d9a","title": "Mitsubishi starmex...cool","loc": {"type": "Point","coordinates": [103.81938,1.277955]}} 
{"id": "8324526570","server": "8072","farm": "9","userId": "7420967@N06","secret": "8d976c4513","title": "水粿","loc": {"type": "Point","coordinates": [103.81875,1.277312]}} 
{"id": "8300319076","server": "8364","farm": "9","userId": "62326582@N00","secret": "c214f9406e","title": "Henderson Wave - DSC_3251","loc": {"type": "Point","coordinates": [103.81614,1.277312]}} 
{"id": "8299267053","server": "8216","farm": "9","userId": "62326582@N00","secret": "2efe872651","title": "Henderson Wave - DSC_3260","loc": {"type": "Point","coordinates": [103.81644,1.277483]}} 
{"id": "8292208829","server": "8220","farm": "9","userId": "8480000@N05","secret": "27b4a6b9a4","title": "Been a while since I last came up here :)","loc": {"type": "Point","coordinates": [103.815414,1.276218]}} 
{"id": "8292173933","server": "8082","farm": "9","userId": "20687455@N00","secret": "838ebdff7b","title": "IMG_2984","loc": {"type": "Point","coordinates": [103.81589,1.275866]}} 
{"id": "8292174447","server": "8492","farm": "9","userId": "20687455@N00","secret": "5ae6b66396","title": "IMG_2983","loc": {"type": "Point","coordinates": [103.81606,1.275361]}} 
{"id": "8274219882","server": "8496","farm": "9","userId": "35534186@N03","secret": "03e58ac3e3","title": "Reflex world of iPhone","loc": {"type": "Point","coordinates": [103.81875,1.277312]}} 
{"id": "8245528481","server": "8339","farm": "9","userId": "21997205@N00","secret": "f8aa013f22","title": "Free-range chicken at the bus stop...","loc": {"type": "Point","coordinates": [103.81955,1.275677]}} 
{"id": "8244137492","server": "8486","farm": "9","userId": "21997205@N00","secret": "ce2ff722a2","title": "Painting with Abandon(ment Issues)...","loc": {"type": "Point","coordinates": [103.818954,1.276899]}} 
{"id": "8236316327","server": "8207","farm": "9","userId": "21997205@N00","secret": "1c4d34ce11","title": "Void Deck Office","loc": {"type": "Point","coordinates": [103.81955,1.275677]}} 
{"id": "8236104077","server": "8201","farm": "9","userId": "69921557@N00","secret": "7099f80909","title": "Wedding? What wedding?","loc": {"type": "Point","coordinates": [103.815414,1.276218]}} 
{"id": "8235991775","server": "8069","farm": "9","userId": "69921557@N00","secret": "6c96848287","title": "Mordor","loc": {"type": "Point","coordinates": [103.815414,1.276218]}} 
{"id": "8235879193","server": "8340","farm": "9","userId": "69921557@N00","secret": "c386a02292","title": "Zach in deep water","loc": {"type": "Point","coordinates": [103.815414,1.276218]}} 
{"id": "8236936494","server": "8346","farm": "9","userId": "69921557@N00","secret": "5dee3c27fc","title": "Solemn... Not!","loc": {"type": "Point","coordinates": [103.815414,1.276218]}} 
{"id": "8235835857","server": "8207","farm": "9","userId": "69921557@N00","secret": "69d5261305","title": "upload","loc": {"type": "Point","coordinates": [103.815414,1.276218]}} 
{"id": "8236835596","server": "8484","farm": "9","userId": "69921557@N00","secret": "6da7fa0810","title": "upload","loc": {"type": "Point","coordinates": [103.815414,1.276218]}} 
{"id": "8234336129","server": "8484","farm": "9","userId": "21997205@N00","secret": "e2e873d183","title": "Rainy Court","loc": {"type": "Point","coordinates": [103.81875,1.277312]}} 
{"id": "8234331631","server": "8204","farm": "9","userId": "21997205@N00","secret": "719673ca9f","title": "Rainy Steps","loc": {"type": "Point","coordinates": [103.81875,1.277312]}} 
{"id": "8234588380","server": "8348","farm": "9","userId": "75976259@N00","secret": "fac2c4b972","title": "Brave New World","loc": {"type": "Point","coordinates": [103.81587,1.276325]}} 
{"id": "8225961279","server": "8059","farm": "9","userId": "11008075@N00","secret": "38840d8df6","title": "A first for me: self-service, 24-hour laundromat. For my sheets and quilt covers on this rainy day. ☔","loc": {"type": "Point","coordinates": [103.81892,1.277712]}} 
{"id": "8212939525","server": "8065","farm": "9","userId": "21997205@N00","secret": "b50732fc56","title": "A Chair With A Story","loc": {"type": "Point","coordinates": [103.81953,1.276021]}} 
{"id": "8212934941","server": "8062","farm": "9","userId": "21997205@N00","secret": "69dc879962","title": "Chairs With Stories","loc": {"type": "Point","coordinates": [103.81953,1.276021]}} 
{"id": "8212931531","server": "8057","farm": "9","userId": "21997205@N00","secret": "e550a1ee1b","title": "A Chair With A Story","loc": {"type": "Point","coordinates": [103.81953,1.276021]}} 
{"id": "8212942435","server": "8339","farm": "9","userId": "21997205@N00","secret": "1d8593e610","title": "Chairs With Stories","loc": {"type": "Point","coordinates": [103.81953,1.276021]}} 
{"id": "8214031884","server": "8489","farm": "9","userId": "21997205@N00","secret": "bdbc372bc2","title": "Chairs With Stories","loc": {"type": "Point","coordinates": [103.81953,1.276021]}} 
{"id": "8195667940","server": "8202","farm": "9","userId": "21997205@N00","secret": "6db52a9c66","title": "Trying out this great-looking InstaWeather app, with a visual report of the weather situation at the Telok Blangah neighbourhood.","loc": {"type": "Point","coordinates": [103.81875,1.277312]}} 
{"id": "8195618716","server": "8485","farm": "9","userId": "21997205@N00","secret": "cd834718aa","title": "One of my favourite food at the Telok Blangah neighbourhood is this hearty Hai Ou (Seagull) Braised Duck Noodles Stall (S$2.50) at the Crescent Market.","loc": {"type": "Point","coordinates": [103.81875,1.277312]}} 
{"id": "8166773790","server": "8341","farm": "9","userId": "35468141938@N01","secret": "d429af6e38","title": "Friendly cat with really long tail...","loc": {"type": "Point","coordinates": [103.81583,1.275206]}} 
{"id": "8115524633","server": "8055","farm": "9","userId": "21997205@N00","secret": "942d241716","title": "The Merman Returns... ;)","loc": {"type": "Point","coordinates": [103.817474,1.2771]}} 
{"id": "8115509202","server": "8468","farm": "9","userId": "21997205@N00","secret": "99b9957316","title": "Getting my feet wet...","loc": {"type": "Point","coordinates": [103.817474,1.2771]}} 
{"id": "8115504758","server": "8043","farm": "9","userId": "21997205@N00","secret": "193265eeb6","title": "View from the pool...","loc": {"type": "Point","coordinates": [103.817474,1.2771]}} 
