{"id": "8920950894","server": "5347","farm": "6","userId": "99942665@N00","secret": "390c49c5f3","title": "IMG_20130601_165346","loc": {"type": "Point","coordinates": [103.80534,1.288532]}} 
{"id": "8722754502","server": "7343","farm": "8","userId": "42482636@N03","secret": "080e196826","title": "Dog by the Shoe Cabinet","loc": {"type": "Point","coordinates": [103.807,1.28748]}} 
{"id": "8621087252","server": "8265","farm": "9","userId": "40138859@N02","secret": "948bbeae90","title": "Low carb breakfast","loc": {"type": "Point","coordinates": [103.80548,1.288167]}} 
{"id": "8375865541","server": "8365","farm": "9","userId": "74006149@N07","secret": "026d550a9e","title": "#ikea cakes","loc": {"type": "Point","coordinates": [103.80548,1.288167]}} 
{"id": "9213412501","server": "5513","farm": "6","userId": "25217916@N06","secret": "a5f05561ce","title": "#ikea #food #foodporn #yummy #instagood #photooftheday #instamood #igers #picoftheday #instadaily #instagramhub #bestoftheday #igdaily #iphonesia #webstagram #follow #instagramers #followme #statigram #instahub #photo #like #followback #tagsforlikes #awes","loc": {"type": "Point","coordinates": [103.80548,1.288167]}} 
{"id": "9188451149","server": "7369","farm": "8","userId": "82747221@N04","secret": "a2967c1ef5","title": "Lunch w @iTzAshhh and @denisealexis!","loc": {"type": "Point","coordinates": [103.80578,1.28821]}} 
{"id": "9142680888","server": "5338","farm": "6","userId": "21997205@N00","secret": "4fa2a95ee2","title": "Catching up with my former classmate Carol today...","loc": {"type": "Point","coordinates": [103.805244,1.288798]}} 
{"id": "9105426231","server": "3815","farm": "4","userId": "58658168@N02","secret": "dc44a7208a","title": "Good news #SG. #SGHaze #PSI readings is now decreasing from today morning at 10am of 326 drop to 6pm of 73.. Starting to see clear skies above!! But all we still need is rain to be pour down on us, 'Like' and 'Share' this if you peeps agree to it too!!","loc": {"type": "Point","coordinates": [103.80908,1.288913]}} 
{"id": "9037728225","server": "7388","farm": "8","userId": "58658168@N02","secret": "a5f5ee52e0","title": "Munchlax's Lunch Time.. Pizza Hut Variety Box A S$19.90 1 Per pnt Pizza Hawaiian + 1 Per pnt Turkey Bacon & Shrooms Pizza + MD 4pics honey chicken wings + MD 6pics Chicken Karage + Regular bottle of Pepsi = T.G.I.F AWESOMENESS!!","loc": {"type": "Point","coordinates": [103.80908,1.288913]}} 
{"id": "8986580202","server": "8125","farm": "9","userId": "96364464@N05","secret": "f4095a8122","title": "3 for $5. New Potatoes Chip from Ikea. Try it out and taste great.","loc": {"type": "Point","coordinates": [103.80548,1.288167]}} 
{"id": "8959160469","server": "3769","farm": "4","userId": "95065019@N00","secret": "f3db8c890c","title": "Happiiiness is being on the way. #awesometrip","loc": {"type": "Point","coordinates": [103.80548,1.288167]}} 
{"id": "8958941999","server": "8118","farm": "9","userId": "95065019@N00","secret": "7041c07982","title": "â†’ #zeromoment","loc": {"type": "Point","coordinates": [103.80548,1.288167]}} 
{"id": "8960085922","server": "3790","farm": "4","userId": "95065019@N00","secret": "2c80fd3f8a","title": "V #zeromoment","loc": {"type": "Point","coordinates": [103.80548,1.288167]}} 
{"id": "8959212796","server": "5443","farm": "6","userId": "95065019@N00","secret": "0924934f22","title": "Ikea Restaurant #ikea #awesometrip","loc": {"type": "Point","coordinates": [103.80578,1.28821]}} 
{"id": "8957555119","server": "3675","farm": "4","userId": "95065019@N00","secret": "6d498a9037","title": "Panikea #awesometrip","loc": {"type": "Point","coordinates": [103.80548,1.288167]}} 
{"id": "8920333785","server": "5339","farm": "6","userId": "99942665@N00","secret": "b20285bf09","title": "IMG_20130601_162331","loc": {"type": "Point","coordinates": [103.805664,1.288435]}} 
{"id": "8920952192","server": "2830","farm": "3","userId": "99942665@N00","secret": "d82da1e7d6","title": "IMG_20130601_165451","loc": {"type": "Point","coordinates": [103.805336,1.288553]}} 
{"id": "8891520171","server": "5454","farm": "6","userId": "10124523@N07","secret": "e340207522","title": "#patay","loc": {"type": "Point","coordinates": [103.80548,1.288167]}} 
{"id": "8810504831","server": "7355","farm": "8","userId": "78686549@N00","secret": "d628234417","title": "I love pork and beef meatballs.","loc": {"type": "Point","coordinates": [103.80578,1.28821]}} 
{"id": "8753100823","server": "8132","farm": "9","userId": "25217916@N06","secret": "6eaabb21f9","title": "Claim it! #quotes #sky #clouds #iphone5 #instagood #photooftheday #instamood #igers #picoftheday #instadaily #instagramhub #bestoftheday #igdaily #iphonesia #webstagram #follow #instagramers #followme #statigram #instahub #photo #like #followback #tagsfor","loc": {"type": "Point","coordinates": [103.80548,1.288167]}} 
{"id": "8721631269","server": "7344","farm": "8","userId": "42482636@N03","secret": "d9910e43d5","title": "Dining hall","loc": {"type": "Point","coordinates": [103.806984,1.287437]}} 
{"id": "8722754386","server": "7401","farm": "8","userId": "42482636@N03","secret": "e088bac961","title": "Angels in the display case","loc": {"type": "Point","coordinates": [103.806984,1.287437]}} 
{"id": "8721631531","server": "7372","farm": "8","userId": "42482636@N03","secret": "b6c91f8ee2","title": "Living room & balcony","loc": {"type": "Point","coordinates": [103.80696,1.287502]}} 
{"id": "8721633259","server": "7366","farm": "8","userId": "42482636@N03","secret": "d21fce5191","title": "Display case","loc": {"type": "Point","coordinates": [103.807,1.287437]}} 
{"id": "8721632673","server": "7311","farm": "8","userId": "42482636@N03","secret": "bff1767228","title": "Study - Library - Den","loc": {"type": "Point","coordinates": [103.80696,1.287459]}} 
{"id": "8722754084","server": "7327","farm": "8","userId": "42482636@N03","secret": "70900f339e","title": "Kitchen","loc": {"type": "Point","coordinates": [103.80702,1.287459]}} 
{"id": "8721633503","server": "7390","farm": "8","userId": "42482636@N03","secret": "1727563cfc","title": "Master bedroom","loc": {"type": "Point","coordinates": [103.806984,1.287502]}} 
{"id": "8721632807","server": "7433","farm": "8","userId": "42482636@N03","secret": "7ea728e26f","title": "Family area / Hallway to bedrooms","loc": {"type": "Point","coordinates": [103.80696,1.28748]}} 
{"id": "8721632973","server": "7316","farm": "8","userId": "42482636@N03","secret": "7096d78eaf","title": "Herbs in kitchen","loc": {"type": "Point","coordinates": [103.806984,1.287459]}} 
{"id": "8721633113","server": "7416","farm": "8","userId": "42482636@N03","secret": "542fb7a643","title": "Peonies in a mango wood vase","loc": {"type": "Point","coordinates": [103.806984,1.28748]}} 
{"id": "8722706772","server": "7350","farm": "8","userId": "42482636@N03","secret": "659ffb1876","title": "HDB Plan 13-5048, 123 sqft","loc": {"type": "Point","coordinates": [103.807045,1.287695]}} 
{"id": "8665486682","server": "8260","farm": "9","userId": "49098167@N07","secret": "2295bc78e4","title": "My game toy for 15 min!! It was so cool!! :) like driving a real F1..","loc": {"type": "Point","coordinates": [103.80754,1.290312]}} 
{"id": "8665479152","server": "8263","farm": "9","userId": "49098167@N07","secret": "4c3734d7be","title": "///M. Move In The Right Circle...","loc": {"type": "Point","coordinates": [103.80754,1.290312]}} 
{"id": "8647099937","server": "8106","farm": "9","userId": "65757632@N00","secret": "98d250b074","title": "Wolfgang exploring Ikea kid's closet setup","loc": {"type": "Point","coordinates": [103.80548,1.288167]}} 
{"id": "8644503363","server": "8405","farm": "9","userId": "14795017@N06","secret": "e84f807391","title": "Sunny Hills","loc": {"type": "Point","coordinates": [103.80649,1.289475]}} 
{"id": "8592102476","server": "8233","farm": "9","userId": "89975165@N07","secret": "d4bd0c12ca","title": "Ikea with momma.","loc": {"type": "Point","coordinates": [103.80578,1.28821]}} 
{"id": "8581251229","server": "8092","farm": "9","userId": "76804634@N00","secret": "8fd54c06e5","title": "A fair warning. #kids #box #warning","loc": {"type": "Point","coordinates": [103.80548,1.288167]}} 
{"id": "8535711539","server": "8522","farm": "9","userId": "67851013@N02","secret": "c73a09f5a0","title": "#Evening #brew 07/03/13.","loc": {"type": "Point","coordinates": [103.80527,1.288179]}} 
{"id": "8524401934","server": "8373","farm": "9","userId": "49421461@N00","secret": "65af8febd0","title": "","loc": {"type": "Point","coordinates": [103.807,1.289999]}} 
{"id": "8518701562","server": "8521","farm": "9","userId": "11008075@N00","secret": "e8ff77ed31","title": "Friday night shopping","loc": {"type": "Point","coordinates": [103.80548,1.288167]}} 
{"id": "8515118748","server": "8383","farm": "9","userId": "25217916@N06","secret": "83b7ab65f8","title": "#IKEA #model #lol #bnw #iphone5 #instagood #photooftheday #instamood #igers #picoftheday #instadaily #instagramhub #bestoftheday #igdaily #iphonesia #webstagram #follow #instagramers #followme #statigram #instahub #photo #like #followback #tagsforlikes #a","loc": {"type": "Point","coordinates": [103.80548,1.288167]}} 
{"id": "8480192699","server": "8383","farm": "9","userId": "25217916@N06","secret": "d0b9eb7f72","title": "Encouragement. #quotes #inspirational #life #olloclip #macro #instagood #photooftheday #instamood #igers #picoftheday #instadaily #instagramhub #bestoftheday #igdaily #iphonesia #webstagram #follow #instagramers #followme #statigram #instahub #photo #like","loc": {"type": "Point","coordinates": [103.80548,1.288167]}} 
{"id": "8464107533","server": "8528","farm": "9","userId": "39995934@N00","secret": "d428ec031b","title": "empty IKEA restaurant. only happens on CNY.","loc": {"type": "Point","coordinates": [103.80578,1.28821]}} 
{"id": "8454849539","server": "8524","farm": "9","userId": "25217916@N06","secret": "ef51f9edb4","title": "IKEA's Marzipan @delaine18  #ikea #dessert #food #foodporn #instagood #photooftheday #instamood #igers #picoftheday #instadaily #instagramhub #bestoftheday #igdaily #iphonesia #webstagram #follow #instagramers #followme #statigram #instahub #photo #like #","loc": {"type": "Point","coordinates": [103.80578,1.28821]}} 
{"id": "8383636068","server": "8511","farm": "9","userId": "14385475@N05","secret": "f8f581e188","title": "do not put baby into box","loc": {"type": "Point","coordinates": [103.8055,1.287999]}} 
{"id": "8383636508","server": "8076","farm": "9","userId": "14385475@N05","secret": "d518a21a7e","title": "IMG_0963","loc": {"type": "Point","coordinates": [103.80483,1.287833]}} 
{"id": "8382551975","server": "8230","farm": "9","userId": "14385475@N05","secret": "f1d8d6f161","title": "IMG_0961","loc": {"type": "Point","coordinates": [103.8055,1.287833]}} 
{"id": "8382549385","server": "8078","farm": "9","userId": "14385475@N05","secret": "8e98ca5e39","title": "IMG_0957","loc": {"type": "Point","coordinates": [103.8055,1.287999]}} 
{"id": "8382541831","server": "8071","farm": "9","userId": "14385475@N05","secret": "5abf1770e6","title": "IMG_0944","loc": {"type": "Point","coordinates": [103.805336,1.288166]}} 
{"id": "8383630796","server": "8476","farm": "9","userId": "14385475@N05","secret": "7098bcde7d","title": "IMG_0953","loc": {"type": "Point","coordinates": [103.805336,1.288166]}} 
{"id": "8382540263","server": "8517","farm": "9","userId": "14385475@N05","secret": "f3a9a28e9b","title": "SOURCE OF THE UNIVERSAL YELLOW SCISSOR","loc": {"type": "Point","coordinates": [103.805336,1.288166]}} 
{"id": "8382549845","server": "8351","farm": "9","userId": "14385475@N05","secret": "8f28fcc84d","title": "IMG_0958","loc": {"type": "Point","coordinates": [103.8055,1.287999]}} 
{"id": "8383634140","server": "8493","farm": "9","userId": "14385475@N05","secret": "e93428e55e","title": "IMG_0959","loc": {"type": "Point","coordinates": [103.8055,1.287999]}} 
{"id": "8383626830","server": "8378","farm": "9","userId": "14385475@N05","secret": "dba3da3faf","title": "IMG_0947","loc": {"type": "Point","coordinates": [103.805336,1.288166]}} 
{"id": "8383624234","server": "8498","farm": "9","userId": "14385475@N05","secret": "4146c6e4e2","title": "IMG_0943","loc": {"type": "Point","coordinates": [103.805336,1.288166]}} 
{"id": "8382547839","server": "8072","farm": "9","userId": "14385475@N05","secret": "5caaccdf98","title": "IMG_0954","loc": {"type": "Point","coordinates": [103.805336,1.288166]}} 
{"id": "8382548423","server": "8351","farm": "9","userId": "14385475@N05","secret": "15395a8229","title": "IMG_0955","loc": {"type": "Point","coordinates": [103.805336,1.288166]}} 
{"id": "8383622460","server": "8499","farm": "9","userId": "14385475@N05","secret": "9140685326","title": "IKEA SCISSORS","loc": {"type": "Point","coordinates": [103.805336,1.288166]}} 
{"id": "8383634836","server": "8518","farm": "9","userId": "14385475@N05","secret": "00b3f69820","title": "IMG_0960","loc": {"type": "Point","coordinates": [103.8055,1.287833]}} 
{"id": "8383625596","server": "8507","farm": "9","userId": "14385475@N05","secret": "0d641b3643","title": "IMG_0945","loc": {"type": "Point","coordinates": [103.805336,1.288166]}} 
{"id": "8382548953","server": "8216","farm": "9","userId": "14385475@N05","secret": "443263ec61","title": "IMG_0956","loc": {"type": "Point","coordinates": [103.8055,1.287999]}} 
{"id": "8370781138","server": "8214","farm": "9","userId": "41894167963@N01","secret": "d7d3d0c63a","title": "Great copywriting at IKEA","loc": {"type": "Point","coordinates": [103.80548,1.288167]}} 
{"id": "8370780634","server": "8050","farm": "9","userId": "41894167963@N01","secret": "c4ac356d08","title": "Great copywriting at IKEA","loc": {"type": "Point","coordinates": [103.80548,1.288167]}} 
{"id": "8349592365","server": "8500","farm": "9","userId": "16102830@N05","secret": "37769d2873","title": "1211_NovemberRandoms_HR_014","loc": {"type": "Point","coordinates": [103.8055,1.2885]}} 
{"id": "8350654254","server": "8355","farm": "9","userId": "16102830@N05","secret": "7f2c4c4b2e","title": "1211_NovemberRandoms_HR_011","loc": {"type": "Point","coordinates": [103.8055,1.2885]}} 
{"id": "8308425153","server": "8354","farm": "9","userId": "42594504@N00","secret": "1f4a2fdcf8","title": "Meet (from the left) ariel, beau n spring onion","loc": {"type": "Point","coordinates": [103.8054,1.288551]}} 
{"id": "8309476894","server": "8218","farm": "9","userId": "42594504@N00","secret": "2e1ec3ba28","title": "don't worry, I will take good care of u!","loc": {"type": "Point","coordinates": [103.8054,1.288551]}} 
{"id": "8309477178","server": "8072","farm": "9","userId": "42594504@N00","secret": "20242b8b10","title": "better shut up or I will shut u up","loc": {"type": "Point","coordinates": [103.8054,1.288551]}} 
{"id": "8306691998","server": "8074","farm": "9","userId": "24773033@N02","secret": "b8e37ede1e","title": "Christmas tree in Ikea","loc": {"type": "Point","coordinates": [103.80548,1.288167]}} 
{"id": "8305643535","server": "8078","farm": "9","userId": "24773033@N02","secret": "2d68fd4e77","title": "Look who's hiding! Careful guys, his new dog bites! Waaaarf! Grrrrr!  Where's your Facebook smile baby?","loc": {"type": "Point","coordinates": [103.80548,1.288167]}} 
{"id": "8280188376","server": "8498","farm": "9","userId": "16105436@N00","secret": "2df0b7e986","title": "Nice brackets","loc": {"type": "Point","coordinates": [103.805336,1.288166]}} 
{"id": "8280189094","server": "8060","farm": "9","userId": "16105436@N00","secret": "926c5c3e0c","title": "Welcome to HELL","loc": {"type": "Point","coordinates": [103.8055,1.287999]}} 
{"id": "8279131111","server": "8497","farm": "9","userId": "16105436@N00","secret": "47712f1314","title": "2012-12-16_12.03.10","loc": {"type": "Point","coordinates": [103.80583,1.287333]}} 
{"id": "8249839870","server": "8342","farm": "9","userId": "56728000@N00","secret": "f3a61d163a","title": "Who stored my cheese?","loc": {"type": "Point","coordinates": [103.80548,1.288167]}} 
{"id": "8225706317","server": "8350","farm": "9","userId": "90343499@N04","secret": "debf970500","title": "BW lighting","loc": {"type": "Point","coordinates": [103.8057,1.289009]}} 
{"id": "8192716616","server": "8347","farm": "9","userId": "40138859@N02","secret": "614476781b","title": "Zoning out.","loc": {"type": "Point","coordinates": [103.80548,1.288167]}} 
{"id": "8182503204","server": "8063","farm": "9","userId": "16102830@N05","secret": "5c0f258ae9","title": "120914_SOTGradVidShoot_HR_027","loc": {"type": "Point","coordinates": [103.80583,1.288166]}} 
{"id": "8182463995","server": "8350","farm": "9","userId": "16102830@N05","secret": "bff0aed49b","title": "120914_SOTGradVidShoot_HR_028","loc": {"type": "Point","coordinates": [103.80583,1.288166]}} 
{"id": "8170875756","server": "8478","farm": "9","userId": "17309477@N06","secret": "fa4cf1d2de","title": "photo 2","loc": {"type": "Point","coordinates": [103.807335,1.289666]}} 
{"id": "8170875962","server": "8060","farm": "9","userId": "17309477@N06","secret": "202815cc46","title": "photo 1","loc": {"type": "Point","coordinates": [103.807335,1.289833]}} 
{"id": "8147065560","server": "8048","farm": "9","userId": "69379954@N08","secret": "28a836372a","title": "Cendol","loc": {"type": "Point","coordinates": [103.809296,1.28939]}} 
{"id": "8140953013","server": "8474","farm": "9","userId": "17309477@N06","secret": "9edb19f0eb","title": "IMG_7330","loc": {"type": "Point","coordinates": [103.8075,1.289333]}} 
{"id": "8134340290","server": "8471","farm": "9","userId": "17309477@N06","secret": "bbf0561ce2","title": "IMG_7317","loc": {"type": "Point","coordinates": [103.807335,1.289999]}} 
{"id": "8134322085","server": "8188","farm": "9","userId": "17309477@N06","secret": "5a5c7da5ee","title": "IMG_7315","loc": {"type": "Point","coordinates": [103.80683,1.289999]}} 
{"id": "8134349410","server": "8185","farm": "9","userId": "17309477@N06","secret": "d5bda79482","title": "IMG_7329","loc": {"type": "Point","coordinates": [103.8075,1.289333]}} 
{"id": "8134312771","server": "8044","farm": "9","userId": "17309477@N06","secret": "9a27128017","title": "IMG_7306","loc": {"type": "Point","coordinates": [103.807,1.290166]}} 
{"id": "8134350116","server": "8187","farm": "9","userId": "17309477@N06","secret": "9714644b4b","title": "IMG_7337","loc": {"type": "Point","coordinates": [103.807335,1.289833]}} 
{"id": "8134322639","server": "8190","farm": "9","userId": "17309477@N06","secret": "1c54141d6c","title": "IMG_7330","loc": {"type": "Point","coordinates": [103.8075,1.289333]}} 
{"id": "8134349232","server": "8049","farm": "9","userId": "17309477@N06","secret": "e4e1f2797e","title": "IMG_7327","loc": {"type": "Point","coordinates": [103.80766,1.289666]}} 
{"id": "8134348868","server": "8470","farm": "9","userId": "17309477@N06","secret": "2fa2a34d1b","title": "IMG_7305","loc": {"type": "Point","coordinates": [103.80717,1.290333]}} 
{"id": "8134313107","server": "8056","farm": "9","userId": "17309477@N06","secret": "c5eb63ae77","title": "IMG_7307","loc": {"type": "Point","coordinates": [103.807,1.289999]}} 
{"id": "8134341184","server": "8474","farm": "9","userId": "17309477@N06","secret": "bc5deb247f","title": "IMG_7322","loc": {"type": "Point","coordinates": [103.80783,1.289666]}} 
