{"id": "9098734673","server": "7310","farm": "8","userId": "46635911@N00","secret": "ae9dddf3c8","title": "Masking up! ft @leeenet","loc": {"type": "Point","coordinates": [103.83566,1.294166]}} 
{"id": "8732214880","server": "7386","farm": "8","userId": "54615328@N00","secret": "0e9da8be7e","title": "Car and Condo","loc": {"type": "Point","coordinates": [103.83342,1.293959]}} 
{"id": "8255513974","server": "8347","farm": "9","userId": "66919430@N00","secret": "567e95cea8","title": "Explaning each step","loc": {"type": "Point","coordinates": [103.83196,1.293663]}} 
{"id": "9302395069","server": "5330","farm": "6","userId": "96738935@N00","secret": "317780ea53","title": "IMG_0914","loc": {"type": "Point","coordinates": [103.836,1.295833]}} 
{"id": "9020938101","server": "7354","farm": "8","userId": "75404268@N00","secret": "d40be3d9f1","title": "My craving fulfilled.","loc": {"type": "Point","coordinates": [103.83199,1.293612]}} 
{"id": "8815214655","server": "3667","farm": "4","userId": "28137664@N03","secret": "88ddfeee47","title": "Kim Seng Road, Singapore","loc": {"type": "Point","coordinates": [103.83213,1.294134]}} 
{"id": "8815257931","server": "7426","farm": "8","userId": "28137664@N03","secret": "129e8e8844","title": "Great World City","loc": {"type": "Point","coordinates": [103.83213,1.294134]}} 
{"id": "8815213471","server": "5335","farm": "6","userId": "28137664@N03","secret": "8ed99683aa","title": "Great World City, Singapore","loc": {"type": "Point","coordinates": [103.83213,1.294134]}} 
{"id": "8792065847","server": "3689","farm": "4","userId": "96233672@N05","secret": "aace2bb11e","title": "","loc": {"type": "Point","coordinates": [103.8335,1.295499]}} 
{"id": "8747116622","server": "8266","farm": "9","userId": "43866013@N00","secret": "76d6cd141d","title": "i tell you what, this mccafe pesto chicken sandwich trumps a lotta other fancy sandwiches at hipster cafes... (but maybe it's just me.) #imlovinit #icouldeatsandwichesallday","loc": {"type": "Point","coordinates": [103.83199,1.293612]}} 
{"id": "8675137720","server": "8262","farm": "9","userId": "23436061@N00","secret": "5f9d71597e","title": "Soy glazed salmon and rice #fish #salmon #rice #protein #carbs #simple #foodporn #square","loc": {"type": "Point","coordinates": [103.83496,1.296361]}} 
{"id": "8653972733","server": "8111","farm": "9","userId": "23436061@N00","secret": "edf2c2b0ac","title": "The valley #rivervalley #singapore #sunset #city #metro #horizon #nofilter","loc": {"type": "Point","coordinates": [103.83432,1.295139]}} 
{"id": "8641801554","server": "8539","farm": "9","userId": "72009647@N06","secret": "37022af8eb","title": "Camera Roll-1978","loc": {"type": "Point","coordinates": [103.83733,1.2955]}} 
{"id": "8582114148","server": "8389","farm": "9","userId": "69379954@N08","secret": "d0a769f01e","title": "Dinner.","loc": {"type": "Point","coordinates": [103.83236,1.293634]}} 
{"id": "8574596212","server": "8373","farm": "9","userId": "23436061@N00","secret": "f8e4493cd3","title": "Oops #idiotdriversofsingapore #crashintome #caraccident #accident #birdseyeview #rubbernecking #stupid #wrecked #picoftheday","loc": {"type": "Point","coordinates": [103.83432,1.295139]}} 
{"id": "8528052190","server": "8240","farm": "9","userId": "23436061@N00","secret": "13a04d2b36","title": "Clouds are cool #skyporn #cloudporn #myview #sunset #monday #singapore","loc": {"type": "Point","coordinates": [103.83496,1.296361]}} 
{"id": "8506926432","server": "8252","farm": "9","userId": "23436061@N00","secret": "b5414db8c2","title": "This squatter bird has been living on my balcony for far too long.","loc": {"type": "Point","coordinates": [103.83496,1.296361]}} 
{"id": "8463166971","server": "8388","farm": "9","userId": "94512171@N00","secret": "41040a794e","title": "Corn muffins - yummy!","loc": {"type": "Point","coordinates": [103.83192,1.293787]}} 
{"id": "8446679959","server": "8508","farm": "9","userId": "23436061@N00","secret": "c3699cd7ba","title": "All the little people","loc": {"type": "Point","coordinates": [103.83496,1.296361]}} 
{"id": "8308680863","server": "8498","farm": "9","userId": "23436061@N00","secret": "eb477f79ed","title": "Old timey wallet #saltcellar #nacl #seasalt #deananddeluca #instagood #domestic","loc": {"type": "Point","coordinates": [103.83496,1.296361]}} 
{"id": "8303905546","server": "8073","farm": "9","userId": "95464641@N00","secret": "91c99d1a3d","title": "Looks like it will be a merry Christmas!","loc": {"type": "Point","coordinates": [103.83337,1.295632]}} 
{"id": "8293666516","server": "8080","farm": "9","userId": "23436061@N00","secret": "904fcdf7bd","title": "Need some Guinness for a snake bite  #cider #crisp #nofilter #apple #instagood","loc": {"type": "Point","coordinates": [103.83496,1.296361]}} 
{"id": "8286919004","server": "8060","farm": "9","userId": "23436061@N00","secret": "4905556df0","title": "Angry Orchard #apple #hardcider #amazing #ginger #nofilter","loc": {"type": "Point","coordinates": [103.83514,1.296361]}} 
{"id": "8283978340","server": "8067","farm": "9","userId": "23436061@N00","secret": "01638c0755","title": "Broke 100mi on this damn app. #nikeplus #run #100 #workout #lame #screenshot","loc": {"type": "Point","coordinates": [103.83514,1.296361]}} 
{"id": "8272574796","server": "8060","farm": "9","userId": "23436061@N00","secret": "eca0c34644","title": "Stuffed Fruit #Tomato #foodporn #instagood #stuffed #healthy","loc": {"type": "Point","coordinates": [103.83514,1.296361]}} 
{"id": "8272499540","server": "8351","farm": "9","userId": "23436061@N00","secret": "c7b7597e40","title": "Fresh #veg #foodporn #apps #dip #gorgonzola #red #yellow #orange","loc": {"type": "Point","coordinates": [103.83514,1.296361]}} 
{"id": "8264054030","server": "8080","farm": "9","userId": "23436061@N00","secret": "69804f6d7d","title": "Mise en place #ingredients #foodporn #sausage #tofu #garlic #onions #olives #tomato","loc": {"type": "Point","coordinates": [103.83514,1.296361]}} 
{"id": "8255523000","server": "8352","farm": "9","userId": "66919430@N00","secret": "60b11286e2","title": "Australian Beef Salad 'Asian-Style' with Herbs & Peanuts","loc": {"type": "Point","coordinates": [103.83196,1.293663]}} 
{"id": "8255520608","server": "8502","farm": "9","userId": "66919430@N00","secret": "18733274b5","title": "Australian Beef Salad 'Asian-Style' with Herbs & Peanuts","loc": {"type": "Point","coordinates": [103.83196,1.293663]}} 
{"id": "8254451607","server": "8205","farm": "9","userId": "66919430@N00","secret": "5a29d6d098","title": "Hanging out with Chef Ho","loc": {"type": "Point","coordinates": [103.83196,1.293663]}} 
{"id": "8254444503","server": "8217","farm": "9","userId": "66919430@N00","secret": "5ba3923136","title": "Concentration","loc": {"type": "Point","coordinates": [103.83196,1.293663]}} 
{"id": "8255509572","server": "8061","farm": "9","userId": "66919430@N00","secret": "53e04c9c5f","title": "Attending the Masterchef workshop at Great World City","loc": {"type": "Point","coordinates": [103.83196,1.293663]}} 
{"id": "8254439003","server": "8500","farm": "9","userId": "66919430@N00","secret": "9b61252fc2","title": "No pressure","loc": {"type": "Point","coordinates": [103.83196,1.293663]}} 
{"id": "8254445851","server": "8061","farm": "9","userId": "66919430@N00","secret": "730fb94171","title": "Australian Beef Salad 'Asian-Style' with Herbs & Peanuts","loc": {"type": "Point","coordinates": [103.83196,1.293663]}} 
{"id": "8254437647","server": "8206","farm": "9","userId": "66919430@N00","secret": "050822da9f","title": "Chef Robin Ho","loc": {"type": "Point","coordinates": [103.83196,1.293663]}} 
{"id": "8254442403","server": "8080","farm": "9","userId": "66919430@N00","secret": "9e12fc4629","title": "Australian Lamb Tikka in Shooters with Green Chilli & Minted Yoghurt","loc": {"type": "Point","coordinates": [103.83196,1.293663]}} 
{"id": "8248619586","server": "8061","farm": "9","userId": "23436061@N00","secret": "328b415202","title": "Lines #sky #sunrise #singapore #city #orange #fire #nofilter #instagood","loc": {"type": "Point","coordinates": [103.83514,1.296361]}} 
{"id": "8248602906","server": "8337","farm": "9","userId": "23436061@N00","secret": "e211b6b235","title": "Day 'N' Nite #sunrise #city #urban #singapore #morning #nofilter #lights #instagood","loc": {"type": "Point","coordinates": [103.83514,1.296361]}} 
{"id": "8241115802","server": "8069","farm": "9","userId": "23436061@N00","secret": "91a82e9763","title": "Twinsies #apair #jack #honey #booze #whiskey #tennessee #shots #nofilter #instagood","loc": {"type": "Point","coordinates": [103.83514,1.296361]}} 
{"id": "8223919598","server": "8204","farm": "9","userId": "23436061@N00","secret": "3219baf9a8","title": "Basic #whiskey #sour #bevporn #instagood #refreshing #homemade #tasty","loc": {"type": "Point","coordinates": [103.83514,1.296361]}} 
{"id": "8216260175","server": "8208","farm": "9","userId": "50626748@N04","secret": "ceaeeec56c","title": ":(","loc": {"type": "Point","coordinates": [103.83317,1.295]}} 
{"id": "8202843172","server": "8338","farm": "9","userId": "23436061@N00","secret": "273758fea9","title": "Fluffers #cloudporn #sunset #sky #blue #gold #singapore #nofilter","loc": {"type": "Point","coordinates": [103.83514,1.296361]}} 
{"id": "8184922407","server": "8068","farm": "9","userId": "89975165@N07","secret": "f878e928a4","title": "French Onion Soup.","loc": {"type": "Point","coordinates": [103.83207,1.293634]}} 
{"id": "8184922667","server": "8067","farm": "9","userId": "89975165@N07","secret": "f3190e7290","title": "Oxtail de Bourguignon.","loc": {"type": "Point","coordinates": [103.83207,1.293634]}} 
{"id": "8181880368","server": "8197","farm": "9","userId": "95464641@N00","secret": "673e6bde84","title": "Pee like an Egyptian","loc": {"type": "Point","coordinates": [103.83196,1.29361]}} 
{"id": "8124749816","server": "8464","farm": "9","userId": "60629611@N05","secret": "b3ebf31506","title": "#005/365 - Adriana","loc": {"type": "Point","coordinates": [103.83305,1.293888]}} 
