{"id": "9375151914","server": "3780","farm": "4","userId": "12025061@N02","secret": "8f0c6c2f73","title": "Singapore","loc": {"type": "Point","coordinates": [103.82175,1.275081]}} 
{"id": "9372378867","server": "3766","farm": "4","userId": "12025061@N02","secret": "c64bb1d507","title": "Singapore","loc": {"type": "Point","coordinates": [103.82175,1.275081]}} 
{"id": "9375150044","server": "3823","farm": "4","userId": "12025061@N02","secret": "cf63821263","title": "Singapore","loc": {"type": "Point","coordinates": [103.82175,1.275081]}} 
{"id": "9375156480","server": "7339","farm": "8","userId": "12025061@N02","secret": "0f4d473ede","title": "Singapore","loc": {"type": "Point","coordinates": [103.82175,1.275081]}} 
{"id": "9372375005","server": "7333","farm": "8","userId": "12025061@N02","secret": "465e8e702d","title": "Singapore","loc": {"type": "Point","coordinates": [103.82175,1.275081]}} 
{"id": "9372376821","server": "3795","farm": "4","userId": "12025061@N02","secret": "ae4ae2cf7d","title": "Singapore","loc": {"type": "Point","coordinates": [103.82175,1.275081]}} 
{"id": "9372379679","server": "3806","farm": "4","userId": "12025061@N02","secret": "072839ceb2","title": "Singapore","loc": {"type": "Point","coordinates": [103.82175,1.275081]}} 
{"id": "9375149178","server": "7389","farm": "8","userId": "12025061@N02","secret": "fc31e4035e","title": "Singapore","loc": {"type": "Point","coordinates": [103.82175,1.275081]}} 
{"id": "9375153680","server": "5472","farm": "6","userId": "12025061@N02","secret": "cbe9a51756","title": "Singapore","loc": {"type": "Point","coordinates": [103.82175,1.275081]}} 
{"id": "8710791604","server": "8394","farm": "9","userId": "35468141938@N01","secret": "88e0424fbd","title": "Journey to Tampines Mountain Biking Trail (87 of 111)","loc": {"type": "Point","coordinates": [103.821335,1.277833]}} 
{"id": "8468739348","server": "8510","farm": "9","userId": "87831923@N07","secret": "6520bfc7d3","title": "In my dream..","loc": {"type": "Point","coordinates": [103.82543,1.275853]}} 
{"id": "9270716304","server": "2865","farm": "3","userId": "96573491@N04","secret": "c63e8c427d","title": "","loc": {"type": "Point","coordinates": [103.82283,1.2765]}} 
{"id": "9252974661","server": "3802","farm": "4","userId": "14475189@N00","secret": "900a1e4286","title": "Night shot taken using Nokia Lumia 925","loc": {"type": "Point","coordinates": [103.82624,1.275141]}} 
{"id": "9255746266","server": "2851","farm": "3","userId": "14475189@N00","secret": "1aa3189e4a","title": "Night shot taken using HTC One","loc": {"type": "Point","coordinates": [103.82628,1.275258]}} 
{"id": "8348184245","server": "8510","farm": "9","userId": "16102830@N05","secret": "3f2ab8850a","title": "1206_JuneRandoms_HR_070","loc": {"type": "Point","coordinates": [103.82633,1.277499]}} 
{"id": "8230607397","server": "8350","farm": "9","userId": "16105436@N00","secret": "d1c0fbfa50","title": "Love the trees lining the highway","loc": {"type": "Point","coordinates": [103.826,1.277333]}} 
{"id": "8177426520","server": "8206","farm": "9","userId": "20687455@N00","secret": "5dc54c03d6","title": "IMG_2913","loc": {"type": "Point","coordinates": [103.82318,1.277241]}} 
