{"id": "9071936017","server": "7325","farm": "8","userId": "33008412@N00","secret": "df77b1e4f6","title": "Nasi briyani #singapore","loc": {"type": "Point","coordinates": [103.84168,1.27448]}} 
{"id": "9013830668","server": "2889","farm": "3","userId": "33008412@N00","secret": "16cd39ae0c","title": "Halal food 2,7 SGD #singapore","loc": {"type": "Point","coordinates": [103.84168,1.27448]}} 
{"id": "9002924103","server": "7334","farm": "8","userId": "33008412@N00","secret": "22697a768c","title": "Serasa makan di kantin :) cuman nggak ada petainya #singapore","loc": {"type": "Point","coordinates": [103.84168,1.27448]}} 
{"id": "8751276921","server": "7390","farm": "8","userId": "92993390@N00","secret": "6c8b998e67","title": "Dudes on their way to work!","loc": {"type": "Point","coordinates": [103.84177,1.272752]}} 
{"id": "8749434167","server": "8254","farm": "9","userId": "36583272@N05","secret": "eecbe7c408","title": "Green Butterfly","loc": {"type": "Point","coordinates": [103.838135,1.272936]}} 
{"id": "8624417752","server": "8247","farm": "9","userId": "34811143@N00","secret": "2833cc87c6","title": "Cycling along Railway to Tanjong Pagar","loc": {"type": "Point","coordinates": [103.8391,1.273436]}} 
{"id": "8624418172","server": "8519","farm": "9","userId": "34811143@N00","secret": "f926b56b02","title": "Cycling along Railway to Tanjong Pagar","loc": {"type": "Point","coordinates": [103.8391,1.273436]}} 
{"id": "8623316751","server": "8249","farm": "9","userId": "34811143@N00","secret": "83fb887528","title": "Cycling along Railway to Tanjong Pagar","loc": {"type": "Point","coordinates": [103.8391,1.273436]}} 
{"id": "8623317097","server": "8106","farm": "9","userId": "34811143@N00","secret": "8f83754f26","title": "Cycling along Railway to Tanjong Pagar","loc": {"type": "Point","coordinates": [103.8391,1.273436]}} 
{"id": "8268882855","server": "8073","farm": "9","userId": "30639068@N07","secret": "5590ed2b73","title": "Rhino at Klapsons , Singapore","loc": {"type": "Point","coordinates": [103.84186,1.274046]}} 
{"id": "8199863333","server": "8350","farm": "9","userId": "36460502@N08","secret": "323b5e8340","title": "Singapore Tajong Pagar Station","loc": {"type": "Point","coordinates": [103.83865,1.273011]}} 
{"id": "8201005332","server": "8063","farm": "9","userId": "36460502@N08","secret": "e49c461d97","title": "Singapore Tajong Pagar Station","loc": {"type": "Point","coordinates": [103.83865,1.273011]}} 
{"id": "8199866951","server": "8199","farm": "9","userId": "36460502@N08","secret": "41e10602f9","title": "Singapore Tajong Pagar Station","loc": {"type": "Point","coordinates": [103.83865,1.273011]}} 
{"id": "8201007846","server": "8070","farm": "9","userId": "36460502@N08","secret": "01ca112f55","title": "Singapore Tajong Pagar Station","loc": {"type": "Point","coordinates": [103.83865,1.273011]}} 
{"id": "8162695613","server": "7137","farm": "8","userId": "75976259@N00","secret": "12acdef23b","title": "Tanjong Pagar","loc": {"type": "Point","coordinates": [103.8387,1.272914]}} 
{"id": "9388128744","server": "2840","farm": "3","userId": "14385475@N05","secret": "14b0920989","title": "IMG_9732","loc": {"type": "Point","coordinates": [103.83967,1.2725]}} 
{"id": "9385351359","server": "2849","farm": "3","userId": "14385475@N05","secret": "d9d37d0598","title": "IMG_9731","loc": {"type": "Point","coordinates": [103.839836,1.272666]}} 
{"id": "9342090031","server": "3803","farm": "4","userId": "51907839@N00","secret": "e33b828e2d","title": "2013-04-11 11.16.08","loc": {"type": "Point","coordinates": [103.84281,1.273689]}} 
{"id": "9306978828","server": "5531","farm": "6","userId": "96738935@N00","secret": "ecb4c3f1d8","title": "IMG_2885","loc": {"type": "Point","coordinates": [103.8375,1.2725]}} 
{"id": "9306978520","server": "2859","farm": "3","userId": "96738935@N00","secret": "0c7d3cabab","title": "IMG_2886","loc": {"type": "Point","coordinates": [103.84,1.272666]}} 
{"id": "9306835392","server": "7318","farm": "8","userId": "96738935@N00","secret": "ca91400acb","title": "IMG_2276","loc": {"type": "Point","coordinates": [103.8395,1.2725]}} 
{"id": "9304053515","server": "5455","farm": "6","userId": "96738935@N00","secret": "2cb162e07a","title": "IMG_2279","loc": {"type": "Point","coordinates": [103.8415,1.272666]}} 
{"id": "9304054353","server": "5508","farm": "6","userId": "96738935@N00","secret": "be344d7f8c","title": "IMG_2275","loc": {"type": "Point","coordinates": [103.8385,1.2725]}} 
{"id": "9306834964","server": "3779","farm": "4","userId": "96738935@N00","secret": "ff6e6480fa","title": "IMG_2278","loc": {"type": "Point","coordinates": [103.84067,1.272666]}} 
{"id": "9306835210","server": "3793","farm": "4","userId": "96738935@N00","secret": "02479922b1","title": "IMG_2277","loc": {"type": "Point","coordinates": [103.840164,1.2725]}} 
{"id": "9306835820","server": "7284","farm": "8","userId": "96738935@N00","secret": "184a59bf73","title": "IMG_2274","loc": {"type": "Point","coordinates": [103.8375,1.2725]}} 
{"id": "9306522186","server": "3763","farm": "4","userId": "96738935@N00","secret": "0771c8719f","title": "IMG_1496","loc": {"type": "Point","coordinates": [103.84067,1.272666]}} 
{"id": "9306498752","server": "2870","farm": "3","userId": "96738935@N00","secret": "1d569279d3","title": "IMG_1425","loc": {"type": "Point","coordinates": [103.84116,1.272666]}} 
{"id": "9303753319","server": "7308","farm": "8","userId": "96738935@N00","secret": "32389893a3","title": "IMG_1424","loc": {"type": "Point","coordinates": [103.840836,1.272666]}} 
{"id": "9303753095","server": "7435","farm": "8","userId": "96738935@N00","secret": "23b1ed783f","title": "IMG_1426","loc": {"type": "Point","coordinates": [103.8415,1.272666]}} 
{"id": "9306536036","server": "7453","farm": "8","userId": "96738935@N00","secret": "852a55eb92","title": "IMG_1421","loc": {"type": "Point","coordinates": [103.83833,1.2725]}} 
{"id": "9303753979","server": "3786","farm": "4","userId": "96738935@N00","secret": "3ca734959d","title": "IMG_1420","loc": {"type": "Point","coordinates": [103.83783,1.2725]}} 
{"id": "9306535114","server": "3728","farm": "4","userId": "96738935@N00","secret": "c06db7897d","title": "IMG_1427","loc": {"type": "Point","coordinates": [103.841835,1.272666]}} 
{"id": "9306534844","server": "2819","farm": "3","userId": "96738935@N00","secret": "a134b0b18d","title": "IMG_1428","loc": {"type": "Point","coordinates": [103.8425,1.272666]}} 
{"id": "9306536494","server": "3692","farm": "4","userId": "96738935@N00","secret": "f47ed68401","title": "IMG_1419","loc": {"type": "Point","coordinates": [103.83767,1.2725]}} 
{"id": "9265420499","server": "3784","farm": "4","userId": "40138859@N02","secret": "8f93783fbd","title": "Your shipment is here.","loc": {"type": "Point","coordinates": [103.84241,1.27215]}} 
{"id": "9014215421","server": "3797","farm": "4","userId": "92993390@N00","secret": "81756fa1a4","title": "Absolut Singapore","loc": {"type": "Point","coordinates": [103.8415,1.274666]}} 
{"id": "9012462753","server": "7435","farm": "8","userId": "96364464@N05","secret": "eac473faf9","title": "The drawings of the atmosphere begins.","loc": {"type": "Point","coordinates": [103.84054,1.27268]}} 
{"id": "8805203467","server": "2848","farm": "3","userId": "94377954@N02","secret": "be134aab2f","title": "DSC_1822-2.jpg","loc": {"type": "Point","coordinates": [103.841034,1.272249]}} 
{"id": "8727117603","server": "7359","farm": "8","userId": "14385475@N05","secret": "830f970cab","title": "IMG_5634","loc": {"type": "Point","coordinates": [103.83833,1.272]}} 
{"id": "8728232350","server": "7415","farm": "8","userId": "14385475@N05","secret": "16efcd6b71","title": "IMG_5621","loc": {"type": "Point","coordinates": [103.83833,1.272]}} 
{"id": "8727113343","server": "7394","farm": "8","userId": "14385475@N05","secret": "e40aaef046","title": "IMG_5620","loc": {"type": "Point","coordinates": [103.8395,1.272333]}} 
{"id": "8686692451","server": "8115","farm": "9","userId": "92993390@N00","secret": "8585633d68","title": "Oh dear! Nice beverage. Needs a better English translator!","loc": {"type": "Point","coordinates": [103.84153,1.272796]}} 
{"id": "8667696107","server": "8394","farm": "9","userId": "30962969@N06","secret": "ae8ebc6a09","title": "Couple","loc": {"type": "Point","coordinates": [103.83887,1.273043]}} 
{"id": "8661531652","server": "8247","farm": "9","userId": "14385475@N05","secret": "d1796857d5","title": "IMG_4791","loc": {"type": "Point","coordinates": [103.8375,1.272333]}} 
{"id": "8621021104","server": "8254","farm": "9","userId": "92993390@N00","secret": "d235274b5e","title": "Oil slick rainbow on my way to work.","loc": {"type": "Point","coordinates": [103.8415,1.274666]}} 
{"id": "8613310043","server": "8401","farm": "9","userId": "41752289@N07","secret": "a9862cf73b","title": "Singapore by night city light","loc": {"type": "Point","coordinates": [103.84101,1.272936]}} 
{"id": "8581911636","server": "8107","farm": "9","userId": "35266357@N00","secret": "404eff2ba2","title": "Outram Park Ya Hua Rou Gu Cha","loc": {"type": "Point","coordinates": [103.84185,1.272263]}} 
{"id": "8580797323","server": "8108","farm": "9","userId": "35266357@N00","secret": "f2dae06e8a","title": "Outram Park Ya Hua Rou Gu Cha","loc": {"type": "Point","coordinates": [103.841866,1.272225]}} 
{"id": "8580814931","server": "8245","farm": "9","userId": "35266357@N00","secret": "337f18bc41","title": "Outram Park Ya Hua Rou Gu Cha","loc": {"type": "Point","coordinates": [103.84185,1.272269]}} 
{"id": "8580806413","server": "8227","farm": "9","userId": "35266357@N00","secret": "df6f27b8e5","title": "Outram Park Ya Hua Rou Gu Cha","loc": {"type": "Point","coordinates": [103.841866,1.272236]}} 
{"id": "8561198423","server": "8104","farm": "9","userId": "57992866@N05","secret": "9fb9712011","title": "singapore_1104","loc": {"type": "Point","coordinates": [103.838715,1.27315]}} 
{"id": "8562302898","server": "8248","farm": "9","userId": "57992866@N05","secret": "c9eddb364d","title": "singapore_1105","loc": {"type": "Point","coordinates": [103.838715,1.27315]}} 
{"id": "8561199419","server": "8252","farm": "9","userId": "57992866@N05","secret": "bb0771672a","title": "singapore_1107","loc": {"type": "Point","coordinates": [103.838715,1.27315]}} 
{"id": "8562302334","server": "8531","farm": "9","userId": "57992866@N05","secret": "3b28efd887","title": "singapore_1103","loc": {"type": "Point","coordinates": [103.838715,1.27315]}} 
{"id": "8562302028","server": "8511","farm": "9","userId": "57992866@N05","secret": "46e9856d6b","title": "singapore_1102","loc": {"type": "Point","coordinates": [103.838715,1.27315]}} 
{"id": "8562300520","server": "8373","farm": "9","userId": "57992866@N05","secret": "8e5374bea7","title": "singapore_1097","loc": {"type": "Point","coordinates": [103.838715,1.27315]}} 
{"id": "8562301112","server": "8505","farm": "9","userId": "57992866@N05","secret": "4b0ab6f44b","title": "singapore_1099","loc": {"type": "Point","coordinates": [103.838715,1.27315]}} 
{"id": "8561199689","server": "8233","farm": "9","userId": "57992866@N05","secret": "02d9f5c3cb","title": "singapore_1108","loc": {"type": "Point","coordinates": [103.838715,1.27315]}} 
{"id": "8561202057","server": "8227","farm": "9","userId": "57992866@N05","secret": "7ae7b1c92f","title": "singapore_1115","loc": {"type": "Point","coordinates": [103.838715,1.27315]}} 
{"id": "8562303266","server": "8231","farm": "9","userId": "57992866@N05","secret": "f16982803a","title": "singapore_1106","loc": {"type": "Point","coordinates": [103.838715,1.27315]}} 
{"id": "8562299566","server": "8387","farm": "9","userId": "57992866@N05","secret": "a9951c4395","title": "singapore_1094","loc": {"type": "Point","coordinates": [103.838715,1.27315]}} 
{"id": "8562301728","server": "8520","farm": "9","userId": "57992866@N05","secret": "714799bd17","title": "singapore_1101","loc": {"type": "Point","coordinates": [103.838715,1.27315]}} 
{"id": "8561194105","server": "8232","farm": "9","userId": "57992866@N05","secret": "31227f073c","title": "singapore_1090","loc": {"type": "Point","coordinates": [103.838715,1.27315]}} 
{"id": "8561201007","server": "8227","farm": "9","userId": "57992866@N05","secret": "b73bef92ef","title": "singapore_1112","loc": {"type": "Point","coordinates": [103.838715,1.27315]}} 
{"id": "8562299876","server": "8105","farm": "9","userId": "57992866@N05","secret": "c16cb49665","title": "singapore_1095","loc": {"type": "Point","coordinates": [103.838715,1.27315]}} 
{"id": "8561196051","server": "8524","farm": "9","userId": "57992866@N05","secret": "0b91696df5","title": "singapore_1096","loc": {"type": "Point","coordinates": [103.838715,1.27315]}} 
{"id": "8562304530","server": "8387","farm": "9","userId": "57992866@N05","secret": "bedec75c1d","title": "singapore_1110","loc": {"type": "Point","coordinates": [103.838715,1.27315]}} 
{"id": "8562298922","server": "8242","farm": "9","userId": "57992866@N05","secret": "863e06f558","title": "singapore_1092","loc": {"type": "Point","coordinates": [103.838715,1.27315]}} 
{"id": "8562304212","server": "8233","farm": "9","userId": "57992866@N05","secret": "46bf89e3de","title": "singapore_1109","loc": {"type": "Point","coordinates": [103.838715,1.27315]}} 
{"id": "8561200593","server": "8508","farm": "9","userId": "57992866@N05","secret": "d953d94c48","title": "singapore_1111","loc": {"type": "Point","coordinates": [103.838715,1.27315]}} 
{"id": "8561201723","server": "8366","farm": "9","userId": "57992866@N05","secret": "25331e33f2","title": "singapore_1114","loc": {"type": "Point","coordinates": [103.838715,1.27315]}} 
{"id": "8562298594","server": "8378","farm": "9","userId": "57992866@N05","secret": "a1944701f8","title": "singapore_1091","loc": {"type": "Point","coordinates": [103.838715,1.27315]}} 
{"id": "8562297798","server": "8244","farm": "9","userId": "57992866@N05","secret": "94f497a6bd","title": "singapore_1089","loc": {"type": "Point","coordinates": [103.838715,1.27315]}} 
{"id": "8561201355","server": "8246","farm": "9","userId": "57992866@N05","secret": "31b2a65805","title": "singapore_1113","loc": {"type": "Point","coordinates": [103.838715,1.27315]}} 
{"id": "8560906481","server": "8384","farm": "9","userId": "57992866@N05","secret": "72102ea658","title": "singapore_051","loc": {"type": "Point","coordinates": [103.83875,1.273063]}} 
{"id": "8560906667","server": "8101","farm": "9","userId": "57992866@N05","secret": "2c76fe5f38","title": "singapore_052","loc": {"type": "Point","coordinates": [103.83875,1.273063]}} 
{"id": "8562011226","server": "8375","farm": "9","userId": "57992866@N05","secret": "e3cd82bd24","title": "singapore_048","loc": {"type": "Point","coordinates": [103.83875,1.273063]}} 
{"id": "8560907201","server": "8095","farm": "9","userId": "57992866@N05","secret": "bb93b0726d","title": "singapore_055","loc": {"type": "Point","coordinates": [103.83875,1.273063]}} 
{"id": "8562011428","server": "8366","farm": "9","userId": "57992866@N05","secret": "b82c18d71b","title": "singapore_049","loc": {"type": "Point","coordinates": [103.83875,1.273063]}} 
{"id": "8560906821","server": "8506","farm": "9","userId": "57992866@N05","secret": "385dff524a","title": "singapore_053","loc": {"type": "Point","coordinates": [103.83875,1.273063]}} 
{"id": "8562012562","server": "8522","farm": "9","userId": "57992866@N05","secret": "840ce177be","title": "singapore_054","loc": {"type": "Point","coordinates": [103.83875,1.273063]}} 
{"id": "8552131772","server": "8239","farm": "9","userId": "32746239@N08","secret": "858d4899ef","title": "Mainframe.","loc": {"type": "Point","coordinates": [103.840485,1.274552]}} 
{"id": "8546136089","server": "8516","farm": "9","userId": "14385475@N05","secret": "fc0ef409c4","title": "Charles Labelle","loc": {"type": "Point","coordinates": [103.83884,1.273833]}} 
{"id": "8540891797","server": "8519","farm": "9","userId": "56389522@N08","secret": "5d33bb2caa","title": "Singapore international railway station, buying the last tickets","loc": {"type": "Point","coordinates": [103.839165,1.273279]}} 
{"id": "8532005713","server": "8226","farm": "9","userId": "92993390@N00","secret": "b773bbaf83","title": "Festive cotton bud twigs!","loc": {"type": "Point","coordinates": [103.8415,1.274666]}} 
{"id": "8480848807","server": "8111","farm": "9","userId": "36507409@N00","secret": "e4a2b1a2bc","title": "Murals at old Tanjong Pagar Railway","loc": {"type": "Point","coordinates": [103.83968,1.273407]}} 
{"id": "8361046187","server": "8082","farm": "9","userId": "61038036@N00","secret": "1fe3d6975e","title": "IMG_8600","loc": {"type": "Point","coordinates": [103.84216,1.272833]}} 
{"id": "8349733487","server": "8194","farm": "9","userId": "16102830@N05","secret": "88d396607c","title": "1212_DecemberRandoms_HR_038","loc": {"type": "Point","coordinates": [103.839,1.273166]}} 
{"id": "8349732883","server": "8466","farm": "9","userId": "16102830@N05","secret": "e40d6e0ac3","title": "1212_DecemberRandoms_HR_040","loc": {"type": "Point","coordinates": [103.839,1.273]}} 
{"id": "8349732147","server": "8235","farm": "9","userId": "16102830@N05","secret": "3d121b5510","title": "1212_DecemberRandoms_HR_043","loc": {"type": "Point","coordinates": [103.839165,1.273]}} 
{"id": "8349730815","server": "8505","farm": "9","userId": "16102830@N05","secret": "602d3dcaca","title": "1212_DecemberRandoms_HR_047","loc": {"type": "Point","coordinates": [103.839,1.273]}} 
{"id": "8349731799","server": "8375","farm": "9","userId": "16102830@N05","secret": "02ca118e40","title": "1212_DecemberRandoms_HR_044","loc": {"type": "Point","coordinates": [103.839,1.273]}} 
{"id": "8349733217","server": "8189","farm": "9","userId": "16102830@N05","secret": "745d9774d8","title": "1212_DecemberRandoms_HR_039","loc": {"type": "Point","coordinates": [103.839165,1.273]}} 
{"id": "8350794920","server": "8215","farm": "9","userId": "16102830@N05","secret": "4f5633a09e","title": "1212_DecemberRandoms_HR_042","loc": {"type": "Point","coordinates": [103.839165,1.273]}} 
{"id": "8350794076","server": "8497","farm": "9","userId": "16102830@N05","secret": "d01e32bff0","title": "1212_DecemberRandoms_HR_045","loc": {"type": "Point","coordinates": [103.839,1.272833]}} 
{"id": "8350795166","server": "8375","farm": "9","userId": "16102830@N05","secret": "887e9bb0e4","title": "1212_DecemberRandoms_HR_041","loc": {"type": "Point","coordinates": [103.839,1.273166]}} 
{"id": "8349734059","server": "8089","farm": "9","userId": "16102830@N05","secret": "484488fd13","title": "1212_DecemberRandoms_HR_036","loc": {"type": "Point","coordinates": [103.839165,1.273166]}} 
{"id": "8349733855","server": "8189","farm": "9","userId": "16102830@N05","secret": "d109f3af4c","title": "1212_DecemberRandoms_HR_037","loc": {"type": "Point","coordinates": [103.839,1.273166]}} 
{"id": "8349731083","server": "8194","farm": "9","userId": "16102830@N05","secret": "2d7a784512","title": "1212_DecemberRandoms_HR_046","loc": {"type": "Point","coordinates": [103.839,1.273]}} 
{"id": "8294725936","server": "8219","farm": "9","userId": "69379954@N08","secret": "fee14591b2","title": "Coffeecup","loc": {"type": "Point","coordinates": [103.84227,1.273933]}} 
{"id": "8287008709","server": "8213","farm": "9","userId": "29693607@N00","secret": "1056fc61d1","title": "Arriving and Departing","loc": {"type": "Point","coordinates": [103.83792,1.272893]}} 
{"id": "8288067276","server": "8339","farm": "9","userId": "29693607@N00","secret": "31678f93c4","title": "","loc": {"type": "Point","coordinates": [103.83792,1.272893]}} 
{"id": "8288067354","server": "8479","farm": "9","userId": "29693607@N00","secret": "ce9a0f0b6b","title": "Selling the last few Ramly Burgers","loc": {"type": "Point","coordinates": [103.83792,1.272893]}} 
{"id": "8287007991","server": "8081","farm": "9","userId": "29693607@N00","secret": "8b5a673a73","title": "Gitzo coke stand.","loc": {"type": "Point","coordinates": [103.8386,1.27307]}} 
{"id": "8288067452","server": "8488","farm": "9","userId": "29693607@N00","secret": "25d6390111","title": "Savoring the last moment","loc": {"type": "Point","coordinates": [103.83792,1.272893]}} 
{"id": "8287008715","server": "8084","farm": "9","userId": "29693607@N00","secret": "4f0456a425","title": "Last Passenger Train","loc": {"type": "Point","coordinates": [103.83792,1.272893]}} 
{"id": "8276842548","server": "8360","farm": "9","userId": "12166501@N00","secret": "b8516e8ee0","title": "Lunch ! #instagram #instamood #yummy #love #lunch #tummyfiller #tummy #subway #starbucks #buckie","loc": {"type": "Point","coordinates": [103.84221,1.273588]}} 
{"id": "8269955188","server": "8207","farm": "9","userId": "30639068@N07","secret": "e7901502fa","title": "Desert  today","loc": {"type": "Point","coordinates": [103.84186,1.274046]}} 
{"id": "8268773983","server": "8211","farm": "9","userId": "30639068@N07","secret": "d9e30190d3","title": "Dock side view from Fabrika, Singapore","loc": {"type": "Point","coordinates": [103.841835,1.273833]}} 
{"id": "8265942532","server": "8057","farm": "9","userId": "12166501@N00","secret": "358a3f1d35","title": "12/12/12?","loc": {"type": "Point","coordinates": [103.84221,1.273588]}} 
{"id": "8255244136","server": "8494","farm": "9","userId": "29011891@N00","secret": "49cb840003","title": "The solitary two-wheeler","loc": {"type": "Point","coordinates": [103.84122,1.272828]}} 
{"id": "8237788102","server": "8338","farm": "9","userId": "40138859@N02","secret": "b3434a8f36","title": "Why is Muon this good?","loc": {"type": "Point","coordinates": [103.83792,1.272893]}} 
{"id": "8162727664","server": "8208","farm": "9","userId": "75976259@N00","secret": "b511014be1","title": "Tanjong Pagar","loc": {"type": "Point","coordinates": [103.83803,1.272893]}} 
{"id": "8102450546","server": "8473","farm": "9","userId": "30436867@N00","secret": "a555a8eef8","title": "久违的肉骨茶","loc": {"type": "Point","coordinates": [103.84225,1.272707]}} 
