{"id": "9387056282","server": "5506","farm": "6","userId": "72863173@N00","secret": "4df188ea81","title": "Full moon at Seng Poh Garden","loc": {"type": "Point","coordinates": [103.831,1.283833]}} 
{"id": "9384273697","server": "3666","farm": "4","userId": "72863173@N00","secret": "c120bc507c","title": "Table at Seng Poh Garden","loc": {"type": "Point","coordinates": [103.831,1.283833]}} 
{"id": "9387047494","server": "7323","farm": "8","userId": "72863173@N00","secret": "9a987c18a8","title": "Moh Guan Terrace","loc": {"type": "Point","coordinates": [103.83083,1.283833]}} 
{"id": "9319825109","server": "7365","farm": "8","userId": "75976719@N00","secret": "cf1c1f60b2","title": "Me, myself and Wally by @hahahafi","loc": {"type": "Point","coordinates": [103.83045,1.282897]}} 
{"id": "8946078819","server": "8398","farm": "9","userId": "75976719@N00","secret": "3077d4882b","title": "Thanks Ella for pixelating me. lol","loc": {"type": "Point","coordinates": [103.83045,1.282897]}} 
{"id": "8838097629","server": "7427","farm": "8","userId": "75976719@N00","secret": "950d38a4b2","title": "Making plans for the week on a rainy Sunday afternoon.","loc": {"type": "Point","coordinates": [103.83045,1.282897]}} 
{"id": "8752859105","server": "7428","farm": "8","userId": "55486190@N00","secret": "b2ff99145d","title": "#FlatWhite ~ Hmm, not bad but I still prefer Toby's Estate #Cafe #Latte with that caramelised taste and slight tint of sea salt  ☕","loc": {"type": "Point","coordinates": [103.83044,1.282686]}} 
{"id": "8685287349","server": "8261","farm": "9","userId": "63077571@N00","secret": "1710415794","title": "Old and New","loc": {"type": "Point","coordinates": [103.83065,1.282766]}} 
{"id": "8630755192","server": "8393","farm": "9","userId": "75976719@N00","secret": "7279be9da6","title": "Finally going to be seated at the desk this week","loc": {"type": "Point","coordinates": [103.83045,1.282897]}} 
{"id": "8564835572","server": "8106","farm": "9","userId": "75976719@N00","secret": "ba9d5d6fed","title": "The Monkey and the Crab - Old #Japanese elementary school textbook","loc": {"type": "Point","coordinates": [103.83045,1.282897]}} 
{"id": "8306606570","server": "8362","farm": "9","userId": "63209542@N08","secret": "ce9a5d532c","title": "Jelly in an egg","loc": {"type": "Point","coordinates": [103.8315,1.282833]}} 
{"id": "8305522889","server": "8499","farm": "9","userId": "63209542@N08","secret": "d4b687c9b0","title": "Rosey Christmas!","loc": {"type": "Point","coordinates": [103.83133,1.282833]}} 
{"id": "8303050755","server": "8076","farm": "9","userId": "63209542@N08","secret": "80d9bcf5d5","title": "Can we open presents yet??","loc": {"type": "Point","coordinates": [103.8315,1.282833]}} 
{"id": "8304089450","server": "8353","farm": "9","userId": "63209542@N08","secret": "48cf023c1d","title": "Libby on the presents","loc": {"type": "Point","coordinates": [103.8315,1.282833]}} 
{"id": "8302737857","server": "8493","farm": "9","userId": "63209542@N08","secret": "0b6bbbb0b6","title": "mini Rae-ia at Christmas Eve gathering;","loc": {"type": "Point","coordinates": [103.8315,1.282833]}} 
{"id": "8303776232","server": "8362","farm": "9","userId": "63209542@N08","secret": "ed852616d1","title": "Christmas Eve Dinner.....","loc": {"type": "Point","coordinates": [103.8315,1.282833]}} 
{"id": "8147068440","server": "8190","farm": "9","userId": "69379954@N08","secret": "1cfd437007","title": "Curry chicken cullet.","loc": {"type": "Point","coordinates": [103.82908,1.283745]}} 
{"id": "9413655381","server": "3786","farm": "4","userId": "97862688@N08","secret": "e524420f8b","title": "","loc": {"type": "Point","coordinates": [103.82833,1.283666]}} 
{"id": "9361767207","server": "5483","farm": "6","userId": "92607634@N08","secret": "9df7f29e75","title": "","loc": {"type": "Point","coordinates": [103.830666,1.282333]}} 
{"id": "9347634422","server": "7347","farm": "8","userId": "24773033@N02","secret": "d18319cc38","title": "I put text on photo with @instext #trainmoments #instgram #instacard             #Instext #text2pic #love #instagood #ipad #hebreo12 #photooftheday #me #instamood #cute #iphonesia #summer #tbt #igers #picoftheday #girl #instadaily #instagramhub #beautiful","loc": {"type": "Point","coordinates": [103.8302,1.283651]}} 
{"id": "9266860281","server": "7420","farm": "8","userId": "21997205@N00","secret": "c229efee3a","title": "Local author Kuan Eng signing autographs at the launch of his new books 'Reconnecting With Dialects - One Word At A Time' at Books Actually right now!","loc": {"type": "Point","coordinates": [103.83032,1.282581]}} 
{"id": "9266844935","server": "2832","farm": "3","userId": "21997205@N00","secret": "ba9c2a5eed","title": "Super crowded at Kuan Eng's 'Reconnecting With Dialects - One Word At A Time' new book launch at Books Actually right now!","loc": {"type": "Point","coordinates": [103.83032,1.282581]}} 
{"id": "9183408315","server": "3668","farm": "4","userId": "69379954@N08","secret": "ea902cb2d5","title": "It's like the building is in the stairs.","loc": {"type": "Point","coordinates": [103.83105,1.282983]}} 
{"id": "9183389455","server": "7417","farm": "8","userId": "69379954@N08","secret": "24234c3ca2","title": "Double exposure and surprises","loc": {"type": "Point","coordinates": [103.830925,1.282583]}} 
{"id": "9185640886","server": "7413","farm": "8","userId": "69379954@N08","secret": "07f2b0fa3a","title": "As if the building has a tree side","loc": {"type": "Point","coordinates": [103.83178,1.283958]}} 
{"id": "9183361105","server": "2866","farm": "3","userId": "69379954@N08","secret": "572b3a6388","title": "If trees are buildings","loc": {"type": "Point","coordinates": [103.83169,1.284012]}} 
{"id": "9183322621","server": "7404","farm": "8","userId": "69379954@N08","secret": "98d954b5a1","title": "Xperiment, experiment cheaply","loc": {"type": "Point","coordinates": [103.83077,1.282635]}} 
{"id": "9183341911","server": "5466","farm": "6","userId": "69379954@N08","secret": "4b74d9b72e","title": "Too early in the morning","loc": {"type": "Point","coordinates": [103.82907,1.282721]}} 
{"id": "9185549048","server": "5524","farm": "6","userId": "69379954@N08","secret": "54b93470d7","title": "And it doesn't need a reason","loc": {"type": "Point","coordinates": [103.83178,1.283745]}} 
{"id": "9176925449","server": "7353","farm": "8","userId": "21997205@N00","secret": "edb5c64b51","title": "Another traditional coffee shop at Tiong Bahru's Moh Guan Terrace, Hua Bee Restaurant, with it's delicious Mee Pok Noodles stall, is now closed. :(","loc": {"type": "Point","coordinates": [103.83024,1.28387]}} 
{"id": "9179152276","server": "5325","farm": "6","userId": "21997205@N00","secret": "3015455c43","title": "Another traditional coffee shop at Tiong Bahru's Moh Guan Terrace, Hua Bee Restaurant, with it's delicious Mee Pok Noodles stall, is now closed for good. :(","loc": {"type": "Point","coordinates": [103.83024,1.28387]}} 
{"id": "9159935094","server": "5323","farm": "6","userId": "69921557@N00","secret": "f1cc94e424","title": "The shadows people cast on us, some stronger, some weaker. Even if they do not touch us physically, they still leave strong impressions. And what shadows do we cast into the lives of others?","loc": {"type": "Point","coordinates": [103.83065,1.282766]}} 
{"id": "9159369912","server": "5326","farm": "6","userId": "69921557@N00","secret": "4542fd00e4","title": "@gogomonster talking about his work for Juliet","loc": {"type": "Point","coordinates": [103.83032,1.282581]}} 
{"id": "9159047906","server": "7445","farm": "8","userId": "69921557@N00","secret": "cee366d5dd","title": "White noise showcase","loc": {"type": "Point","coordinates": [103.83032,1.282581]}} 
{"id": "9153379320","server": "5345","farm": "6","userId": "98117409@N06","secret": "c32f3e0375","title": "DSC08099","loc": {"type": "Point","coordinates": [103.83118,1.28393]}} 
{"id": "9153378512","server": "5329","farm": "6","userId": "98117409@N06","secret": "810343aeab","title": "Climb the stairs of desolation","loc": {"type": "Point","coordinates": [103.83163,1.284037]}} 
{"id": "9153385258","server": "3742","farm": "4","userId": "98117409@N06","secret": "3713948927","title": "The Foreground","loc": {"type": "Point","coordinates": [103.83113,1.284123]}} 
{"id": "9150358103","server": "7339","farm": "8","userId": "14932126@N08","secret": "f236545b4b","title": "","loc": {"type": "Point","coordinates": [103.828,1.281166]}} 
{"id": "9151222184","server": "3794","farm": "4","userId": "97862688@N08","secret": "d0965ffb1e","title": "Me myself","loc": {"type": "Point","coordinates": [103.82833,1.283833]}} 
{"id": "9151227552","server": "3726","farm": "4","userId": "97862688@N08","secret": "4a010611c4","title": "Me myself","loc": {"type": "Point","coordinates": [103.82833,1.283833]}} 
{"id": "9151204048","server": "3685","farm": "4","userId": "97862688@N08","secret": "1f60f122c6","title": "Me myself","loc": {"type": "Point","coordinates": [103.8285,1.283666]}} 
{"id": "9148986373","server": "3750","farm": "4","userId": "97862688@N08","secret": "2617f6eed5","title": "Me myself","loc": {"type": "Point","coordinates": [103.8285,1.283666]}} 
{"id": "9073063760","server": "7436","farm": "8","userId": "95040365@N05","secret": "4ea71705b0","title": "2013-05-12 11.23.57","loc": {"type": "Point","coordinates": [103.83017,1.283833]}} 
{"id": "9058722540","server": "7384","farm": "8","userId": "69379954@N08","secret": "9a26734e6d","title": "One window","loc": {"type": "Point","coordinates": [103.83107,1.282964]}} 
{"id": "9056525977","server": "3793","farm": "4","userId": "69379954@N08","secret": "92d12e3b1d","title": "Big pipe","loc": {"type": "Point","coordinates": [103.831276,1.283051]}} 
{"id": "9058664878","server": "7446","farm": "8","userId": "69379954@N08","secret": "1ea4dc9251","title": "Don't remember how I shot this","loc": {"type": "Point","coordinates": [103.83068,1.282215]}} 
{"id": "9056458987","server": "5343","farm": "6","userId": "69379954@N08","secret": "834051b103","title": "Combining","loc": {"type": "Point","coordinates": [103.83098,1.282856]}} 
{"id": "9032752611","server": "3744","farm": "4","userId": "21997205@N00","secret": "bb7b57b014","title": "Mr Scotty, the Dog in the Woods in the Books...","loc": {"type": "Point","coordinates": [103.83037,1.282507]}} 
{"id": "9031936552","server": "2848","farm": "3","userId": "21997205@N00","secret": "5f9a9144fc","title": "Thanh Phong gifted me with an autographed copy of the 2nd edition of his previously sold out and banned satirically illustrated book of Vietnamese idioms, 'Phê Nhù Con Tê Tê' (As High As A Pangolin).","loc": {"type": "Point","coordinates": [103.83024,1.28387]}} 
{"id": "9031838700","server": "7328","farm": "8","userId": "21997205@N00","secret": "936024ce05","title": "The 2nd edition of our 'Urban Sketchers Singapore Vol. 1' book of sketches, now available at various local bookstores, with a redesigned layout and comes with 2 choices of cover colours! A great souvenir for visitors of Singapore and fellow citizens alike","loc": {"type": "Point","coordinates": [103.83032,1.282581]}} 
{"id": "8993832699","server": "2828","farm": "3","userId": "69379954@N08","secret": "5052a5a7c7","title": "Still not yet","loc": {"type": "Point","coordinates": [103.83021,1.282802]}} 
{"id": "8910356161","server": "2824","farm": "3","userId": "21997205@N00","secret": "98518049d2","title": "Flock-ed","loc": {"type": "Point","coordinates": [103.8302,1.283651]}} 
{"id": "8910365311","server": "2838","farm": "3","userId": "21997205@N00","secret": "76fbbef9cf","title": "Eggs Sally at Flock Cafe","loc": {"type": "Point","coordinates": [103.8302,1.283651]}} 
{"id": "8910373803","server": "5347","farm": "6","userId": "21997205@N00","secret": "ba12420c30","title": "Pancakes and Berries at Flock Cafe","loc": {"type": "Point","coordinates": [103.8302,1.283651]}} 
{"id": "8901234994","server": "3700","farm": "4","userId": "69379954@N08","secret": "a708973fe7","title": "Evening","loc": {"type": "Point","coordinates": [103.83,1.283512]}} 
{"id": "8900630141","server": "3682","farm": "4","userId": "69379954@N08","secret": "e746c9da27","title": "My street","loc": {"type": "Point","coordinates": [103.830124,1.282883]}} 
{"id": "8900615951","server": "3813","farm": "4","userId": "69379954@N08","secret": "1306e63987","title": "Block sign","loc": {"type": "Point","coordinates": [103.83129,1.283142]}} 
{"id": "8901171544","server": "5341","farm": "6","userId": "69379954@N08","secret": "22176f3c18","title": "Cool sink","loc": {"type": "Point","coordinates": [103.8302,1.28278]}} 
{"id": "8901166228","server": "3818","farm": "4","userId": "69379954@N08","secret": "996f3168b6","title": "Coffee cup","loc": {"type": "Point","coordinates": [103.83021,1.282816]}} 
{"id": "8900570169","server": "7289","farm": "8","userId": "69379954@N08","secret": "a04c669b7a","title": "Textured","loc": {"type": "Point","coordinates": [103.82933,1.284095]}} 
{"id": "8900539043","server": "5457","farm": "6","userId": "69379954@N08","secret": "4b5e442d48","title": "Morning breakfast","loc": {"type": "Point","coordinates": [103.83023,1.282832]}} 
{"id": "8900547437","server": "3820","farm": "4","userId": "69379954@N08","secret": "817e42e60b","title": "Angles.","loc": {"type": "Point","coordinates": [103.83024,1.282841]}} 
{"id": "8837660902","server": "5445","farm": "6","userId": "69921557@N00","secret": "c98d993808","title": "Kenny, the head man!","loc": {"type": "Point","coordinates": [103.83032,1.282581]}} 
{"id": "8753472309","server": "5444","farm": "6","userId": "55486190@N00","secret": "ee041a6e35","title": "#FortyHands #Truffle #Fries are super-duper yummiest!! Photo source: http://bit.ly/12myr34","loc": {"type": "Point","coordinates": [103.83044,1.282686]}} 
{"id": "8753054375","server": "3715","farm": "4","userId": "55486190@N00","secret": "ba983cf8d4","title": "#FortyHands #Singapore's #Fruit #Salad with #Yogurt is quite nice but over-priced at S$11.00!!","loc": {"type": "Point","coordinates": [103.83044,1.282686]}} 
{"id": "8749956905","server": "7455","farm": "8","userId": "69379954@N08","secret": "8f47b155c6","title": "Gift","loc": {"type": "Point","coordinates": [103.83027,1.282662]}} 
{"id": "8749949709","server": "5445","farm": "6","userId": "69379954@N08","secret": "85dacd3a8e","title": "I only dream in black and white","loc": {"type": "Point","coordinates": [103.83024,1.28267]}} 
{"id": "8751083486","server": "8406","farm": "9","userId": "69379954@N08","secret": "cf1d8f73e6","title": "Sausage","loc": {"type": "Point","coordinates": [103.83028,1.282645]}} 
{"id": "8730802329","server": "7283","farm": "8","userId": "77714914@N07","secret": "d70a07f45a","title": "Setting sun in Tiong Bahru","loc": {"type": "Point","coordinates": [103.8315,1.283748]}} 
{"id": "8730619617","server": "7299","farm": "8","userId": "69379954@N08","secret": "12bc8bf3ca","title": "Twenty four","loc": {"type": "Point","coordinates": [103.830734,1.282871]}} 
{"id": "8730618033","server": "7395","farm": "8","userId": "69379954@N08","secret": "e6ec9c4d32","title": "Spiral stairs","loc": {"type": "Point","coordinates": [103.82828,1.283909]}} 
{"id": "8731724312","server": "7336","farm": "8","userId": "69379954@N08","secret": "0afd2d4631","title": "Lens flare in the evening","loc": {"type": "Point","coordinates": [103.83084,1.282731]}} 
{"id": "8730613717","server": "7365","farm": "8","userId": "69379954@N08","secret": "766f6d3e05","title": "Evening and psychedelic colors","loc": {"type": "Point","coordinates": [103.83128,1.283134]}} 
{"id": "8726058846","server": "7386","farm": "8","userId": "69379954@N08","secret": "6385039d38","title": "Like rain","loc": {"type": "Point","coordinates": [103.83039,1.282664]}} 
{"id": "8724940655","server": "7369","farm": "8","userId": "69379954@N08","secret": "eeaeb90499","title": "Twelve","loc": {"type": "Point","coordinates": [103.83102,1.282959]}} 
{"id": "8725967898","server": "7294","farm": "8","userId": "69379954@N08","secret": "89d6652cc6","title": "Cff blck","loc": {"type": "Point","coordinates": [103.830246,1.282662]}} 
{"id": "8724632809","server": "7446","farm": "8","userId": "70234296@N00","secret": "c2dd80ae62","title": "A cozy afternoon at Tiong Bahru.","loc": {"type": "Point","coordinates": [103.829445,1.283055]}} 
{"id": "8724622991","server": "7429","farm": "8","userId": "70234296@N00","secret": "84dd5a3436","title": "I think this is great combination. A yellow mini cooper and Retro buildings.","loc": {"type": "Point","coordinates": [103.83044,1.282686]}} 
{"id": "8724613757","server": "7305","farm": "8","userId": "70234296@N00","secret": "3624770fbb","title": "Hot cloudy afternoon","loc": {"type": "Point","coordinates": [103.829445,1.283055]}} 
{"id": "8725722662","server": "7341","farm": "8","userId": "70234296@N00","secret": "645d19b81d","title": "Books Actually","loc": {"type": "Point","coordinates": [103.83032,1.282581]}} 
{"id": "8709012539","server": "8123","farm": "9","userId": "69379954@N08","secret": "32202f9f1c","title": "The blues","loc": {"type": "Point","coordinates": [103.830894,1.282916]}} 
{"id": "8694983839","server": "8113","farm": "9","userId": "69379954@N08","secret": "8ded6ca854","title": "Used to be orange. Now it's grey.","loc": {"type": "Point","coordinates": [103.83084,1.282872]}} 
{"id": "8696108480","server": "8400","farm": "9","userId": "69379954@N08","secret": "e68ff281de","title": "On the wall","loc": {"type": "Point","coordinates": [103.83084,1.282761]}} 
{"id": "8696082892","server": "8264","farm": "9","userId": "69379954@N08","secret": "239be216f9","title": "Looks like an urban jungle","loc": {"type": "Point","coordinates": [103.829956,1.283835]}} 
{"id": "8693384063","server": "8544","farm": "9","userId": "38693388@N08","secret": "c5f96ae416","title": "Singapore city","loc": {"type": "Point","coordinates": [103.83044,1.281909]}} 
{"id": "8686232038","server": "8258","farm": "9","userId": "69379954@N08","secret": "0848f337e2","title": "Just playing around","loc": {"type": "Point","coordinates": [103.8311,1.283026]}} 
{"id": "8685111083","server": "8535","farm": "9","userId": "69379954@N08","secret": "cfb9ca7169","title": "Just fooling around","loc": {"type": "Point","coordinates": [103.830696,1.282729]}} 
{"id": "8671994132","server": "8519","farm": "9","userId": "69379954@N08","secret": "1ba4abd93f","title": "Before after","loc": {"type": "Point","coordinates": [103.82901,1.283729]}} 
{"id": "8671986708","server": "8544","farm": "9","userId": "69379954@N08","secret": "e37453f9dc","title": "This annoying pain..","loc": {"type": "Point","coordinates": [103.83002,1.283287]}} 
{"id": "8651512528","server": "8522","farm": "9","userId": "21997205@N00","secret": "6856fe7241","title": "Finally got my copy of the 'We <3 Tiong Bahru' book by the Urban Sketchers Singapore and Epigram, and since we were sketching at Tiong Bahru yesterday, I was able to take a pic of this page with my sketch against the original backdrop. In the book, I was","loc": {"type": "Point","coordinates": [103.83044,1.281908]}} 
{"id": "8649261370","server": "8107","farm": "9","userId": "21997205@N00","secret": "62dd52e6fc","title": "Matching My Sketching","loc": {"type": "Point","coordinates": [103.83037,1.282774]}} 
{"id": "8648066912","server": "8265","farm": "9","userId": "21997205@N00","secret": "e4b2b398ee","title": "My 2nd parking coupon sketch of the day, at a back alley in Tiong Bahru near Moh Guan Terrace. (Before and After Watercolour).","loc": {"type": "Point","coordinates": [103.83062,1.282501]}} 
{"id": "8647969206","server": "8108","farm": "9","userId": "21997205@N00","secret": "d2ecbd2d5e","title": "Sketching on a used parking coupon at the newly-moved Woods In The Books store at Tiong Bahru (Before & After Watercolour).","loc": {"type": "Point","coordinates": [103.83037,1.282507]}} 
{"id": "8647933108","server": "8398","farm": "9","userId": "89432759@N02","secret": "63c5a76566","title": "40 Hands","loc": {"type": "Point","coordinates": [103.83033,1.282666]}} 
{"id": "8645395798","server": "8108","farm": "9","userId": "35468141938@N01","secret": "a5d03acd8b","title": "Mango vinegar compliments of the chef, to clean the stomach after the wonderful sashimi and cocktail dinner with @pennyemily","loc": {"type": "Point","coordinates": [103.830475,1.282407]}} 
{"id": "8629272797","server": "8386","farm": "9","userId": "94349357@N03","secret": "5cc51bb0ac","title": "Sleep","loc": {"type": "Point","coordinates": [103.82733,1.283333]}} 
{"id": "8623368527","server": "8247","farm": "9","userId": "42454135@N00","secret": "53587f8d1a","title": "Stepping on a piano.","loc": {"type": "Point","coordinates": [103.83032,1.282581]}} 
{"id": "8623082527","server": "8384","farm": "9","userId": "62158995@N08","secret": "03708c7d4d","title": "Weekend brunch","loc": {"type": "Point","coordinates": [103.8302,1.283651]}} 
{"id": "8595411148","server": "8374","farm": "9","userId": "38662956@N00","secret": "675e45c8df","title": "Drained","loc": {"type": "Point","coordinates": [103.83065,1.282766]}} 
{"id": "8582115804","server": "8226","farm": "9","userId": "69379954@N08","secret": "6ac1941cb3","title": "I wish I could just fall into sleep like that.","loc": {"type": "Point","coordinates": [103.82921,1.283511]}} 
{"id": "8561191053","server": "8530","farm": "9","userId": "66187127@N00","secret": "f652200295","title": "One thing that I don't think I can learn to do... Right-hand driving... #travel #travelsg","loc": {"type": "Point","coordinates": [103.83043,1.282548]}} 
{"id": "8560436461","server": "8235","farm": "9","userId": "82417989@N04","secret": "0fa708b4c5","title": "Enjoying #UltraLive from #Singapore! #FatboySlim on stage.","loc": {"type": "Point","coordinates": [103.83043,1.282548]}} 
{"id": "8556377231","server": "8111","farm": "9","userId": "23436061@N00","secret": "8c79dcace9","title": "Checkin out new places #sorbet #strawberry #pepper #stonebowl #dessert #refreshing #foodporn","loc": {"type": "Point","coordinates": [103.83018,1.282721]}} 
{"id": "8530628274","server": "8370","farm": "9","userId": "48889054224@N01","secret": "826c6899d2","title": "Filming around Tiong Baru has its perks","loc": {"type": "Point","coordinates": [103.8302,1.283651]}} 
{"id": "8524178572","server": "8524","farm": "9","userId": "36919220@N00","secret": "932a9e9360","title": "#instaplace #instaplaceapp #instagood #travelgram #photooftheday #instamood #picoftheday #instadaily #photo #instacool #instapic #picture #pic @instaplaceapp #place #earth #world  #singapore #tiongbahru #fortyhands #food #foodporn #restaurant #shopping #s","loc": {"type": "Point","coordinates": [103.83044,1.282686]}} 
{"id": "8508666993","server": "8510","farm": "9","userId": "43866013@N00","secret": "de16004a18","title": "wandered in here post-yoga. loving these vintage literary totes. this one's #theclockworkorange. they had jane eyre, animal farm, little women... #litstudentsheaven","loc": {"type": "Point","coordinates": [103.83032,1.28273]}} 
{"id": "8496525981","server": "8378","farm": "9","userId": "21885161@N05","secret": "6dd17c0a21","title": "Lou Hei","loc": {"type": "Point","coordinates": [103.829666,1.283333]}} 
{"id": "8481653205","server": "8111","farm": "9","userId": "19109134@N00","secret": "c6e183e5b1","title": "Open Door","loc": {"type": "Point","coordinates": [103.83023,1.282696]}} 
{"id": "8463535067","server": "8512","farm": "9","userId": "69379954@N08","secret": "b0b021f32b","title": "Their time is running out.","loc": {"type": "Point","coordinates": [103.82799,1.283599]}} 
{"id": "8464624484","server": "8391","farm": "9","userId": "69379954@N08","secret": "e9074fcc8d","title": "Sticker. Downstairs.","loc": {"type": "Point","coordinates": [103.83025,1.282631]}} 
{"id": "8464625938","server": "8097","farm": "9","userId": "69379954@N08","secret": "b8100fe387","title": "Banana?","loc": {"type": "Point","coordinates": [103.83026,1.282521]}} 
{"id": "8447212866","server": "8500","farm": "9","userId": "75976719@N00","secret": "4e42c545e3","title": "#misspeltname collection growing - @shinishini getting a kick out of it","loc": {"type": "Point","coordinates": [103.83026,1.282897]}} 
{"id": "8427581669","server": "8193","farm": "9","userId": "14385475@N05","secret": "b003b79ba7","title": "IMG_1776","loc": {"type": "Point","coordinates": [103.831,1.283499]}} 
{"id": "8427585833","server": "8049","farm": "9","userId": "14385475@N05","secret": "9c6a1f633e","title": "IMG_1783","loc": {"type": "Point","coordinates": [103.831,1.283333]}} 
{"id": "8427580719","server": "8072","farm": "9","userId": "14385475@N05","secret": "3b553971a5","title": "IMG_1775","loc": {"type": "Point","coordinates": [103.83117,1.283499]}} 
{"id": "8427578819","server": "8354","farm": "9","userId": "14385475@N05","secret": "19cec07b73","title": "IMG_1773","loc": {"type": "Point","coordinates": [103.83117,1.283999]}} 
{"id": "8428675070","server": "8084","farm": "9","userId": "14385475@N05","secret": "0a8e586a15","title": "IMG_1780","loc": {"type": "Point","coordinates": [103.83117,1.283333]}} 
{"id": "8427584773","server": "8075","farm": "9","userId": "14385475@N05","secret": "d9e885c348","title": "IMG_1781","loc": {"type": "Point","coordinates": [103.831,1.283333]}} 
{"id": "8428674662","server": "8216","farm": "9","userId": "14385475@N05","secret": "a2a41e5ce5","title": "IMG_1779","loc": {"type": "Point","coordinates": [103.83117,1.283499]}} 
{"id": "8428677288","server": "8095","farm": "9","userId": "14385475@N05","secret": "c921748a0d","title": "IMG_1784","loc": {"type": "Point","coordinates": [103.831,1.283333]}} 
{"id": "8427583311","server": "8376","farm": "9","userId": "14385475@N05","secret": "735c29dcaa","title": "IMG_1778","loc": {"type": "Point","coordinates": [103.8305,1.283166]}} 
{"id": "8427579723","server": "8352","farm": "9","userId": "14385475@N05","secret": "1923ee720e","title": "IMG_1774","loc": {"type": "Point","coordinates": [103.83117,1.283666]}} 
{"id": "8406740029","server": "8496","farm": "9","userId": "75976719@N00","secret": "44911930a5","title": "Right...@jampulets... #MissSpeltName","loc": {"type": "Point","coordinates": [103.83026,1.282897]}} 
{"id": "8407824826","server": "8374","farm": "9","userId": "75976719@N00","secret": "2eff9ca9ed","title": "Ok now I am Ms Yap #MisspeltName","loc": {"type": "Point","coordinates": [103.83026,1.282897]}} 
{"id": "8386667120","server": "8470","farm": "9","userId": "75976719@N00","secret": "a77f3690e0","title": "Working the brains, and the time...","loc": {"type": "Point","coordinates": [103.83045,1.282562]}} 
{"id": "8383860754","server": "8358","farm": "9","userId": "75976719@N00","secret": "eb10d83345","title": "#misspeltname","loc": {"type": "Point","coordinates": [103.83045,1.282562]}} 
{"id": "8349367170","server": "8465","farm": "9","userId": "36919220@N00","secret": "15190a3695","title": "Cool shop #fuzel @fuzelapp","loc": {"type": "Point","coordinates": [103.83032,1.28273]}} 
{"id": "8349200786","server": "8371","farm": "9","userId": "36919220@N00","secret": "2d8d27776c","title": "High tea#fuzel @fuzelapp","loc": {"type": "Point","coordinates": [103.83044,1.282686]}} 
{"id": "8321597327","server": "8211","farm": "9","userId": "68086349@N02","secret": "9d260b83bf","title": "","loc": {"type": "Point","coordinates": [103.83018,1.282722]}} 
{"id": "8308427153","server": "8221","farm": "9","userId": "42594504@N00","secret": "2f678ea586","title": "Hello Dora the explorer!! @hisbelovedpig","loc": {"type": "Point","coordinates": [103.8303,1.282482]}} 
{"id": "8308427137","server": "8358","farm": "9","userId": "42594504@N00","secret": "427c5defca","title": "Why The Face - lunch :)","loc": {"type": "Point","coordinates": [103.8298,1.283202]}} 
{"id": "8306757394","server": "8212","farm": "9","userId": "63209542@N08","secret": "6d185f22e2","title": "mini Rae-ia and mini Rye-is......my girls","loc": {"type": "Point","coordinates": [103.83133,1.282833]}} 
{"id": "8294766708","server": "8220","farm": "9","userId": "69379954@N08","secret": "9e81b767d7","title": "Orange","loc": {"type": "Point","coordinates": [103.83039,1.282838]}} 
{"id": "8293676557","server": "8073","farm": "9","userId": "69379954@N08","secret": "f57352d10e","title": "Wodka","loc": {"type": "Point","coordinates": [103.83021,1.282592]}} 
{"id": "8293467068","server": "8358","farm": "9","userId": "75976719@N00","secret": "da4995d302","title": "Hum-ful Laksa at FP very spicy tropical laksa luncheon","loc": {"type": "Point","coordinates": [103.83045,1.282562]}} 
{"id": "8293469004","server": "8499","farm": "9","userId": "75976719@N00","secret": "579051def3","title": "The Hum-less version","loc": {"type": "Point","coordinates": [103.83045,1.282562]}} 
{"id": "8290911424","server": "8082","farm": "9","userId": "37982855@N00","secret": "d429a4fafc","title": "Books Actually","loc": {"type": "Point","coordinates": [103.83005,1.282825]}} 
{"id": "8290913564","server": "8503","farm": "9","userId": "37982855@N00","secret": "93466754af","title": "Books Actually","loc": {"type": "Point","coordinates": [103.83005,1.282825]}} 
{"id": "8289850401","server": "8217","farm": "9","userId": "37982855@N00","secret": "fe2b70dcbf","title": "Books Actually","loc": {"type": "Point","coordinates": [103.83005,1.282825]}} 
{"id": "8289696099","server": "8080","farm": "9","userId": "71141369@N03","secret": "409debfeb2","title": "Noir","loc": {"type": "Point","coordinates": [103.83138,1.283485]}} 
{"id": "8290477284","server": "8072","farm": "9","userId": "75976719@N00","secret": "7d26146ab1","title": "Brew Chart","loc": {"type": "Point","coordinates": [103.8302,1.283651]}} 
{"id": "8280489028","server": "8485","farm": "9","userId": "75976719@N00","secret": "bae3d2e86d","title": "Gifts from our friends at @UnlistedC - cake from #cocotte","loc": {"type": "Point","coordinates": [103.83045,1.282562]}} 
{"id": "8275998101","server": "8495","farm": "9","userId": "28564685@N06","secret": "884bf95bef","title": "Many Can!","loc": {"type": "Point","coordinates": [103.83032,1.28273]}} 
{"id": "8246666456","server": "8337","farm": "9","userId": "69921557@N00","secret": "10ceeb14ab","title": "Triplets","loc": {"type": "Point","coordinates": [103.8302,1.283651]}} 
{"id": "8240428911","server": "8209","farm": "9","userId": "30634959@N00","secret": "19301c1ef2","title": "","loc": {"type": "Point","coordinates": [103.83049,1.282605]}} 
{"id": "8241506212","server": "8341","farm": "9","userId": "30634959@N00","secret": "995ac157e6","title": "","loc": {"type": "Point","coordinates": [103.82975,1.283533]}} 
{"id": "8241498906","server": "8490","farm": "9","userId": "30634959@N00","secret": "4579dafe05","title": "","loc": {"type": "Point","coordinates": [103.830574,1.282694]}} 
{"id": "8240437359","server": "8057","farm": "9","userId": "30634959@N00","secret": "d0805ef1ab","title": "","loc": {"type": "Point","coordinates": [103.82945,1.283477]}} 
{"id": "8237882078","server": "8478","farm": "9","userId": "30634959@N00","secret": "31bb9707c2","title": "","loc": {"type": "Point","coordinates": [103.83049,1.282605]}} 
{"id": "8237882738","server": "8345","farm": "9","userId": "30634959@N00","secret": "e06f36cf09","title": "","loc": {"type": "Point","coordinates": [103.830574,1.282694]}} 
{"id": "8237885066","server": "8479","farm": "9","userId": "30634959@N00","secret": "7601c3ca86","title": "","loc": {"type": "Point","coordinates": [103.82975,1.283533]}} 
{"id": "8218024049","server": "8067","farm": "9","userId": "69379954@N08","secret": "1744337f1d","title": "Looking out the window with the rain pouring. Interesting lines.","loc": {"type": "Point","coordinates": [103.830376,1.282799]}} 
{"id": "8217186353","server": "8065","farm": "9","userId": "69379954@N08","secret": "d2c6b0e6bb","title": "I don't think there's another building like this.","loc": {"type": "Point","coordinates": [103.830345,1.28274]}} 
{"id": "8218150086","server": "8059","farm": "9","userId": "69379954@N08","secret": "1762ce03f9","title": "Blue sky. Orange whites.","loc": {"type": "Point","coordinates": [103.83089,1.28276]}} 
{"id": "8217496562","server": "8060","farm": "9","userId": "54831995@N08","secret": "e9d53905b1","title": "","loc": {"type": "Point","coordinates": [103.8275,1.283833]}} 
{"id": "8211067432","server": "8202","farm": "9","userId": "92542554@N00","secret": "1bc0d08cf1","title": "Tiong Bahru niche shops area","loc": {"type": "Point","coordinates": [103.83019,1.282483]}} 
{"id": "8209970187","server": "8201","farm": "9","userId": "92542554@N00","secret": "72f9c60a90","title": "Tiong Bahru one-room flats","loc": {"type": "Point","coordinates": [103.83019,1.282483]}} 
{"id": "8207513571","server": "8061","farm": "9","userId": "69379954@N08","secret": "69bb13b91e","title": "Jogging past","loc": {"type": "Point","coordinates": [103.830894,1.282944]}} 
{"id": "8204580908","server": "8344","farm": "9","userId": "69379954@N08","secret": "dfcce0a9c1","title": "Evening sky","loc": {"type": "Point","coordinates": [103.83126,1.281295]}} 
{"id": "8203355471","server": "8203","farm": "9","userId": "69379954@N08","secret": "cec0109900","title": "Emptiness in the skies","loc": {"type": "Point","coordinates": [103.82955,1.282068]}} 
{"id": "8202796685","server": "8347","farm": "9","userId": "69379954@N08","secret": "ac5b8b0a2f","title": "Simi try","loc": {"type": "Point","coordinates": [103.82932,1.282793]}} 
{"id": "8202778819","server": "8349","farm": "9","userId": "69379954@N08","secret": "16d7bb1b27","title": "Lines curves","loc": {"type": "Point","coordinates": [103.82996,1.28197]}} 
{"id": "8171451794","server": "8067","farm": "9","userId": "99381909@N00","secret": "a5a7303a3c","title": "New joint. Coffee is so-so but the pork cheek sandwich is yummeh.","loc": {"type": "Point","coordinates": [103.8302,1.283847]}} 
{"id": "8171352711","server": "8479","farm": "9","userId": "92982109@N00","secret": "478cbdc01e","title": "Mocha and a Pork Cheek Gruyere. #foodspotting #singapore","loc": {"type": "Point","coordinates": [103.8302,1.283847]}} 
{"id": "8150375879","server": "8466","farm": "9","userId": "69379954@N08","secret": "6fcb180ed0","title": "Curves","loc": {"type": "Point","coordinates": [103.83,1.283763]}} 
{"id": "8150368531","server": "8044","farm": "9","userId": "69379954@N08","secret": "c8e6f1c682","title": "Entrance","loc": {"type": "Point","coordinates": [103.83,1.283763]}} 
{"id": "8147065158","server": "8327","farm": "9","userId": "69379954@N08","secret": "72fc7776cc","title": "Adds to the mystery","loc": {"type": "Point","coordinates": [103.83028,1.282933]}} 
{"id": "8147062418","server": "8472","farm": "9","userId": "69379954@N08","secret": "6614e319c4","title": "It wouldn't be the same without the whites","loc": {"type": "Point","coordinates": [103.829346,1.283186]}} 
{"id": "8144019593","server": "8191","farm": "9","userId": "69379954@N08","secret": "15f72fa001","title": "Pizza","loc": {"type": "Point","coordinates": [103.83147,1.283668]}} 
{"id": "8144050846","server": "8053","farm": "9","userId": "69379954@N08","secret": "3e6f9ddcf3","title": "Wine walled","loc": {"type": "Point","coordinates": [103.83147,1.283668]}} 
{"id": "8144020407","server": "8328","farm": "9","userId": "69379954@N08","secret": "cb35699ba6","title": "Satay man","loc": {"type": "Point","coordinates": [103.83147,1.283313]}} 
{"id": "8108572684","server": "8054","farm": "9","userId": "56534201@N04","secret": "1003d16aa8","title": "°","loc": {"type": "Point","coordinates": [103.83037,1.283426]}} 
