{"id": "8564642832","server": "8373","farm": "9","userId": "69379954@N08","secret": "99c3fc13cf","title": "Negative","loc": {"type": "Point","coordinates": [103.81422,1.284979]}} 
{"id": "8455799548","server": "8530","farm": "9","userId": "25217916@N06","secret": "4b14b8b241","title": "My big mouth. #fish #aquarium #iphone5 #snapseed #instagood #photooftheday #instamood #igers #picoftheday #instadaily #instagramhub #bestoftheday #igdaily #iphonesia #webstagram #follow #instagramers #followme #statigram #instahub #photo #like #followback","loc": {"type": "Point","coordinates": [103.810265,1.286758]}} 
{"id": "8429973034","server": "8513","farm": "9","userId": "10966331@N04","secret": "f124eaa8ea","title": "","loc": {"type": "Point","coordinates": [103.810165,1.285]}} 
{"id": "8336955610","server": "8075","farm": "9","userId": "91670890@N04","secret": "02f7ff41f4","title": "","loc": {"type": "Point","coordinates": [103.8135,1.284666]}} 
{"id": "8329088250","server": "8352","farm": "9","userId": "10966331@N04","secret": "0a989ff5db","title": "","loc": {"type": "Point","coordinates": [103.81,1.285333]}} 
{"id": "8318095871","server": "8501","farm": "9","userId": "90889803@N03","secret": "b76840cdf4","title": "","loc": {"type": "Point","coordinates": [103.81333,1.285333]}} 
{"id": "8308424683","server": "8357","farm": "9","userId": "42594504@N00","secret": "7382651864","title": "#old school toy planes, somethings I used to buy","loc": {"type": "Point","coordinates": [103.8153,1.286378]}} 
{"id": "8309476712","server": "8494","farm": "9","userId": "42594504@N00","secret": "878c1ac547","title": "sleeping beauty :)) @hisbelovedpig","loc": {"type": "Point","coordinates": [103.8153,1.285885]}} 
{"id": "8309478036","server": "8084","farm": "9","userId": "42594504@N00","secret": "87b443c0d2","title": "it's a factory here","loc": {"type": "Point","coordinates": [103.8151,1.285601]}} 
{"id": "8308426135","server": "8494","farm": "9","userId": "42594504@N00","secret": "3052679c1e","title": "Huge moth","loc": {"type": "Point","coordinates": [103.8151,1.285376]}} 
{"id": "8308424815","server": "8504","farm": "9","userId": "42594504@N00","secret": "6119d93367","title": "paw prints!!","loc": {"type": "Point","coordinates": [103.8141,1.284951]}} 
{"id": "8308426127","server": "8084","farm": "9","userId": "42594504@N00","secret": "2de2fb1bd7","title": "my leeicas","loc": {"type": "Point","coordinates": [103.8152,1.285349]}} 
{"id": "8292623175","server": "8504","farm": "9","userId": "10966331@N04","secret": "54ac7b72d1","title": "","loc": {"type": "Point","coordinates": [103.8105,1.284833]}} 
{"id": "8182525808","server": "8350","farm": "9","userId": "16102830@N05","secret": "1d26a58fe5","title": "120914_SOTGradVidShoot_HR_013","loc": {"type": "Point","coordinates": [103.813835,1.2845]}} 
{"id": "8182528288","server": "8210","farm": "9","userId": "16102830@N05","secret": "3065fa3cf2","title": "120914_SOTGradVidShoot_HR_011","loc": {"type": "Point","coordinates": [103.813835,1.2845]}} 
{"id": "8182535938","server": "8348","farm": "9","userId": "16102830@N05","secret": "c88d2fcc82","title": "120914_SOTGradVidShoot_HR_006","loc": {"type": "Point","coordinates": [103.813835,1.2845]}} 
{"id": "8182532668","server": "8344","farm": "9","userId": "16102830@N05","secret": "b74c1cae1d","title": "120914_SOTGradVidShoot_HR_008","loc": {"type": "Point","coordinates": [103.813835,1.2845]}} 
{"id": "8182508542","server": "8346","farm": "9","userId": "16102830@N05","secret": "166506797c","title": "120914_SOTGradVidShoot_HR_023","loc": {"type": "Point","coordinates": [103.813835,1.2845]}} 
{"id": "8182483989","server": "8482","farm": "9","userId": "16102830@N05","secret": "d4658cf7c5","title": "120914_SOTGradVidShoot_HR_014","loc": {"type": "Point","coordinates": [103.813835,1.2845]}} 
{"id": "8182472387","server": "8483","farm": "9","userId": "16102830@N05","secret": "6bc43f9199","title": "120914_SOTGradVidShoot_HR_022","loc": {"type": "Point","coordinates": [103.813835,1.2845]}} 
{"id": "8182481245","server": "8204","farm": "9","userId": "16102830@N05","secret": "a5da97824b","title": "120914_SOTGradVidShoot_HR_016","loc": {"type": "Point","coordinates": [103.813835,1.2845]}} 
{"id": "8182505932","server": "8067","farm": "9","userId": "16102830@N05","secret": "138e6cfb02","title": "120914_SOTGradVidShoot_HR_025","loc": {"type": "Point","coordinates": [103.813835,1.2845]}} 
{"id": "8182473867","server": "8203","farm": "9","userId": "16102830@N05","secret": "564b1ef576","title": "120914_SOTGradVidShoot_HR_021","loc": {"type": "Point","coordinates": [103.813835,1.2845]}} 
{"id": "8182493367","server": "8346","farm": "9","userId": "16102830@N05","secret": "d5f75916d4","title": "120914_SOTGradVidShoot_HR_009","loc": {"type": "Point","coordinates": [103.813835,1.2845]}} 
{"id": "8182466895","server": "8207","farm": "9","userId": "16102830@N05","secret": "c72287edee","title": "120914_SOTGradVidShoot_HR_026","loc": {"type": "Point","coordinates": [103.813835,1.2845]}} 
{"id": "8182482663","server": "8340","farm": "9","userId": "16102830@N05","secret": "d36e9509c6","title": "120914_SOTGradVidShoot_HR_015","loc": {"type": "Point","coordinates": [103.813835,1.2845]}} 
{"id": "8182544660","server": "8062","farm": "9","userId": "16102830@N05","secret": "7dfec3c430","title": "120914_SOTGradVidShoot_HR_002","loc": {"type": "Point","coordinates": [103.813835,1.2845]}} 
{"id": "8182514875","server": "8348","farm": "9","userId": "16102830@N05","secret": "449c1836ab","title": "120914_SOTGradVidShoot_HR_001","loc": {"type": "Point","coordinates": [103.813835,1.2845]}} 
{"id": "8182479727","server": "8489","farm": "9","userId": "16102830@N05","secret": "3ff6833f5d","title": "120914_SOTGradVidShoot_HR_017","loc": {"type": "Point","coordinates": [103.813835,1.2845]}} 
{"id": "8182515624","server": "8206","farm": "9","userId": "16102830@N05","secret": "c055d4bcbc","title": "120914_SOTGradVidShoot_HR_018","loc": {"type": "Point","coordinates": [103.813835,1.2845]}} 
{"id": "8182491881","server": "8198","farm": "9","userId": "16102830@N05","secret": "d3d030e243","title": "120914_SOTGradVidShoot_HR_010","loc": {"type": "Point","coordinates": [103.813835,1.2845]}} 
{"id": "8182503683","server": "8486","farm": "9","userId": "16102830@N05","secret": "a191bbed02","title": "120914_SOTGradVidShoot_HR_004","loc": {"type": "Point","coordinates": [103.813835,1.2845]}} 
{"id": "8182489675","server": "8210","farm": "9","userId": "16102830@N05","secret": "945d63fca3","title": "120914_SOTGradVidShoot_HR_012","loc": {"type": "Point","coordinates": [103.813835,1.2845]}} 
{"id": "8182475269","server": "8349","farm": "9","userId": "16102830@N05","secret": "599766cd63","title": "120914_SOTGradVidShoot_HR_020","loc": {"type": "Point","coordinates": [103.813835,1.2845]}} 
{"id": "8182513866","server": "8482","farm": "9","userId": "16102830@N05","secret": "b46ac35ec2","title": "120914_SOTGradVidShoot_HR_019","loc": {"type": "Point","coordinates": [103.813835,1.2845]}} 
{"id": "8182496697","server": "8209","farm": "9","userId": "16102830@N05","secret": "530907f1d6","title": "120914_SOTGradVidShoot_HR_007","loc": {"type": "Point","coordinates": [103.813835,1.2845]}} 
{"id": "8182540168","server": "8479","farm": "9","userId": "16102830@N05","secret": "f1334f79b9","title": "120914_SOTGradVidShoot_HR_005","loc": {"type": "Point","coordinates": [103.813835,1.2845]}} 
{"id": "8182505271","server": "8349","farm": "9","userId": "16102830@N05","secret": "274e3a7a06","title": "120914_SOTGradVidShoot_HR_003","loc": {"type": "Point","coordinates": [103.813835,1.2845]}} 
{"id": "8182507384","server": "8203","farm": "9","userId": "16102830@N05","secret": "6381f8fce8","title": "120914_SOTGradVidShoot_HR_024","loc": {"type": "Point","coordinates": [103.813835,1.2845]}} 
