{"id": "9165385961","server": "7402","farm": "8","userId": "45680334@N05","secret": "173e3cf28d","title": "@ Henderson wave","loc": {"type": "Point","coordinates": [103.81467,1.277166]}} 
{"id": "8822585880","server": "5340","farm": "6","userId": "34811143@N00","secret": "c52de64ee7","title": "Ternout#3 @ Labrador Park","loc": {"type": "Point","coordinates": [103.81528,1.275833]}} 
{"id": "8753012909","server": "3791","farm": "4","userId": "59676410@N03","secret": "e046fec8d1","title": "2013-04-11-4143_q1.jpg","loc": {"type": "Point","coordinates": [103.813,1.275022]}} 
{"id": "8318111972","server": "8213","farm": "9","userId": "65512718@N08","secret": "88b3dcba41","title": "You'll See My Face......","loc": {"type": "Point","coordinates": [103.811874,1.276368]}} 
{"id": "9433191173","server": "7431","farm": "8","userId": "45145143@N08","secret": "fbc2cc5b8f","title": "","loc": {"type": "Point","coordinates": [103.815,1.276333]}} 
{"id": "9433188515","server": "3667","farm": "4","userId": "45145143@N08","secret": "d138476ec5","title": "","loc": {"type": "Point","coordinates": [103.815,1.276333]}} 
{"id": "9435961542","server": "3768","farm": "4","userId": "45145143@N08","secret": "fd3df52188","title": "","loc": {"type": "Point","coordinates": [103.81433,1.277333]}} 
{"id": "9413446144","server": "3788","farm": "4","userId": "9895689@N04","secret": "cc2b8a3566","title": "Bridge","loc": {"type": "Point","coordinates": [103.81491,1.276438]}} 
{"id": "9027360804","server": "5332","farm": "6","userId": "57775558@N05","secret": "fc952f80e7","title": "Taking shelter","loc": {"type": "Point","coordinates": [103.814445,1.277398]}} 
{"id": "9027360954","server": "7362","farm": "8","userId": "57775558@N05","secret": "73056f8c3a","title": "Taking shelter","loc": {"type": "Point","coordinates": [103.814445,1.277398]}} 
{"id": "9027361068","server": "7418","farm": "8","userId": "57775558@N05","secret": "993442c31b","title": "Heavy rain in the park","loc": {"type": "Point","coordinates": [103.814445,1.277398]}} 
{"id": "8822596464","server": "3700","farm": "4","userId": "34811143@N00","secret": "50fed71bf4","title": "Ternout#3 @ Labrador Park","loc": {"type": "Point","coordinates": [103.81528,1.275833]}} 
{"id": "8811997311","server": "7450","farm": "8","userId": "34811143@N00","secret": "09c19c243e","title": "Ternout#3 @ Labrador Park","loc": {"type": "Point","coordinates": [103.815,1.275555]}} 
{"id": "8467073217","server": "8249","farm": "9","userId": "45145143@N08","secret": "db6ef350c1","title": "5","loc": {"type": "Point","coordinates": [103.810455,1.275982]}} 
{"id": "8294049276","server": "8360","farm": "9","userId": "55751090@N00","secret": "b5d250df6b","title": "Mikibá Karácsonyi kalandjai Szingapúrban","loc": {"type": "Point","coordinates": [103.81322,1.277777]}} 
{"id": "8294050116","server": "8356","farm": "9","userId": "55751090@N00","secret": "eb24038d71","title": "Mikibá Karácsonyi kalandjai Szingapúrban","loc": {"type": "Point","coordinates": [103.81508,1.276288]}} 
{"id": "8292993175","server": "8081","farm": "9","userId": "55751090@N00","secret": "be5fc5a049","title": "Mikibá Karácsonyi kalandjai Szingapúrban","loc": {"type": "Point","coordinates": [103.81266,1.277461]}} 
{"id": "8294047654","server": "8356","farm": "9","userId": "55751090@N00","secret": "bc1bb186f3","title": "Mikibá Karácsonyi kalandjai Szingapúrban","loc": {"type": "Point","coordinates": [103.8125,1.277033]}} 
{"id": "8294050658","server": "8074","farm": "9","userId": "55751090@N00","secret": "a5615818ff","title": "Mikibá Karácsonyi kalandjai Szingapúrban","loc": {"type": "Point","coordinates": [103.81513,1.276219]}} 
{"id": "8294054016","server": "8084","farm": "9","userId": "55751090@N00","secret": "6cc9e658ef","title": "Karacsonyi lap szingapurbol","loc": {"type": "Point","coordinates": [103.814896,1.276422]}} 
{"id": "8292173597","server": "8214","farm": "9","userId": "20687455@N00","secret": "9a70626e1f","title": "IMG_2986","loc": {"type": "Point","coordinates": [103.81526,1.276152]}} 
{"id": "8293226074","server": "8212","farm": "9","userId": "20687455@N00","secret": "255aa6f249","title": "IMG_2987","loc": {"type": "Point","coordinates": [103.81495,1.276355]}} 
{"id": "8293231762","server": "8352","farm": "9","userId": "20687455@N00","secret": "3f32d0f453","title": "IMG_2989","loc": {"type": "Point","coordinates": [103.8144,1.277069]}} 
{"id": "8163846689","server": "8199","farm": "9","userId": "38417840@N08","secret": "e7844d9aa8","title": "Kite Over Handerson Height","loc": {"type": "Point","coordinates": [103.813484,1.275209]}} 
