{"id": "8748612339","server": "8264","farm": "9","userId": "8857720@N08","secret": "7dd25f683d","title": "1st of May 2013 - No Illegal Workers ...","loc": {"type": "Point","coordinates": [103.83985,1.29516]}} 
{"id": "8599712636","server": "8247","farm": "9","userId": "69921557@N00","secret": "b65c5deec5","title": "I am told that our body registers all the sensory input which gets filed away in dreams at night. And yet we can only recall one memory at a time, and there is so much we don't even know we knew. How those drinks line up behind the kids chit chatting in f","loc": {"type": "Point","coordinates": [103.83931,1.29583]}} 
{"id": "8499507355","server": "8085","farm": "9","userId": "34546707@N03","secret": "1a73b03366","title": "","loc": {"type": "Point","coordinates": [103.84128,1.293928]}} 
{"id": "8443797884","server": "8361","farm": "9","userId": "92593934@N04","secret": "0275753534","title": "Have you had your cuppa today?","loc": {"type": "Point","coordinates": [103.84206,1.293754]}} 
{"id": "8437293347","server": "8370","farm": "9","userId": "92593934@N04","secret": "268cd2c02a","title": "","loc": {"type": "Point","coordinates": [103.84206,1.293754]}} 
{"id": "8437292231","server": "8194","farm": "9","userId": "92593934@N04","secret": "46ede3734a","title": "","loc": {"type": "Point","coordinates": [103.84206,1.293754]}} 
{"id": "8437289589","server": "8514","farm": "9","userId": "92593934@N04","secret": "8976530e20","title": "","loc": {"type": "Point","coordinates": [103.84206,1.293754]}} 
{"id": "8438374258","server": "8323","farm": "9","userId": "92593934@N04","secret": "663c64751c","title": "","loc": {"type": "Point","coordinates": [103.84206,1.293754]}} 
{"id": "8267613017","server": "8210","farm": "9","userId": "26437411@N00","secret": "3350d0115c","title": "Florida's Natural","loc": {"type": "Point","coordinates": [103.8375,1.295686]}} 
{"id": "9269624698","server": "2870","farm": "3","userId": "13871957@N07","secret": "8c7cc44647","title": "Dinner with the company!","loc": {"type": "Point","coordinates": [103.841995,1.293898]}} 
{"id": "8814847753","server": "5335","farm": "6","userId": "9454157@N08","secret": "c55f3b3ab9","title": "Spathe for #dinner","loc": {"type": "Point","coordinates": [103.84201,1.293813]}} 
{"id": "8814473147","server": "7452","farm": "8","userId": "9454157@N08","secret": "eae2841ac5","title": "Potato gnocchi yum! So well done!","loc": {"type": "Point","coordinates": [103.84201,1.293813]}} 
{"id": "8801805631","server": "2819","farm": "3","userId": "56728000@N00","secret": "15af2f9942","title": "Poke! Poke! Look its the awesome Californian-inspired Tuna and Avocado Poké. Love the crunchy layer of fried shallots too. | #instayum #instafood #foodgasm #food #instaweekend","loc": {"type": "Point","coordinates": [103.84201,1.293813]}} 
{"id": "8728165027","server": "7346","farm": "8","userId": "56728000@N00","secret": "05e2544848","title": "There is always room for dessert innit? Poached Pear Charlotte Royale with warm Chocolate Sauce. Strangely it wasn't as satisfying as it sounds. On hindsight, we should have ordered another one. | #instayum #instafood #instaweekend #dessert #food #foodgas","loc": {"type": "Point","coordinates": [103.84201,1.293813]}} 
{"id": "8728964926","server": "7283","farm": "8","userId": "56728000@N00","secret": "d20b32758c","title": "Gotta love a place with sweet convincing skills | #instaweekend #dessert","loc": {"type": "Point","coordinates": [103.84201,1.293813]}} 
{"id": "8687466243","server": "7050","farm": "8","userId": "83195865@N08","secret": "f257de9524","title": "IMG_0248.jpg","loc": {"type": "Point","coordinates": [103.84186,1.293922]}} 
{"id": "8688585594","server": "7056","farm": "8","userId": "83195865@N08","secret": "0bb0ae406d","title": "IMG_0251.jpg","loc": {"type": "Point","coordinates": [103.842255,1.294216]}} 
{"id": "8664392065","server": "8240","farm": "9","userId": "83195865@N08","secret": "49d81fe68a","title": "IMG_9172.jpg","loc": {"type": "Point","coordinates": [103.84277,1.295]}} 
{"id": "8665496054","server": "8258","farm": "9","userId": "83195865@N08","secret": "9686e64065","title": "IMG_9122.jpg","loc": {"type": "Point","coordinates": [103.84277,1.295]}} 
{"id": "8663784671","server": "8265","farm": "9","userId": "89975165@N07","secret": "d493663c8d","title": "Gruyere Cheese & Bacon Rösti & a Cappucino for today's brunch featuring my brand new Arty ring from my loveliest friends. ❤❤❤","loc": {"type": "Point","coordinates": [103.84206,1.293754]}} 
{"id": "8663174638","server": "8248","farm": "9","userId": "35602139@N06","secret": "eb62b121d7","title": "#salmon","loc": {"type": "Point","coordinates": [103.83931,1.29583]}} 
{"id": "8663179762","server": "8265","farm": "9","userId": "35602139@N06","secret": "f521a54ed3","title": "Para syang #beefsapicao sarap","loc": {"type": "Point","coordinates": [103.83931,1.29583]}} 
{"id": "8650459937","server": "8528","farm": "9","userId": "89975165@N07","secret": "2c1fbc256b","title": "Chocolate Crème Brûlée.","loc": {"type": "Point","coordinates": [103.83931,1.29583]}} 
{"id": "8651482926","server": "8538","farm": "9","userId": "89975165@N07","secret": "4e13081281","title": "Corned Beef Hash.","loc": {"type": "Point","coordinates": [103.83931,1.29583]}} 
{"id": "8648567378","server": "8115","farm": "9","userId": "83195865@N08","secret": "7fe5ab9e30","title": "Mirror Image","loc": {"type": "Point","coordinates": [103.84238,1.294741]}} 
{"id": "8648566592","server": "8120","farm": "9","userId": "83195865@N08","secret": "8c31375732","title": "After the Rain I","loc": {"type": "Point","coordinates": [103.84238,1.294741]}} 
{"id": "8648407400","server": "8258","farm": "9","userId": "83195865@N08","secret": "c6fedd2e85","title": "Henna Hand","loc": {"type": "Point","coordinates": [103.842545,1.295472]}} 
{"id": "8647307111","server": "8391","farm": "9","userId": "83195865@N08","secret": "fa53d00986","title": "IMG_3213.jpg","loc": {"type": "Point","coordinates": [103.842316,1.29468]}} 
{"id": "8605822556","server": "8529","farm": "9","userId": "94512171@N00","secret": "de4050fa3a","title": "Visibility is low. Cool change is always welcomed. #singapore #sg #igsg #instasg","loc": {"type": "Point","coordinates": [103.83902,1.293796]}} 
{"id": "8582040636","server": "8240","farm": "9","userId": "58902274@N05","secret": "fa8e1c4f37","title": "Craving for red velvet!","loc": {"type": "Point","coordinates": [103.83921,1.295853]}} 
{"id": "8530626131","server": "8232","farm": "9","userId": "63283397@N08","secret": "0458f3bed2","title": "Mentaiko pasta","loc": {"type": "Point","coordinates": [103.83931,1.29583]}} 
{"id": "8530617281","server": "8510","farm": "9","userId": "63283397@N08","secret": "06ce7628f4","title": "Strawberry meringue dessert","loc": {"type": "Point","coordinates": [103.83931,1.29583]}} 
{"id": "8527751740","server": "8391","farm": "9","userId": "92593934@N04","secret": "8bf317f859","title": "Revisited - Chicken & The Sea","loc": {"type": "Point","coordinates": [103.84206,1.293754]}} 
{"id": "8527727680","server": "8246","farm": "9","userId": "92593934@N04","secret": "50b65d5cb6","title": "Revisited - Poach Pear","loc": {"type": "Point","coordinates": [103.84206,1.293754]}} 
{"id": "8500380116","server": "8244","farm": "9","userId": "89432759@N02","secret": "dd19826199","title": "Wonton Wonder by Jenifir","loc": {"type": "Point","coordinates": [103.84033,1.293666]}} 
{"id": "8469835245","server": "8367","farm": "9","userId": "10757800@N00","secret": "1aabeb0d1a","title": "Don't photograph me! | Singapore","loc": {"type": "Point","coordinates": [103.84085,1.294645]}} 
{"id": "8438377320","server": "8051","farm": "9","userId": "92593934@N04","secret": "3f8144f459","title": "","loc": {"type": "Point","coordinates": [103.84206,1.293754]}} 
{"id": "8438371312","server": "8227","farm": "9","userId": "92593934@N04","secret": "64fa053324","title": "","loc": {"type": "Point","coordinates": [103.84206,1.293754]}} 
{"id": "8437872622","server": "8332","farm": "9","userId": "83195865@N08","secret": "f4136e97ea","title": "IMG_5663-Edit.jpg","loc": {"type": "Point","coordinates": [103.842545,1.295472]}} 
{"id": "8298973993","server": "8355","farm": "9","userId": "41894167963@N01","secret": "464d60a9af","title": "Kuro chashu ramen at Ippudo","loc": {"type": "Point","coordinates": [103.84144,1.29357]}} 
{"id": "8296231208","server": "8353","farm": "9","userId": "51489026@N02","secret": "b3f4e3a873","title": "The father and the son","loc": {"type": "Point","coordinates": [103.83902,1.293796]}} 
{"id": "8288196916","server": "8061","farm": "9","userId": "26437411@N00","secret": "2c313946bf","title": "","loc": {"type": "Point","coordinates": [103.838165,1.295333]}} 
{"id": "8287133343","server": "8488","farm": "9","userId": "26437411@N00","secret": "3efe74843f","title": "A very nice coincidence!","loc": {"type": "Point","coordinates": [103.84123,1.29598]}} 
{"id": "8288196518","server": "8084","farm": "9","userId": "26437411@N00","secret": "a393d9f60e","title": "#weather #sky #instaweather #instaweatherpro #outdoors #nature #singapore #singapore #day #skypainters","loc": {"type": "Point","coordinates": [103.83801,1.295485]}} 
{"id": "8288196418","server": "8362","farm": "9","userId": "26437411@N00","secret": "c7baf05dd0","title": "Yes dear! I'll eat my veggies, @emm_aja @reichan @journalin .. Thanks for the reminder","loc": {"type": "Point","coordinates": [103.83811,1.295408]}} 
{"id": "8288196294","server": "8063","farm": "9","userId": "26437411@N00","secret": "fb872a281c","title": "","loc": {"type": "Point","coordinates": [103.838745,1.29516]}} 
{"id": "8287133231","server": "8503","farm": "9","userId": "26437411@N00","secret": "327be759dd","title": "Good night!","loc": {"type": "Point","coordinates": [103.84138,1.296071]}} 
{"id": "8287137459","server": "8219","farm": "9","userId": "26437411@N00","secret": "7df4d00b5a","title": "Hello Kitty Christmas Candy, @wjnit","loc": {"type": "Point","coordinates": [103.83902,1.293796]}} 
{"id": "8287137519","server": "8211","farm": "9","userId": "26437411@N00","secret": "0635da8bce","title": "A really good Taiwanese snack","loc": {"type": "Point","coordinates": [103.83783,1.294926]}} 
{"id": "8288196134","server": "8482","farm": "9","userId": "26437411@N00","secret": "8015f2f66b","title": "Nespresso ftw! #coffee #coffeeaddict","loc": {"type": "Point","coordinates": [103.838,1.295166]}} 
{"id": "8287137309","server": "8197","farm": "9","userId": "26437411@N00","secret": "8d2d0caf13","title": "","loc": {"type": "Point","coordinates": [103.8387,1.295135]}} 
{"id": "8270054984","server": "8487","farm": "9","userId": "26437411@N00","secret": "23f592cbd1","title": "Sending hello kitty candy pic from #newflickrapp","loc": {"type": "Point","coordinates": [103.8375,1.295686]}} 
{"id": "8266095893","server": "8490","farm": "9","userId": "26437411@N00","secret": "3e9084e833","title": "Magical! ~ posting fr the new @Flickr apps on iOS, @kay_de","loc": {"type": "Point","coordinates": [103.8387,1.295136]}} 
{"id": "8267093214","server": "8219","farm": "9","userId": "89975165@N07","secret": "1efbcf4e9c","title": "Passion Fruit Meringue Cake.","loc": {"type": "Point","coordinates": [103.842064,1.293964]}} 
{"id": "8246052961","server": "8345","farm": "9","userId": "23436061@N00","secret": "70c537189c","title": "Tis the season #wreath #pine #xmas #christmas #green #instagood","loc": {"type": "Point","coordinates": [103.842064,1.294076]}} 
{"id": "8240339933","server": "8480","farm": "9","userId": "23436061@N00","secret": "9f314ffd74","title": "Honey Jack Sour #mixology #cocktail #basic #whiskey #drinks #instagood #jackdaniels","loc": {"type": "Point","coordinates": [103.842064,1.294076]}} 
{"id": "8235217908","server": "8065","farm": "9","userId": "23436061@N00","secret": "da69d4a773","title": "Pulled Pork #bbq #meat #foodporn #instagood #oink","loc": {"type": "Point","coordinates": [103.842064,1.294076]}} 
{"id": "8233156665","server": "8481","farm": "9","userId": "23436061@N00","secret": "a96ff74fe5","title": "Eat food #breakfast #wrap #egg #avacado #blackbean #bacon #instagood #foodporn","loc": {"type": "Point","coordinates": [103.842064,1.294076]}} 
{"id": "8224349692","server": "8339","farm": "9","userId": "23436061@N00","secret": "a3149dec81","title": "Ba Bao Cha #tea #8treasures #china #bevporn #instagood #healthy","loc": {"type": "Point","coordinates": [103.842064,1.294076]}} 
{"id": "8223869096","server": "8070","farm": "9","userId": "23436061@N00","secret": "e7e5688526","title": "Pure #sweat #workout #insanity #h2o #drip #hamper","loc": {"type": "Point","coordinates": [103.842064,1.294076]}} 
{"id": "8181656751","server": "8060","farm": "9","userId": "60280162@N07","secret": "b78f0cbe47","title": "カメラロール-400","loc": {"type": "Point","coordinates": [103.84216,1.2945]}} 
{"id": "8161240513","server": "7138","farm": "8","userId": "23436061@N00","secret": "80f2d83549","title": "Saving money on my insurance. #geico #gecko #critters #asia #lizard","loc": {"type": "Point","coordinates": [103.842064,1.294076]}} 
{"id": "8160440744","server": "7132","farm": "8","userId": "23436061@N00","secret": "b66db06908","title": "A little sumpin' #lagunitas #beer #nofilter #petaluma","loc": {"type": "Point","coordinates": [103.842064,1.294076]}} 
{"id": "8139989220","server": "8190","farm": "9","userId": "23436061@N00","secret": "83cba6489e","title": "Concrete Jungle #goodmorning #wakeup #singapore #sunrise #cloudporn #sky #nofilter","loc": {"type": "Point","coordinates": [103.842064,1.294076]}} 
{"id": "8121649149","server": "8183","farm": "9","userId": "94512171@N00","secret": "2c17d48163","title": "BBQ galore #foodsg #foodporn #singaporefood #instagramsg #singapore #sglocalfood #picoftheday #hungry #sg #sgfoodies #mealtime #igsg #foodphotography #asianfood #statigram #instasg #webstagram #instagramhub #sgig #tweetgram #instadaily #foodpornasia #food","loc": {"type": "Point","coordinates": [103.83813,1.294564]}} 
{"id": "8118628027","server": "8054","farm": "9","userId": "23436061@N00","secret": "3693fb6102","title": "This one got away from the tour group #segway #lazy #asia #singapore #photooftheday #theyseemerollin","loc": {"type": "Point","coordinates": [103.83806,1.29511]}} 
{"id": "8112826261","server": "8333","farm": "9","userId": "56728000@N00","secret": "dd9fd2529c","title": "Cutest spook ever! Oh and there's coffee and cakes too.","loc": {"type": "Point","coordinates": [103.83931,1.29583]}} 
{"id": "8104335751","server": "8330","farm": "9","userId": "26285827@N05","secret": "057a362b4c","title": "杯子里的你 @zeli","loc": {"type": "Point","coordinates": [103.841805,1.293873]}} 
