{"id": "9214908724","server": "3692","farm": "4","userId": "13394179@N06","secret": "8169b6d0e0","title": "Galphimia gracilis","loc": {"type": "Point","coordinates": [103.81718,1.266888]}} 
{"id": "9111476787","server": "7342","farm": "8","userId": "90620898@N05","secret": "8670fce2b3","title": "Hazy Sunset","loc": {"type": "Point","coordinates": [103.819695,1.266015]}} 
{"id": "8963610867","server": "3786","farm": "4","userId": "19739656@N00","secret": "ce3bfffda6","title": "Back from Melbourne, straight to supp class and now, camp.","loc": {"type": "Point","coordinates": [103.81983,1.267499]}} 
{"id": "8793354947","server": "8545","farm": "9","userId": "90620898@N05","secret": "61682f8d5e","title": "Reflections","loc": {"type": "Point","coordinates": [103.81917,1.266]}} 
{"id": "8634234093","server": "8239","farm": "9","userId": "18338366@N00","secret": "260b7f3e2f","title": "SMRT Buses Mercedes-Benz O405 Hispano Carrocera","loc": {"type": "Point","coordinates": [103.81844,1.267294]}} 
{"id": "8610658330","server": "8246","farm": "9","userId": "18338366@N00","secret": "77bf94760e","title": "SBS Transit Scania K230UB","loc": {"type": "Point","coordinates": [103.81843,1.267025]}} 
{"id": "8215622856","server": "8338","farm": "9","userId": "25802865@N08","secret": "c47149f1c5","title": "HarbourFront Centre","loc": {"type": "Point","coordinates": [103.81855,1.266135]}} 
{"id": "8215624556","server": "8337","farm": "9","userId": "25802865@N08","secret": "4f1bab146f","title": "HarbourFront Centre","loc": {"type": "Point","coordinates": [103.81855,1.265835]}} 
{"id": "8215623820","server": "8207","farm": "9","userId": "25802865@N08","secret": "6969d7f204","title": "HarbourFront Centre","loc": {"type": "Point","coordinates": [103.818634,1.265899]}} 
{"id": "9426525921","server": "7437","farm": "8","userId": "96364464@N05","secret": "b8d1d70ce4","title": "My sweet sweet girl....","loc": {"type": "Point","coordinates": [103.82012,1.266966]}} 
{"id": "9287799963","server": "5492","farm": "6","userId": "14932126@N08","secret": "b12538ec0e","title": "IMG_1331","loc": {"type": "Point","coordinates": [103.819664,1.266333]}} 
{"id": "9290578806","server": "3829","farm": "4","userId": "14932126@N08","secret": "b48d3679df","title": "IMG_1333","loc": {"type": "Point","coordinates": [103.819664,1.266333]}} 
{"id": "9290579426","server": "5502","farm": "6","userId": "14932126@N08","secret": "6533317b49","title": "IMG_1332","loc": {"type": "Point","coordinates": [103.819664,1.266333]}} 
{"id": "9230858524","server": "7362","farm": "8","userId": "40457483@N04","secret": "624fabcf84","title": "SHIOK MAX!!!!","loc": {"type": "Point","coordinates": [103.8193,1.266505]}} 
{"id": "9227392571","server": "7292","farm": "8","userId": "24125024@N06","secret": "debe9005cb","title": "Project Continuation #219 'Streaming clouds'","loc": {"type": "Point","coordinates": [103.81917,1.266]}} 
{"id": "9221743786","server": "3817","farm": "4","userId": "13394179@N06","secret": "633b59c1ee","title": "IMAG0792","loc": {"type": "Point","coordinates": [103.817375,1.267033]}} 
{"id": "9221743890","server": "3740","farm": "4","userId": "13394179@N06","secret": "f029410e0f","title": "IMAG0790","loc": {"type": "Point","coordinates": [103.81725,1.266977]}} 
{"id": "9221743714","server": "3690","farm": "4","userId": "13394179@N06","secret": "5f049060a0","title": "IMAG0795","loc": {"type": "Point","coordinates": [103.81762,1.26685]}} 
{"id": "9218968407","server": "3771","farm": "4","userId": "13394179@N06","secret": "4dcb54fe29","title": "IMAG0783","loc": {"type": "Point","coordinates": [103.81718,1.266888]}} 
{"id": "9221744046","server": "3665","farm": "4","userId": "13394179@N06","secret": "50f5cb92c1","title": "IMAG0788","loc": {"type": "Point","coordinates": [103.8172,1.26693]}} 
{"id": "9221744222","server": "7394","farm": "8","userId": "13394179@N06","secret": "99e75078a9","title": "IMAG0786","loc": {"type": "Point","coordinates": [103.81722,1.266913]}} 
{"id": "9218968363","server": "7379","farm": "8","userId": "13394179@N06","secret": "9c93de492a","title": "IMAG0784","loc": {"type": "Point","coordinates": [103.81718,1.266894]}} 
{"id": "9221744052","server": "5530","farm": "6","userId": "13394179@N06","secret": "65da555c6e","title": "IMAG0787","loc": {"type": "Point","coordinates": [103.81722,1.266913]}} 
{"id": "9221744744","server": "2886","farm": "3","userId": "13394179@N06","secret": "b510c7acbb","title": "IMAG0780","loc": {"type": "Point","coordinates": [103.81711,1.266855]}} 
{"id": "9218967735","server": "5473","farm": "6","userId": "13394179@N06","secret": "4fbd37f5cd","title": "IMAG0793","loc": {"type": "Point","coordinates": [103.81733,1.267011]}} 
{"id": "9218968259","server": "3761","farm": "4","userId": "13394179@N06","secret": "87236dd9d1","title": "IMAG0785","loc": {"type": "Point","coordinates": [103.81717,1.266883]}} 
{"id": "9221744676","server": "5469","farm": "6","userId": "13394179@N06","secret": "aacc1437a2","title": "IMAG0782","loc": {"type": "Point","coordinates": [103.81711,1.266855]}} 
{"id": "9218968431","server": "3804","farm": "4","userId": "13394179@N06","secret": "85c6067e96","title": "IMAG0781","loc": {"type": "Point","coordinates": [103.81711,1.266855]}} 
{"id": "9221743886","server": "7414","farm": "8","userId": "13394179@N06","secret": "3468efd0e4","title": "IMAG0789","loc": {"type": "Point","coordinates": [103.81725,1.266977]}} 
{"id": "9221743692","server": "3816","farm": "4","userId": "13394179@N06","secret": "2b7fd77072","title": "IMAG0794","loc": {"type": "Point","coordinates": [103.81762,1.266855]}} 
{"id": "9218967841","server": "5472","farm": "6","userId": "13394179@N06","secret": "673a8bd618","title": "IMAG0791","loc": {"type": "Point","coordinates": [103.817276,1.267033]}} 
{"id": "9153437099","server": "7402","farm": "8","userId": "14932126@N08","secret": "954133e7db","title": "","loc": {"type": "Point","coordinates": [103.82,1.2665]}} 
{"id": "9155662276","server": "2826","farm": "3","userId": "14932126@N08","secret": "86efd9392a","title": "","loc": {"type": "Point","coordinates": [103.82,1.2665]}} 
{"id": "9155650310","server": "7350","farm": "8","userId": "14932126@N08","secret": "590c2f7db0","title": "","loc": {"type": "Point","coordinates": [103.82,1.266666]}} 
{"id": "9155653596","server": "7360","farm": "8","userId": "14932126@N08","secret": "363382db51","title": "","loc": {"type": "Point","coordinates": [103.82017,1.266666]}} 
{"id": "9155656822","server": "5515","farm": "6","userId": "14932126@N08","secret": "c0bbf905a3","title": "","loc": {"type": "Point","coordinates": [103.82017,1.266666]}} 
{"id": "9153406467","server": "3745","farm": "4","userId": "14932126@N08","secret": "7800008e29","title": "","loc": {"type": "Point","coordinates": [103.82017,1.266833]}} 
{"id": "9153416363","server": "3749","farm": "4","userId": "14932126@N08","secret": "782ecd9a5e","title": "","loc": {"type": "Point","coordinates": [103.82017,1.266833]}} 
{"id": "9153421429","server": "7310","farm": "8","userId": "14932126@N08","secret": "f108c2cdcd","title": "","loc": {"type": "Point","coordinates": [103.82017,1.266833]}} 
{"id": "9153398045","server": "3773","farm": "4","userId": "14932126@N08","secret": "a3a37039b4","title": "","loc": {"type": "Point","coordinates": [103.820335,1.266833]}} 
{"id": "9153414205","server": "3723","farm": "4","userId": "14932126@N08","secret": "7e9f6bc132","title": "","loc": {"type": "Point","coordinates": [103.82017,1.266666]}} 
{"id": "9153419365","server": "5473","farm": "6","userId": "14932126@N08","secret": "3ee5bffe7b","title": "","loc": {"type": "Point","coordinates": [103.82017,1.266666]}} 
{"id": "9155614856","server": "7454","farm": "8","userId": "14932126@N08","secret": "feda03d3a1","title": "","loc": {"type": "Point","coordinates": [103.820335,1.266833]}} 
{"id": "9155634070","server": "2808","farm": "3","userId": "14932126@N08","secret": "9f20d7bfa3","title": "","loc": {"type": "Point","coordinates": [103.82017,1.266833]}} 
{"id": "9155646996","server": "3769","farm": "4","userId": "14932126@N08","secret": "ccd9783de5","title": "","loc": {"type": "Point","coordinates": [103.82,1.266666]}} 
{"id": "9153408901","server": "7409","farm": "8","userId": "14932126@N08","secret": "415d7b7494","title": "","loc": {"type": "Point","coordinates": [103.82017,1.266833]}} 
{"id": "9155626980","server": "3669","farm": "4","userId": "14932126@N08","secret": "f7b83380ae","title": "","loc": {"type": "Point","coordinates": [103.82017,1.266833]}} 
{"id": "9145495840","server": "3690","farm": "4","userId": "60061298@N00","secret": "a8e006423a","title": "View of Singapore Cable Car - 2","loc": {"type": "Point","coordinates": [103.819,1.2665]}} 
{"id": "9013610580","server": "2872","farm": "3","userId": "96364464@N05","secret": "9f585097bc","title": "Happily on the Double Decker bus ride. Taking their Chipsmore Biscuits and enjoying the scenery.","loc": {"type": "Point","coordinates": [103.8193,1.266505]}} 
{"id": "8708098224","server": "8136","farm": "9","userId": "58072194@N08","secret": "314b021b73","title": "4_20","loc": {"type": "Point","coordinates": [103.81834,1.266333]}} 
{"id": "8703755021","server": "8273","farm": "9","userId": "14932126@N08","secret": "6875a1a826","title": "","loc": {"type": "Point","coordinates": [103.81834,1.266333]}} 
{"id": "8666999597","server": "8533","farm": "9","userId": "99942665@N00","secret": "e762f1ca9b","title": "_DSC8353","loc": {"type": "Point","coordinates": [103.81849,1.266723]}} 
{"id": "8651013191","server": "8389","farm": "9","userId": "68536437@N08","secret": "c6ff71a9a3","title": "DSC_0052","loc": {"type": "Point","coordinates": [103.81582,1.2671]}} 
{"id": "8584699739","server": "8101","farm": "9","userId": "13137527@N07","secret": "23ca272183","title": "Wanko?","loc": {"type": "Point","coordinates": [103.8196,1.266675]}} 
{"id": "8556115885","server": "8226","farm": "9","userId": "87413128@N04","secret": "f6cc177703","title": "Never once failed on me","loc": {"type": "Point","coordinates": [103.81834,1.266333]}} 
{"id": "8532576341","server": "8248","farm": "9","userId": "50135936@N02","secret": "77b5f4cdb4","title": "2013-03-03 12.23.49","loc": {"type": "Point","coordinates": [103.8175,1.265833]}} 
{"id": "8533685400","server": "8086","farm": "9","userId": "50135936@N02","secret": "50642d3346","title": "2013-03-03 12.24.26","loc": {"type": "Point","coordinates": [103.81733,1.266166]}} 
{"id": "8532574711","server": "8529","farm": "9","userId": "50135936@N02","secret": "eeffd8d2f8","title": "2013-03-03 12.27.59","loc": {"type": "Point","coordinates": [103.81717,1.266833]}} 
{"id": "8533685160","server": "8226","farm": "9","userId": "50135936@N02","secret": "f53976b97a","title": "2013-03-03 12.24.46","loc": {"type": "Point","coordinates": [103.81733,1.266166]}} 
{"id": "8532575455","server": "8513","farm": "9","userId": "50135936@N02","secret": "cff27c107e","title": "2013-03-03 12.23.58","loc": {"type": "Point","coordinates": [103.81733,1.266166]}} 
{"id": "8485400951","server": "8370","farm": "9","userId": "14385475@N05","secret": "7812f5bc12","title": "IMG_2858","loc": {"type": "Point","coordinates": [103.81883,1.266333]}} 
{"id": "8486503736","server": "8105","farm": "9","userId": "14385475@N05","secret": "922b7e414f","title": "IMG_2861","loc": {"type": "Point","coordinates": [103.81834,1.266333]}} 
{"id": "8485405239","server": "8100","farm": "9","userId": "14385475@N05","secret": "1d690542b4","title": "IMG_2860","loc": {"type": "Point","coordinates": [103.81834,1.266333]}} 
{"id": "8399176366","server": "8212","farm": "9","userId": "92376062@N02","secret": "d101da8269","title": "IMG_0544","loc": {"type": "Point","coordinates": [103.818665,1.266333]}} 
{"id": "8399174862","server": "8366","farm": "9","userId": "92376062@N02","secret": "e27b1f03f7","title": "IMG_0543","loc": {"type": "Point","coordinates": [103.8185,1.266666]}} 
{"id": "8351038327","server": "8220","farm": "9","userId": "18967762@N00","secret": "91b29bfe65","title": "Pak Odje.","loc": {"type": "Point","coordinates": [103.81583,1.26585]}} 
{"id": "8350170430","server": "8213","farm": "9","userId": "16102830@N05","secret": "0fa578a968","title": "1210_OctoberRandoms_HR_065","loc": {"type": "Point","coordinates": [103.816666,1.267333]}} 
{"id": "8349131904","server": "8191","farm": "9","userId": "16102830@N05","secret": "7fde24155e","title": "1205_MayRandoms_HR_031","loc": {"type": "Point","coordinates": [103.819,1.266333]}} 
{"id": "8349131514","server": "8491","farm": "9","userId": "16102830@N05","secret": "e481c84a6b","title": "1205_MayRandoms_HR_032","loc": {"type": "Point","coordinates": [103.819,1.266333]}} 
{"id": "8335048656","server": "8083","farm": "9","userId": "16102830@N05","secret": "5450439e35","title": "121214-16_CruisewithGlorianFamily_HR_001","loc": {"type": "Point","coordinates": [103.81834,1.266333]}} 
{"id": "8333988867","server": "8216","farm": "9","userId": "16102830@N05","secret": "81bd8f3a24","title": "121214-16_CruisewithGlorianFamily_HR_003","loc": {"type": "Point","coordinates": [103.8185,1.267333]}} 
{"id": "8305137591","server": "8494","farm": "9","userId": "93311688@N00","secret": "c0b10076e4","title": "The Stone Roses in Singapore","loc": {"type": "Point","coordinates": [103.81664,1.26749]}} 
{"id": "8206627964","server": "8480","farm": "9","userId": "24141292@N02","secret": "996e25cc50","title": "Ascending Mount Faber, Singapore","loc": {"type": "Point","coordinates": [103.82062,1.267176]}} 
{"id": "8206648646","server": "8201","farm": "9","userId": "24141292@N02","secret": "77f79686ef","title": "Keppel Highway, Singapore","loc": {"type": "Point","coordinates": [103.81724,1.268473]}} 
{"id": "8206219898","server": "8486","farm": "9","userId": "77747394@N05","secret": "9b54d10ef6","title": "Salad from secret receipe","loc": {"type": "Point","coordinates": [103.81883,1.266333]}} 
{"id": "8199006186","server": "8199","farm": "9","userId": "54722042@N06","secret": "729414029f","title": "Vivo City Rooftop","loc": {"type": "Point","coordinates": [103.820114,1.266586]}} 
{"id": "8135148974","server": "8325","farm": "9","userId": "60385541@N00","secret": "482453f442","title": "Snacks around Singapore","loc": {"type": "Point","coordinates": [103.81834,1.266333]}} 
{"id": "8112813543","server": "8052","farm": "9","userId": "87504446@N03","secret": "f5095b77f6","title": "pastamania","loc": {"type": "Point","coordinates": [103.81834,1.266333]}} 
{"id": "8108039049","server": "8196","farm": "9","userId": "21596674@N00","secret": "f01ec1c744","title": "SugaKane Sweetness on a Sunday, simply splendid. #foodporn","loc": {"type": "Point","coordinates": [103.81878,1.266567]}} 
