{"id": "9443454693","server": "5526","farm": "6","userId": "92053760@N02","secret": "dfb1a45837","title": "eur.trip 240","loc": {"type": "Point","coordinates": [103.861,1.287999]}} 
{"id": "9434920805","server": "7348","farm": "8","userId": "66919430@N00","secret": "cc8123383c","title": "Enjoying her drink all by herself","loc": {"type": "Point","coordinates": [103.862366,1.288841]}} 
{"id": "9434913621","server": "2831","farm": "3","userId": "66919430@N00","secret": "8c61214e82","title": "Chasing the camera","loc": {"type": "Point","coordinates": [103.862366,1.288841]}} 
{"id": "9434917133","server": "3758","farm": "4","userId": "66919430@N00","secret": "096205b334","title": "There it is","loc": {"type": "Point","coordinates": [103.862366,1.288841]}} 
{"id": "9434914913","server": "7354","farm": "8","userId": "66919430@N00","secret": "b692a97958","title": "Erin Leong is running for fun","loc": {"type": "Point","coordinates": [103.862366,1.288841]}} 
{"id": "9434924687","server": "3682","farm": "4","userId": "66919430@N00","secret": "09bc8bb938","title": "Making beetroot paint","loc": {"type": "Point","coordinates": [103.862366,1.288841]}} 
{"id": "9437694134","server": "7445","farm": "8","userId": "66919430@N00","secret": "49a73e3b4e","title": "Where is that finish line?","loc": {"type": "Point","coordinates": [103.862366,1.288841]}} 
{"id": "9434927799","server": "3749","farm": "4","userId": "66919430@N00","secret": "8da6a645c6","title": "Looking for any un-coloured space","loc": {"type": "Point","coordinates": [103.862366,1.288841]}} 
{"id": "9437703768","server": "2890","farm": "3","userId": "66919430@N00","secret": "d18f3e0440","title": "Expression of art","loc": {"type": "Point","coordinates": [103.862366,1.288841]}} 
{"id": "9437701392","server": "7382","farm": "8","userId": "66919430@N00","secret": "bb5258dd6a","title": "Erin and her 8-bit friends","loc": {"type": "Point","coordinates": [103.862366,1.288841]}} 
{"id": "9434928877","server": "7298","farm": "8","userId": "66919430@N00","secret": "356392402d","title": "Playing a non-video gamem","loc": {"type": "Point","coordinates": [103.862366,1.288841]}} 
{"id": "9437699828","server": "7458","farm": "8","userId": "66919430@N00","secret": "530d1ca778","title": "Some post-run fun","loc": {"type": "Point","coordinates": [103.862366,1.288841]}} 
{"id": "9437696090","server": "5528","farm": "6","userId": "66919430@N00","secret": "f6e6354644","title": "Waiting for the crowd to move on","loc": {"type": "Point","coordinates": [103.862366,1.288841]}} 
{"id": "9437697324","server": "5501","farm": "6","userId": "66919430@N00","secret": "3f21d6a5ec","title": "Another medal to her collection","loc": {"type": "Point","coordinates": [103.862366,1.288841]}} 
{"id": "9437690354","server": "3776","farm": "4","userId": "66919430@N00","secret": "41c56a44ba","title": "Starting off with a brisk walk","loc": {"type": "Point","coordinates": [103.862366,1.288841]}} 
{"id": "9434908007","server": "2850","farm": "3","userId": "66919430@N00","secret": "e0ea2c82b1","title": "Huddling around the starting line","loc": {"type": "Point","coordinates": [103.862366,1.288841]}} 
{"id": "9437689086","server": "5510","farm": "6","userId": "66919430@N00","secret": "158edb82c7","title": "Ready to go","loc": {"type": "Point","coordinates": [103.862366,1.288841]}} 
{"id": "9434909185","server": "7409","farm": "8","userId": "66919430@N00","secret": "9839a0380d","title": "Too sleepy to run in the morning","loc": {"type": "Point","coordinates": [103.862366,1.288841]}} 
{"id": "9436055384","server": "7304","farm": "8","userId": "58072194@N08","secret": "0bcc7ec481","title": "7_28A","loc": {"type": "Point","coordinates": [103.86034,1.288833]}} 
{"id": "9397457661","server": "3701","farm": "4","userId": "33504256@N03","secret": "c59987c7d1","title": "The Helix Bridge","loc": {"type": "Point","coordinates": [103.86058,1.288255]}} 
{"id": "9344218998","server": "3799","farm": "4","userId": "86606207@N08","secret": "d9cee39d25","title": "kacang puteh!","loc": {"type": "Point","coordinates": [103.85985,1.289227]}} 
{"id": "9273770458","server": "2822","farm": "3","userId": "15170730@N07","secret": "6a5e662882","title": "#pssrepresent #govclothing #fcfw","loc": {"type": "Point","coordinates": [103.86365,1.28931]}} 
{"id": "9269900376","server": "2847","farm": "3","userId": "15170730@N07","secret": "85dc2e49aa","title": "3 corks & a black suade","loc": {"type": "Point","coordinates": [103.86365,1.28931]}} 
{"id": "9225480127","server": "7346","farm": "8","userId": "91153975@N05","secret": "f3b432070c","title": "Singapore Flyer","loc": {"type": "Point","coordinates": [103.86058,1.287609]}} 
{"id": "9225478737","server": "7319","farm": "8","userId": "91153975@N05","secret": "7bb4474629","title": "NDP Rehearsal","loc": {"type": "Point","coordinates": [103.86058,1.287609]}} 
{"id": "9426907013","server": "3679","farm": "4","userId": "8583503@N07","secret": "0168559dd6","title": "Under the Helix","loc": {"type": "Point","coordinates": [103.86082,1.287587]}} 
{"id": "9404734368","server": "7372","farm": "8","userId": "97464780@N02","secret": "3f06fc67ab","title": "","loc": {"type": "Point","coordinates": [103.8636,1.289844]}} 
{"id": "9401972235","server": "2879","farm": "3","userId": "97464780@N02","secret": "8a210bfc3e","title": "","loc": {"type": "Point","coordinates": [103.8636,1.289844]}} 
{"id": "9404721252","server": "5465","farm": "6","userId": "97464780@N02","secret": "6ef38efd6f","title": "","loc": {"type": "Point","coordinates": [103.863625,1.289541]}} 
{"id": "9401965195","server": "7343","farm": "8","userId": "97464780@N02","secret": "25f507386b","title": "","loc": {"type": "Point","coordinates": [103.863625,1.289541]}} 
{"id": "9404727040","server": "3717","farm": "4","userId": "97464780@N02","secret": "8840e25384","title": "","loc": {"type": "Point","coordinates": [103.86366,1.289791]}} 
{"id": "9401958827","server": "2861","farm": "3","userId": "97464780@N02","secret": "34409fb619","title": "","loc": {"type": "Point","coordinates": [103.86327,1.289755]}} 
{"id": "9404687632","server": "5349","farm": "6","userId": "97464780@N02","secret": "c4cb806124","title": "","loc": {"type": "Point","coordinates": [103.86296,1.289244]}} 
{"id": "9401946693","server": "7416","farm": "8","userId": "97464780@N02","secret": "27725f921d","title": "","loc": {"type": "Point","coordinates": [103.862595,1.289572]}} 
{"id": "9404699580","server": "7307","farm": "8","userId": "97464780@N02","secret": "f938758f1c","title": "","loc": {"type": "Point","coordinates": [103.86329,1.289122]}} 
{"id": "9404696620","server": "5503","farm": "6","userId": "97464780@N02","secret": "5b01b940bd","title": "","loc": {"type": "Point","coordinates": [103.86329,1.289122]}} 
{"id": "9404693686","server": "3722","farm": "4","userId": "97464780@N02","secret": "23b61ed375","title": "","loc": {"type": "Point","coordinates": [103.86293,1.289638]}} 
{"id": "9401843365","server": "3737","farm": "4","userId": "97464780@N02","secret": "af136b4676","title": "","loc": {"type": "Point","coordinates": [103.86058,1.287402]}} 
{"id": "9404606088","server": "2866","farm": "3","userId": "97464780@N02","secret": "ae341333cc","title": "","loc": {"type": "Point","coordinates": [103.86244,1.287947]}} 
{"id": "9401849925","server": "2829","farm": "3","userId": "97464780@N02","secret": "1caaef993b","title": "","loc": {"type": "Point","coordinates": [103.86244,1.287947]}} 
{"id": "9404563096","server": "3753","farm": "4","userId": "97464780@N02","secret": "351d65836d","title": "","loc": {"type": "Point","coordinates": [103.86064,1.287483]}} 
{"id": "9401800611","server": "7379","farm": "8","userId": "97464780@N02","secret": "4ec8b87c55","title": "","loc": {"type": "Point","coordinates": [103.86064,1.287483]}} 
{"id": "9400102231","server": "3708","farm": "4","userId": "33504256@N03","secret": "84ac45359d","title": "Marina Bay Sands","loc": {"type": "Point","coordinates": [103.86035,1.288547]}} 
{"id": "9397466187","server": "3794","farm": "4","userId": "25034523@N07","secret": "2489c53dfe","title": "Singapore","loc": {"type": "Point","coordinates": [103.86273,1.289411]}} 
{"id": "9397457373","server": "5471","farm": "6","userId": "25034523@N07","secret": "8a9a396e3b","title": "Singapore","loc": {"type": "Point","coordinates": [103.8629,1.289175]}} 
{"id": "9398172594","server": "2806","farm": "3","userId": "36519875@N04","secret": "19f77e3c67","title": "The helix #mbs #helixbridge #marinabay #travel #curvebridge","loc": {"type": "Point","coordinates": [103.86082,1.287587]}} 
{"id": "9394220892","server": "5460","farm": "6","userId": "98873354@N03","secret": "8b7f725589","title": "Parallel Shores","loc": {"type": "Point","coordinates": [103.862335,1.288655]}} 
{"id": "9389266347","server": "3772","farm": "4","userId": "72863173@N00","secret": "65c60e4c72","title": "Helix Bridge in the evening","loc": {"type": "Point","coordinates": [103.861,1.287333]}} 
{"id": "9376916003","server": "5471","farm": "6","userId": "98873354@N03","secret": "dded22dc75","title": "Singapore Flyer Ride","loc": {"type": "Point","coordinates": [103.862335,1.288655]}} 
{"id": "9378136052","server": "5339","farm": "6","userId": "98873354@N03","secret": "3b1fed27ff","title": "Aerial view of the Gardens by the Bay","loc": {"type": "Point","coordinates": [103.86343,1.289218]}} 
{"id": "9366148544","server": "3716","farm": "4","userId": "85616671@N08","secret": "147cc4e99d","title": "DSC00791","loc": {"type": "Point","coordinates": [103.86047,1.288305]}} 
{"id": "9341443235","server": "3780","farm": "4","userId": "86606207@N08","secret": "655889baa3","title": "DSC_4850_1_2_tonemapped","loc": {"type": "Point","coordinates": [103.859825,1.289233]}} 
{"id": "9344225010","server": "5533","farm": "6","userId": "86606207@N08","secret": "445c1e6e16","title": "DSC_4757","loc": {"type": "Point","coordinates": [103.85984,1.289244]}} 
{"id": "9344249842","server": "7375","farm": "8","userId": "86606207@N08","secret": "1bd470f8fd","title": "DSC_5131","loc": {"type": "Point","coordinates": [103.85983,1.289227]}} 
{"id": "9341451479","server": "3822","farm": "4","userId": "86606207@N08","secret": "1dbd71a9b6","title": "DSC_5028","loc": {"type": "Point","coordinates": [103.85984,1.289213]}} 
{"id": "9344223118","server": "3761","farm": "4","userId": "86606207@N08","secret": "d30cbb11a5","title": "DSC_4702","loc": {"type": "Point","coordinates": [103.85983,1.289205]}} 
{"id": "9344222512","server": "5449","farm": "6","userId": "86606207@N08","secret": "2eeefc34e6","title": "DSC_4699","loc": {"type": "Point","coordinates": [103.85996,1.289277]}} 
{"id": "9344239936","server": "7309","farm": "8","userId": "86606207@N08","secret": "950ebaf28d","title": "DSC_5055","loc": {"type": "Point","coordinates": [103.85984,1.289224]}} 
{"id": "9344254524","server": "2832","farm": "3","userId": "86606207@N08","secret": "d952cf7770","title": "DSC_5160","loc": {"type": "Point","coordinates": [103.85983,1.289219]}} 
{"id": "9344222076","server": "3741","farm": "4","userId": "86606207@N08","secret": "d9ecb7e3ef","title": "DSC_4698","loc": {"type": "Point","coordinates": [103.85989,1.28923]}} 
{"id": "9344234568","server": "3686","farm": "4","userId": "86606207@N08","secret": "60f2ac6e93","title": "DSC_4995","loc": {"type": "Point","coordinates": [103.85976,1.289219]}} 
{"id": "9344227010","server": "2828","farm": "3","userId": "86606207@N08","secret": "44d599d36c","title": "DSC_4813","loc": {"type": "Point","coordinates": [103.85985,1.289188]}} 
{"id": "9344238042","server": "3766","farm": "4","userId": "86606207@N08","secret": "9975a7035b","title": "DSC_5044","loc": {"type": "Point","coordinates": [103.85984,1.289222]}} 
{"id": "9341445495","server": "5504","farm": "6","userId": "86606207@N08","secret": "f77e4eef18","title": "DSC_4915","loc": {"type": "Point","coordinates": [103.859825,1.289236]}} 
{"id": "9344239122","server": "3805","farm": "4","userId": "86606207@N08","secret": "47782c5394","title": "DSC_5052","loc": {"type": "Point","coordinates": [103.85983,1.289222]}} 
{"id": "9341444493","server": "3737","farm": "4","userId": "86606207@N08","secret": "51f9e33879","title": "DSC_4908","loc": {"type": "Point","coordinates": [103.859825,1.289224]}} 
{"id": "9344233804","server": "7421","farm": "8","userId": "86606207@N08","secret": "3397cddc2a","title": "DSC_4924","loc": {"type": "Point","coordinates": [103.85988,1.289219]}} 
{"id": "9341440871","server": "2873","farm": "3","userId": "86606207@N08","secret": "ff2f13b2c5","title": "DSC_4779","loc": {"type": "Point","coordinates": [103.85964,1.289024]}} 
{"id": "9344253192","server": "2807","farm": "3","userId": "86606207@N08","secret": "7b2d03b90a","title": "DSC_5157","loc": {"type": "Point","coordinates": [103.859825,1.289222]}} 
{"id": "9341470773","server": "7290","farm": "8","userId": "86606207@N08","secret": "3773b86239","title": "DSC_5172","loc": {"type": "Point","coordinates": [103.859825,1.289219]}} 
{"id": "9344217812","server": "2894","farm": "3","userId": "86606207@N08","secret": "866025c381","title": "DSC_4661","loc": {"type": "Point","coordinates": [103.85996,1.289263]}} 
{"id": "9341435913","server": "5481","farm": "6","userId": "86606207@N08","secret": "2ae80ab378","title": "DSC_4690","loc": {"type": "Point","coordinates": [103.85987,1.289205]}} 
{"id": "9344220686","server": "3816","farm": "4","userId": "86606207@N08","secret": "d533e3667a","title": "DSC_4671","loc": {"type": "Point","coordinates": [103.8598,1.289202]}} 
{"id": "9341434721","server": "2823","farm": "3","userId": "86606207@N08","secret": "6aaa309a1a","title": "DSC_4670","loc": {"type": "Point","coordinates": [103.85985,1.289227]}} 
{"id": "9341430313","server": "3693","farm": "4","userId": "86606207@N08","secret": "8526704585","title": "DSC_4618","loc": {"type": "Point","coordinates": [103.85981,1.2892]}} 
{"id": "9344215080","server": "2875","farm": "3","userId": "86606207@N08","secret": "ceecb19319","title": "DSC_4615","loc": {"type": "Point","coordinates": [103.8598,1.289286]}} 
{"id": "9341431627","server": "7442","farm": "8","userId": "86606207@N08","secret": "c2802b64ff","title": "DSC_4645","loc": {"type": "Point","coordinates": [103.85982,1.289222]}} 
{"id": "9334198371","server": "3717","farm": "4","userId": "39952962@N00","secret": "a30cb74b39","title": "Marina Bay, Singapore","loc": {"type": "Point","coordinates": [103.86026,1.288713]}} 
{"id": "9337021692","server": "7423","farm": "8","userId": "66919430@N00","secret": "412fd54642","title": "Erin's running in the Run 350 kid's dash","loc": {"type": "Point","coordinates": [103.862366,1.288841]}} 
{"id": "9334238919","server": "7439","farm": "8","userId": "66919430@N00","secret": "2e49861188","title": "Hanging out with Raphael","loc": {"type": "Point","coordinates": [103.862366,1.288841]}} 
{"id": "9337024316","server": "3785","farm": "4","userId": "66919430@N00","secret": "38cbce46fe","title": "Erin goes to the left","loc": {"type": "Point","coordinates": [103.862366,1.288841]}} 
{"id": "9334240193","server": "2817","farm": "3","userId": "66919430@N00","secret": "0563c4c228","title": "Running with my crazy little girl","loc": {"type": "Point","coordinates": [103.862366,1.288841]}} 
{"id": "9337022972","server": "3709","farm": "4","userId": "66919430@N00","secret": "4ed12f0a28","title": "Lots of parents up early today","loc": {"type": "Point","coordinates": [103.862366,1.288841]}} 
{"id": "9333580935","server": "7290","farm": "8","userId": "96179718@N06","secret": "db564ccbab","title": "相机胶卷-216","loc": {"type": "Point","coordinates": [103.861664,1.288833]}} 
{"id": "9336367046","server": "3808","farm": "4","userId": "96179718@N06","secret": "00ae84b218","title": "相机胶卷-215","loc": {"type": "Point","coordinates": [103.86217,1.289166]}} 
{"id": "9336372088","server": "3817","farm": "4","userId": "96179718@N06","secret": "c12187196d","title": "相机胶卷-218","loc": {"type": "Point","coordinates": [103.861664,1.287333]}} 
{"id": "9336370366","server": "7400","farm": "8","userId": "96179718@N06","secret": "d797085ce8","title": "相机胶卷-217","loc": {"type": "Point","coordinates": [103.86183,1.287833]}} 
{"id": "9332345717","server": "7459","farm": "8","userId": "99155614@N07","secret": "42e66a19e0","title": "City of Concrete and Steel","loc": {"type": "Point","coordinates": [103.86105,1.287952]}} 
{"id": "9335133056","server": "7293","farm": "8","userId": "99155614@N07","secret": "70b524ca0e","title": "The Dasher","loc": {"type": "Point","coordinates": [103.862946,1.28881]}} 
{"id": "9333377822","server": "7333","farm": "8","userId": "57735144@N08","secret": "56dc56af73","title": "Singapore Flyer","loc": {"type": "Point","coordinates": [103.86161,1.288617]}} 
{"id": "9305383142","server": "2830","farm": "3","userId": "96738935@N00","secret": "f919e3534b","title": "IMG_1162","loc": {"type": "Point","coordinates": [103.862,1.289166]}} 
{"id": "9302048115","server": "2875","farm": "3","userId": "96738935@N00","secret": "0c11318862","title": "IMG_0561","loc": {"type": "Point","coordinates": [103.863335,1.289499]}} 
{"id": "9304825670","server": "5510","farm": "6","userId": "96738935@N00","secret": "30299d1469","title": "IMG_0572","loc": {"type": "Point","coordinates": [103.86366,1.289666]}} 
{"id": "9304824412","server": "7387","farm": "8","userId": "96738935@N00","secret": "8d983a4812","title": "IMG_0583","loc": {"type": "Point","coordinates": [103.863335,1.289499]}} 
{"id": "9304825340","server": "7282","farm": "8","userId": "96738935@N00","secret": "089073ba70","title": "IMG_0576","loc": {"type": "Point","coordinates": [103.863335,1.289499]}} 
{"id": "9302044331","server": "5472","farm": "6","userId": "96738935@N00","secret": "1a5f3d0b9d","title": "IMG_0578","loc": {"type": "Point","coordinates": [103.8635,1.289499]}} 
{"id": "9302046969","server": "5549","farm": "6","userId": "96738935@N00","secret": "6498bd19fa","title": "IMG_0565","loc": {"type": "Point","coordinates": [103.8635,1.289499]}} 
{"id": "9302042733","server": "3721","farm": "4","userId": "96738935@N00","secret": "cb39049c65","title": "IMG_0587","loc": {"type": "Point","coordinates": [103.86266,1.289]}} 
{"id": "9302046661","server": "3668","farm": "4","userId": "96738935@N00","secret": "8cf41e9682","title": "IMG_0566","loc": {"type": "Point","coordinates": [103.8635,1.289499]}} 
{"id": "9304828234","server": "3806","farm": "4","userId": "96738935@N00","secret": "29b399cd54","title": "IMG_0563","loc": {"type": "Point","coordinates": [103.8635,1.289499]}} 
{"id": "9302042055","server": "7459","farm": "8","userId": "96738935@N00","secret": "66bab0ac69","title": "IMG_0593","loc": {"type": "Point","coordinates": [103.86266,1.289]}} 
{"id": "9304829064","server": "7350","farm": "8","userId": "96738935@N00","secret": "49defec5aa","title": "IMG_0560","loc": {"type": "Point","coordinates": [103.863335,1.289499]}} 
{"id": "9302080011","server": "7436","farm": "8","userId": "96738935@N00","secret": "edc2f9f16e","title": "IMG_0397","loc": {"type": "Point","coordinates": [103.862335,1.288166]}} 
{"id": "9302050365","server": "5498","farm": "6","userId": "96738935@N00","secret": "a00d25f7a2","title": "IMG_0549","loc": {"type": "Point","coordinates": [103.86266,1.290166]}} 
{"id": "9302045561","server": "5458","farm": "6","userId": "96738935@N00","secret": "20b5aafceb","title": "IMG_0570","loc": {"type": "Point","coordinates": [103.86366,1.289833]}} 
{"id": "9304827094","server": "3678","farm": "4","userId": "96738935@N00","secret": "5bb8de4de4","title": "IMG_0567","loc": {"type": "Point","coordinates": [103.8635,1.289666]}} 
{"id": "9302044559","server": "3828","farm": "4","userId": "96738935@N00","secret": "af4e135321","title": "IMG_0577","loc": {"type": "Point","coordinates": [103.8635,1.289499]}} 
{"id": "9302048671","server": "7286","farm": "8","userId": "96738935@N00","secret": "66ee5be884","title": "IMG_0557","loc": {"type": "Point","coordinates": [103.86317,1.289499]}} 
{"id": "9302048873","server": "5510","farm": "6","userId": "96738935@N00","secret": "cea80d3d14","title": "IMG_0556","loc": {"type": "Point","coordinates": [103.863,1.289499]}} 
{"id": "9304824844","server": "7344","farm": "8","userId": "96738935@N00","secret": "b14e831a4e","title": "IMG_0581","loc": {"type": "Point","coordinates": [103.86317,1.289499]}} 
{"id": "9304825934","server": "7345","farm": "8","userId": "96738935@N00","secret": "fbb73d628f","title": "IMG_0571","loc": {"type": "Point","coordinates": [103.86366,1.289833]}} 
{"id": "9302080399","server": "7343","farm": "8","userId": "96738935@N00","secret": "79d193de5c","title": "IMG_0395","loc": {"type": "Point","coordinates": [103.862335,1.288333]}} 
{"id": "9302044143","server": "3834","farm": "4","userId": "96738935@N00","secret": "e9eeae01b4","title": "IMG_0580","loc": {"type": "Point","coordinates": [103.86317,1.289499]}} 
{"id": "9304827922","server": "7419","farm": "8","userId": "96738935@N00","secret": "297ddcb061","title": "IMG_0564","loc": {"type": "Point","coordinates": [103.8635,1.289499]}} 
{"id": "9304860300","server": "7391","farm": "8","userId": "96738935@N00","secret": "f32d569bcc","title": "IMG_0398","loc": {"type": "Point","coordinates": [103.862335,1.288166]}} 
{"id": "9302043973","server": "3699","farm": "4","userId": "96738935@N00","secret": "cf1fe91e79","title": "IMG_0582","loc": {"type": "Point","coordinates": [103.863335,1.289499]}} 
{"id": "9304822788","server": "3733","farm": "4","userId": "96738935@N00","secret": "e3426b94f8","title": "IMG_0592","loc": {"type": "Point","coordinates": [103.86266,1.289999]}} 
{"id": "9302042559","server": "3819","farm": "4","userId": "96738935@N00","secret": "9df3f05dab","title": "IMG_0588","loc": {"type": "Point","coordinates": [103.86266,1.289]}} 
{"id": "9302049361","server": "3769","farm": "4","userId": "96738935@N00","secret": "027c1c3ab9","title": "IMG_0554","loc": {"type": "Point","coordinates": [103.86317,1.289333]}} 
{"id": "9304825472","server": "7388","farm": "8","userId": "96738935@N00","secret": "3d81a964c5","title": "IMG_0574","loc": {"type": "Point","coordinates": [103.86383,1.289833]}} 
{"id": "9302043223","server": "7292","farm": "8","userId": "96738935@N00","secret": "f0c1da510c","title": "IMG_0585","loc": {"type": "Point","coordinates": [103.863,1.289333]}} 
{"id": "9302079587","server": "3803","farm": "4","userId": "96738935@N00","secret": "1f4349d814","title": "IMG_0399","loc": {"type": "Point","coordinates": [103.861664,1.287499]}} 
{"id": "9304829798","server": "5499","farm": "6","userId": "96738935@N00","secret": "4926aeec88","title": "IMG_0555","loc": {"type": "Point","coordinates": [103.863,1.289333]}} 
{"id": "9304825506","server": "7369","farm": "8","userId": "96738935@N00","secret": "b1767e8269","title": "IMG_0573","loc": {"type": "Point","coordinates": [103.86383,1.289833]}} 
{"id": "9302044727","server": "2807","farm": "3","userId": "96738935@N00","secret": "d39cc18d2e","title": "IMG_0575","loc": {"type": "Point","coordinates": [103.863335,1.289666]}} 
{"id": "9302047825","server": "5348","farm": "6","userId": "96738935@N00","secret": "ba2fac89df","title": "IMG_0562","loc": {"type": "Point","coordinates": [103.8635,1.289499]}} 
{"id": "9302045847","server": "2818","farm": "3","userId": "96738935@N00","secret": "d8b48646ca","title": "IMG_0569","loc": {"type": "Point","coordinates": [103.86366,1.289833]}} 
{"id": "9304822998","server": "3732","farm": "4","userId": "96738935@N00","secret": "de83ab28d4","title": "IMG_0591","loc": {"type": "Point","coordinates": [103.86266,1.289999]}} 
{"id": "9304830842","server": "7417","farm": "8","userId": "96738935@N00","secret": "32b1895192","title": "IMG_0550","loc": {"type": "Point","coordinates": [103.863335,1.289499]}} 
{"id": "9302048607","server": "7454","farm": "8","userId": "96738935@N00","secret": "2613d77011","title": "IMG_0558","loc": {"type": "Point","coordinates": [103.86317,1.289499]}} 
{"id": "9304860704","server": "7402","farm": "8","userId": "96738935@N00","secret": "fa621af086","title": "IMG_0396","loc": {"type": "Point","coordinates": [103.862335,1.288333]}} 
{"id": "9302042497","server": "5491","farm": "6","userId": "96738935@N00","secret": "97745cc6bc","title": "IMG_0589","loc": {"type": "Point","coordinates": [103.86266,1.289166]}} 
{"id": "9302046119","server": "2850","farm": "3","userId": "96738935@N00","secret": "7091c0b262","title": "IMG_0568","loc": {"type": "Point","coordinates": [103.8635,1.289666]}} 
{"id": "9304829186","server": "3672","farm": "4","userId": "96738935@N00","secret": "2e5dfc766c","title": "IMG_0559","loc": {"type": "Point","coordinates": [103.863335,1.289499]}} 
{"id": "9260510450","server": "3699","farm": "4","userId": "86155905@N08","secret": "d20cd03bf9","title": "Singapore Flyer 2013","loc": {"type": "Point","coordinates": [103.863045,1.289219]}} 
{"id": "9256862806","server": "7428","farm": "8","userId": "43255299@N08","secret": "09e763f11f","title": "NDP 2013 Rehearsal 2","loc": {"type": "Point","coordinates": [103.85962,1.288467]}} 
{"id": "9256838800","server": "5518","farm": "6","userId": "43255299@N08","secret": "52e3c37856","title": "NDP 2013 Rehearsal 2","loc": {"type": "Point","coordinates": [103.85962,1.288467]}} 
{"id": "9254066097","server": "3760","farm": "4","userId": "43255299@N08","secret": "9b400479bc","title": "NDP 2013 Rehearsal 2","loc": {"type": "Point","coordinates": [103.85962,1.288467]}} 
{"id": "9254048949","server": "7428","farm": "8","userId": "43255299@N08","secret": "d9e468821a","title": "NDP 2013 Rehearsal 2","loc": {"type": "Point","coordinates": [103.85962,1.288467]}} 
{"id": "9256805474","server": "3828","farm": "4","userId": "43255299@N08","secret": "b1d246d8a8","title": "NDP 2013 Rehearsal 2","loc": {"type": "Point","coordinates": [103.85962,1.288467]}} 
{"id": "9254098715","server": "5499","farm": "6","userId": "43255299@N08","secret": "eb2a339dfb","title": "NDP 2013 Rehearsal 2","loc": {"type": "Point","coordinates": [103.85962,1.288467]}} 
{"id": "9254076215","server": "3796","farm": "4","userId": "43255299@N08","secret": "4e40401d0c","title": "NDP 2013 Rehearsal 2","loc": {"type": "Point","coordinates": [103.85962,1.288467]}} 
{"id": "9254090229","server": "5470","farm": "6","userId": "43255299@N08","secret": "29495a23bd","title": "NDP 2013 Rehearsal 2","loc": {"type": "Point","coordinates": [103.85962,1.288467]}} 
{"id": "9247264277","server": "5327","farm": "6","userId": "33504256@N03","secret": "b63d00765e","title": "Garden by the bay","loc": {"type": "Point","coordinates": [103.86285,1.289538]}} 
{"id": "9246407128","server": "5447","farm": "6","userId": "33504256@N03","secret": "7a515183f2","title": "National Stadium Singapore","loc": {"type": "Point","coordinates": [103.86285,1.289538]}} 
{"id": "9243630177","server": "2813","farm": "3","userId": "33504256@N03","secret": "e419d8fc18","title": "North View","loc": {"type": "Point","coordinates": [103.86285,1.289538]}} 
{"id": "9237212385","server": "7451","farm": "8","userId": "55844827@N00","secret": "d68c09788d","title": "DSC_3128","loc": {"type": "Point","coordinates": [103.859825,1.289458]}} 
{"id": "9239987218","server": "3702","farm": "4","userId": "55844827@N00","secret": "8207fddbab","title": "DSC_3112","loc": {"type": "Point","coordinates": [103.8611,1.289508]}} 
{"id": "9237211225","server": "5550","farm": "6","userId": "55844827@N00","secret": "52fde8b2d1","title": "DSC_3121","loc": {"type": "Point","coordinates": [103.86117,1.289594]}} 
{"id": "9237209817","server": "7312","farm": "8","userId": "55844827@N00","secret": "6f96e02545","title": "DSC_3118","loc": {"type": "Point","coordinates": [103.861176,1.289547]}} 
{"id": "9237212925","server": "7397","farm": "8","userId": "55844827@N00","secret": "47c969e470","title": "DSC_3132","loc": {"type": "Point","coordinates": [103.859375,1.289555]}} 
{"id": "9237210327","server": "7460","farm": "8","userId": "55844827@N00","secret": "0909a020e1","title": "DSC_3119","loc": {"type": "Point","coordinates": [103.861176,1.289558]}} 
{"id": "9237209377","server": "3689","farm": "4","userId": "55844827@N00","secret": "f534140ca2","title": "DSC_3117","loc": {"type": "Point","coordinates": [103.86123,1.289497]}} 
{"id": "9237206817","server": "3688","farm": "4","userId": "55844827@N00","secret": "ef252cf139","title": "DSC_3111","loc": {"type": "Point","coordinates": [103.8611,1.289511]}} 
{"id": "9239988320","server": "2866","farm": "3","userId": "55844827@N00","secret": "dd4cf253e6","title": "DSC_3115","loc": {"type": "Point","coordinates": [103.86111,1.289422]}} 
{"id": "9239987768","server": "2891","farm": "3","userId": "55844827@N00","secret": "a9377bcfa5","title": "DSC_3114","loc": {"type": "Point","coordinates": [103.8611,1.289505]}} 
{"id": "9239988656","server": "3714","farm": "4","userId": "55844827@N00","secret": "10d0ebc357","title": "DSC_3116","loc": {"type": "Point","coordinates": [103.861015,1.289436]}} 
{"id": "9239990560","server": "7292","farm": "8","userId": "55844827@N00","secret": "ce38e060ef","title": "DSC_3120","loc": {"type": "Point","coordinates": [103.86115,1.289577]}} 
{"id": "9239843604","server": "3731","farm": "4","userId": "55844827@N00","secret": "0d845600f1","title": "DSC_3105","loc": {"type": "Point","coordinates": [103.86111,1.289513]}} 
{"id": "9237065709","server": "3710","farm": "4","userId": "55844827@N00","secret": "dc954e9824","title": "DSC_3109","loc": {"type": "Point","coordinates": [103.86111,1.289513]}} 
{"id": "9237064235","server": "2814","farm": "3","userId": "55844827@N00","secret": "6d9578915b","title": "DSC_3107","loc": {"type": "Point","coordinates": [103.861115,1.289513]}} 
{"id": "9239840324","server": "2858","farm": "3","userId": "55844827@N00","secret": "131e489406","title": "DSC_3100","loc": {"type": "Point","coordinates": [103.86106,1.289477]}} 
{"id": "9237062387","server": "2862","farm": "3","userId": "55844827@N00","secret": "480dae9ddb","title": "DSC_3103","loc": {"type": "Point","coordinates": [103.86106,1.289486]}} 
{"id": "9239841564","server": "7310","farm": "8","userId": "55844827@N00","secret": "bb8c06ba98","title": "DSC_3102","loc": {"type": "Point","coordinates": [103.86107,1.28948]}} 
{"id": "9239842856","server": "3702","farm": "4","userId": "55844827@N00","secret": "576881b7b5","title": "DSC_3104","loc": {"type": "Point","coordinates": [103.86109,1.289505]}} 
{"id": "9237059673","server": "2820","farm": "3","userId": "55844827@N00","secret": "b27e66675f","title": "DSC_3099","loc": {"type": "Point","coordinates": [103.86104,1.289475]}} 
{"id": "9239845052","server": "7361","farm": "8","userId": "55844827@N00","secret": "9784baf750","title": "DSC_3110","loc": {"type": "Point","coordinates": [103.86111,1.289511]}} 
{"id": "9239838882","server": "7366","farm": "8","userId": "55844827@N00","secret": "d561fbc7e3","title": "DSC_3098","loc": {"type": "Point","coordinates": [103.86104,1.289477]}} 
{"id": "9239518816","server": "5456","farm": "6","userId": "55844827@N00","secret": "b377975492","title": "DSC_3094","loc": {"type": "Point","coordinates": [103.86108,1.28943]}} 
{"id": "9227329823","server": "3826","farm": "4","userId": "65988653@N00","secret": "f3ba3861eb","title": "Marina Bay","loc": {"type": "Point","coordinates": [103.86049,1.28773]}} 
{"id": "9224140004","server": "7457","farm": "8","userId": "55844827@N00","secret": "28f3facfca","title": "DSC_3129","loc": {"type": "Point","coordinates": [103.859764,1.289455]}} 
{"id": "9222863176","server": "7308","farm": "8","userId": "35243143@N06","secret": "2f52845242","title": "Singapore Flyer","loc": {"type": "Point","coordinates": [103.86283,1.289166]}} 
{"id": "9220081417","server": "7392","farm": "8","userId": "35243143@N06","secret": "ce56fd77bc","title": "Singapore Flyer","loc": {"type": "Point","coordinates": [103.8635,1.289666]}} 
{"id": "9220084029","server": "3821","farm": "4","userId": "35243143@N06","secret": "a03818338a","title": "Singapore Flyer","loc": {"type": "Point","coordinates": [103.863335,1.289666]}} 
{"id": "9220079501","server": "2822","farm": "3","userId": "35243143@N06","secret": "527688fed3","title": "Singapore Flyer","loc": {"type": "Point","coordinates": [103.8635,1.289833]}} 
{"id": "9209865966","server": "7446","farm": "8","userId": "33504256@N03","secret": "c367c44ef8","title": "Marina Bay Sands","loc": {"type": "Point","coordinates": [103.86121,1.288511]}} 
{"id": "9209118656","server": "7302","farm": "8","userId": "33504256@N03","secret": "a2d30a7764","title": "Sunset view from S' pore Flyer","loc": {"type": "Point","coordinates": [103.86285,1.289538]}} 
{"id": "9204007721","server": "7368","farm": "8","userId": "33504256@N03","secret": "305dde82f8","title": "The Helix Bridge","loc": {"type": "Point","coordinates": [103.86082,1.287587]}} 
{"id": "9206549594","server": "5545","farm": "6","userId": "33504256@N03","secret": "f0896e212e","title": "Marina Bay Singapore","loc": {"type": "Point","coordinates": [103.86082,1.287587]}} 
{"id": "9203754757","server": "2873","farm": "3","userId": "33504256@N03","secret": "9b4f343c01","title": "Just won The Most Favourite at STIE GALILEO PHOTO EXHIBITION 2013","loc": {"type": "Point","coordinates": [103.86082,1.287587]}} 
{"id": "9199119819","server": "7345","farm": "8","userId": "33504256@N03","secret": "0c1f641263","title": "The Helix Bridge","loc": {"type": "Point","coordinates": [103.860596,1.288461]}} 
{"id": "9181926086","server": "2829","farm": "3","userId": "55844827@N00","secret": "dbe4fc925c","title": "DSC_2344","loc": {"type": "Point","coordinates": [103.86104,1.288288]}} 
{"id": "9181921786","server": "2865","farm": "3","userId": "55844827@N00","secret": "3b7e744308","title": "DSC_2308","loc": {"type": "Point","coordinates": [103.86108,1.28945]}} 
{"id": "9181924828","server": "7377","farm": "8","userId": "55844827@N00","secret": "13995dac28","title": "DSC_2324","loc": {"type": "Point","coordinates": [103.8611,1.289436]}} 
{"id": "9181924316","server": "7305","farm": "8","userId": "55844827@N00","secret": "ced2ea3234","title": "DSC_2320","loc": {"type": "Point","coordinates": [103.86114,1.28945]}} 
{"id": "9181920830","server": "3721","farm": "4","userId": "55844827@N00","secret": "72d9a7368a","title": "DSC_2305","loc": {"type": "Point","coordinates": [103.86108,1.28945]}} 
{"id": "9179710075","server": "5475","farm": "6","userId": "55844827@N00","secret": "5d3a16059d","title": "DSC_2319","loc": {"type": "Point","coordinates": [103.86114,1.289452]}} 
{"id": "9179703447","server": "2882","farm": "3","userId": "55844827@N00","secret": "d4e27e608f","title": "DSC_2286","loc": {"type": "Point","coordinates": [103.8611,1.289436]}} 
{"id": "9179704765","server": "2829","farm": "3","userId": "55844827@N00","secret": "073a031791","title": "DSC_2295","loc": {"type": "Point","coordinates": [103.86109,1.289438]}} 
{"id": "9179713141","server": "7440","farm": "8","userId": "55844827@N00","secret": "8268436062","title": "DSC_2354","loc": {"type": "Point","coordinates": [103.86103,1.288372]}} 
{"id": "9181919862","server": "2858","farm": "3","userId": "55844827@N00","secret": "c1eea9b6d8","title": "DSC_2302","loc": {"type": "Point","coordinates": [103.86107,1.289447]}} 
{"id": "9181925066","server": "3803","farm": "4","userId": "55844827@N00","secret": "326a21c777","title": "DSC_2325","loc": {"type": "Point","coordinates": [103.86109,1.289436]}} 
{"id": "9181925852","server": "3739","farm": "4","userId": "55844827@N00","secret": "b77f5189c9","title": "DSC_2339","loc": {"type": "Point","coordinates": [103.86102,1.288227]}} 
{"id": "9179705445","server": "5322","farm": "6","userId": "55844827@N00","secret": "fd34f625d5","title": "DSC_2301","loc": {"type": "Point","coordinates": [103.86106,1.289452]}} 
{"id": "9179712551","server": "2872","farm": "3","userId": "55844827@N00","secret": "5263c9ec08","title": "DSC_2347","loc": {"type": "Point","coordinates": [103.861046,1.288258]}} 
{"id": "9179703105","server": "3672","farm": "4","userId": "55844827@N00","secret": "2e727ed733","title": "DSC_2284","loc": {"type": "Point","coordinates": [103.8611,1.289416]}} 
{"id": "9181917818","server": "7449","farm": "8","userId": "55844827@N00","secret": "b68aa2a095","title": "DSC_2287","loc": {"type": "Point","coordinates": [103.86111,1.289441]}} 
{"id": "9181922182","server": "7406","farm": "8","userId": "55844827@N00","secret": "0efee9b8a4","title": "DSC_2309","loc": {"type": "Point","coordinates": [103.86108,1.28945]}} 
{"id": "9181924580","server": "5549","farm": "6","userId": "55844827@N00","secret": "9158020735","title": "DSC_2321","loc": {"type": "Point","coordinates": [103.86113,1.289452]}} 
{"id": "9181919054","server": "5322","farm": "6","userId": "55844827@N00","secret": "20935a2422","title": "DSC_2296","loc": {"type": "Point","coordinates": [103.86107,1.289447]}} 
{"id": "9181925066","server": "3803","farm": "4","userId": "55844827@N00","secret": "326a21c777","title": "DSC_2325","loc": {"type": "Point","coordinates": [103.86109,1.289436]}} 
{"id": "9181925852","server": "3739","farm": "4","userId": "55844827@N00","secret": "b77f5189c9","title": "DSC_2339","loc": {"type": "Point","coordinates": [103.86102,1.288227]}} 
{"id": "9179705445","server": "5322","farm": "6","userId": "55844827@N00","secret": "fd34f625d5","title": "DSC_2301","loc": {"type": "Point","coordinates": [103.86106,1.289452]}} 
{"id": "9179712551","server": "2872","farm": "3","userId": "55844827@N00","secret": "5263c9ec08","title": "DSC_2347","loc": {"type": "Point","coordinates": [103.861046,1.288258]}} 
{"id": "9179703105","server": "3672","farm": "4","userId": "55844827@N00","secret": "2e727ed733","title": "DSC_2284","loc": {"type": "Point","coordinates": [103.8611,1.289416]}} 
{"id": "9181917818","server": "7449","farm": "8","userId": "55844827@N00","secret": "b68aa2a095","title": "DSC_2287","loc": {"type": "Point","coordinates": [103.86111,1.289441]}} 
{"id": "9181922182","server": "7406","farm": "8","userId": "55844827@N00","secret": "0efee9b8a4","title": "DSC_2309","loc": {"type": "Point","coordinates": [103.86108,1.28945]}} 
{"id": "9181924580","server": "5549","farm": "6","userId": "55844827@N00","secret": "9158020735","title": "DSC_2321","loc": {"type": "Point","coordinates": [103.86113,1.289452]}} 
{"id": "9181919054","server": "5322","farm": "6","userId": "55844827@N00","secret": "20935a2422","title": "DSC_2296","loc": {"type": "Point","coordinates": [103.86107,1.289447]}} 
{"id": "9092091660","server": "3675","farm": "4","userId": "13745780@N05","secret": "62cb9b54ca","title": "Singapur.","loc": {"type": "Point","coordinates": [103.8608,1.287802]}} 
{"id": "9025174234","server": "8543","farm": "9","userId": "22738225@N06","secret": "9b07c0cb3a","title": "DSC08882.jpg","loc": {"type": "Point","coordinates": [103.863045,1.288561]}} 
{"id": "9025193240","server": "8409","farm": "9","userId": "22738225@N06","secret": "705c9e8d2b","title": "DSC09588.jpg","loc": {"type": "Point","coordinates": [103.86047,1.288547]}} 
{"id": "9024307408","server": "2846","farm": "3","userId": "16105436@N00","secret": "9364bcc45e","title": "HackerspaceSG RUN!","loc": {"type": "Point","coordinates": [103.86017,1.288833]}} 
{"id": "8948651303","server": "5324","farm": "6","userId": "8090130@N03","secret": "7c43e11487","title": "Helix Bridge, Marina Bay Sands, Singapore","loc": {"type": "Point","coordinates": [103.860435,1.288486]}} 
{"id": "8949271020","server": "5340","farm": "6","userId": "8090130@N03","secret": "5bf1415c77","title": "Helix Bridge, Marina Bay Sands, Singapore","loc": {"type": "Point","coordinates": [103.860435,1.288486]}} 
{"id": "8935458746","server": "7402","farm": "8","userId": "51295433@N03","secret": "5058fa2eb0","title": "Infrared Marina","loc": {"type": "Point","coordinates": [103.862274,1.288497]}} 
{"id": "9179704125","server": "2805","farm": "3","userId": "55844827@N00","secret": "3e4288301e","title": "DSC_2288","loc": {"type": "Point","coordinates": [103.8611,1.289436]}} 
{"id": "9181928156","server": "7281","farm": "8","userId": "55844827@N00","secret": "b69c8f8eb0","title": "DSC_2384","loc": {"type": "Point","coordinates": [103.86104,1.288427]}} 
{"id": "9181926316","server": "3765","farm": "4","userId": "55844827@N00","secret": "62154b740e","title": "DSC_2346","loc": {"type": "Point","coordinates": [103.86104,1.288286]}} 
{"id": "9181925584","server": "2860","farm": "3","userId": "55844827@N00","secret": "e23afba1ae","title": "DSC_2336","loc": {"type": "Point","coordinates": [103.86104,1.288294]}} 
{"id": "9179704441","server": "5451","farm": "6","userId": "55844827@N00","secret": "be20a926da","title": "DSC_2290","loc": {"type": "Point","coordinates": [103.8611,1.289438]}} 
{"id": "9179706353","server": "2810","farm": "3","userId": "55844827@N00","secret": "440b45c3e8","title": "DSC_2303","loc": {"type": "Point","coordinates": [103.86108,1.289447]}} 
{"id": "9181921164","server": "3719","farm": "4","userId": "55844827@N00","secret": "8b63c8952d","title": "DSC_2306","loc": {"type": "Point","coordinates": [103.861084,1.28945]}} 
{"id": "9181923030","server": "7453","farm": "8","userId": "55844827@N00","secret": "17166a94ee","title": "DSC_2316","loc": {"type": "Point","coordinates": [103.86115,1.289469]}} 
{"id": "9181927540","server": "3759","farm": "4","userId": "55844827@N00","secret": "299f14f625","title": "DSC_2360","loc": {"type": "Point","coordinates": [103.86103,1.288383]}} 
{"id": "9179713369","server": "7317","farm": "8","userId": "55844827@N00","secret": "3a28120f08","title": "DSC_2357","loc": {"type": "Point","coordinates": [103.86103,1.288377]}} 
{"id": "9179709389","server": "5519","farm": "6","userId": "55844827@N00","secret": "951a9ee5a5","title": "DSC_2317","loc": {"type": "Point","coordinates": [103.861145,1.289463]}} 
{"id": "9179711235","server": "3756","farm": "4","userId": "55844827@N00","secret": "575b254a26","title": "DSC_2333","loc": {"type": "Point","coordinates": [103.86108,1.289422]}} 
{"id": "9179713895","server": "3686","farm": "4","userId": "55844827@N00","secret": "09d21e913a","title": "DSC_2369","loc": {"type": "Point","coordinates": [103.861046,1.288436]}} 
{"id": "9176275798","server": "5537","farm": "6","userId": "55844827@N00","secret": "5bd6d8fb50","title": "DSC_2274","loc": {"type": "Point","coordinates": [103.861046,1.289247]}} 
{"id": "9176272392","server": "3793","farm": "4","userId": "55844827@N00","secret": "68ce3554e0","title": "DSC_2256","loc": {"type": "Point","coordinates": [103.86122,1.289411]}} 
{"id": "9176273612","server": "7431","farm": "8","userId": "55844827@N00","secret": "dd409ba2d9","title": "DSC_2261","loc": {"type": "Point","coordinates": [103.86105,1.289275]}} 
{"id": "9176272848","server": "5507","farm": "6","userId": "55844827@N00","secret": "9e552ecc23","title": "DSC_2258","loc": {"type": "Point","coordinates": [103.86101,1.28928]}} 
{"id": "9176274180","server": "3833","farm": "4","userId": "55844827@N00","secret": "5a9d70e7da","title": "DSC_2262","loc": {"type": "Point","coordinates": [103.86134,1.288569]}} 
{"id": "9176275270","server": "7301","farm": "8","userId": "55844827@N00","secret": "167627350d","title": "DSC_2272","loc": {"type": "Point","coordinates": [103.860825,1.289472]}} 
{"id": "9176277970","server": "5448","farm": "6","userId": "55844827@N00","secret": "cef2f5a86d","title": "DSC_2280","loc": {"type": "Point","coordinates": [103.86109,1.28943]}} 
{"id": "9174058477","server": "5336","farm": "6","userId": "55844827@N00","secret": "fc7d8ff837","title": "DSC_2278","loc": {"type": "Point","coordinates": [103.861084,1.289452]}} 
{"id": "9174057701","server": "5548","farm": "6","userId": "55844827@N00","secret": "5aa7783ccf","title": "DSC_2277","loc": {"type": "Point","coordinates": [103.86113,1.289427]}} 
{"id": "9174054101","server": "7403","farm": "8","userId": "55844827@N00","secret": "c481bed17e","title": "DSC_2260","loc": {"type": "Point","coordinates": [103.86102,1.289277]}} 
{"id": "9176135420","server": "5542","farm": "6","userId": "55844827@N00","secret": "7fcb33f728","title": "DSC_2244","loc": {"type": "Point","coordinates": [103.86108,1.28928]}} 
{"id": "9173918961","server": "5447","farm": "6","userId": "55844827@N00","secret": "e3953a859d","title": "DSC_2255","loc": {"type": "Point","coordinates": [103.86118,1.289402]}} 
{"id": "9173917371","server": "2818","farm": "3","userId": "55844827@N00","secret": "60a45b9274","title": "DSC_2251","loc": {"type": "Point","coordinates": [103.8612,1.289408]}} 
{"id": "9176134700","server": "2893","farm": "3","userId": "55844827@N00","secret": "0a99002b1d","title": "DSC_2243","loc": {"type": "Point","coordinates": [103.86096,1.289294]}} 
{"id": "9176137810","server": "3678","farm": "4","userId": "55844827@N00","secret": "ec5ab06476","title": "DSC_2254","loc": {"type": "Point","coordinates": [103.86128,1.289319]}} 
{"id": "9173916393","server": "5460","farm": "6","userId": "55844827@N00","secret": "0a009ff01e","title": "DSC_2245","loc": {"type": "Point","coordinates": [103.86108,1.289277]}} 
{"id": "9176137334","server": "3668","farm": "4","userId": "55844827@N00","secret": "777c621312","title": "DSC_2252","loc": {"type": "Point","coordinates": [103.861206,1.289377]}} 
{"id": "9172978063","server": "7363","farm": "8","userId": "13281800@N08","secret": "934f05c73b","title": "upload","loc": {"type": "Point","coordinates": [103.86308,1.289357]}} 
{"id": "9174214946","server": "2849","farm": "3","userId": "97117255@N08","secret": "d38277ff6d","title": "Pure Italian","loc": {"type": "Point","coordinates": [103.863716,1.288682]}} 
{"id": "9167231160","server": "3737","farm": "4","userId": "55844827@N00","secret": "ebe72e5678","title": "DSC_2158","loc": {"type": "Point","coordinates": [103.86069,1.287527]}} 
{"id": "9165007405","server": "2890","farm": "3","userId": "55844827@N00","secret": "65216aeb01","title": "DSC_2155","loc": {"type": "Point","coordinates": [103.861305,1.288525]}} 
{"id": "9167230830","server": "3797","farm": "4","userId": "55844827@N00","secret": "a98c22bd5f","title": "DSC_2156","loc": {"type": "Point","coordinates": [103.86101,1.288947]}} 
{"id": "9156477559","server": "2848","farm": "3","userId": "77532386@N00","secret": "07a64676a6","title": "The Path to Sarnies....","loc": {"type": "Point","coordinates": [103.86026,1.288831]}} 
{"id": "9145687573","server": "7307","farm": "8","userId": "97372327@N00","secret": "806b1d207b","title": "IMG_0535","loc": {"type": "Point","coordinates": [103.8605,1.288833]}} 
{"id": "9143249723","server": "2833","farm": "3","userId": "60061298@N00","secret": "8bbfe41f9f","title": "ArtScience Museum - 2","loc": {"type": "Point","coordinates": [103.8605,1.287833]}} 
{"id": "9143236439","server": "5550","farm": "6","userId": "60061298@N00","secret": "45ee6a84a6","title": "The Helix Bridge & ArtScience Museum","loc": {"type": "Point","coordinates": [103.86017,1.288667]}} 
{"id": "9145469586","server": "7352","farm": "8","userId": "60061298@N00","secret": "2e15690ee5","title": "ArtScience Museum - 1","loc": {"type": "Point","coordinates": [103.8605,1.287833]}} 
{"id": "9143210573","server": "7410","farm": "8","userId": "60061298@N00","secret": "4e22b13993","title": "The Singapore Flyer 景觀 - 2","loc": {"type": "Point","coordinates": [103.863,1.289333]}} 
{"id": "9143217713","server": "5538","farm": "6","userId": "60061298@N00","secret": "8246b60105","title": "The Singapore Flyer 景觀 - 3","loc": {"type": "Point","coordinates": [103.86266,1.288667]}} 
{"id": "9143232329","server": "5517","farm": "6","userId": "60061298@N00","secret": "433b9d152e","title": "The Helix Bridge - 1","loc": {"type": "Point","coordinates": [103.86017,1.288667]}} 
{"id": "9145429962","server": "7284","farm": "8","userId": "60061298@N00","secret": "056c3e4811","title": "The Singapore Flyer 景觀 - 1","loc": {"type": "Point","coordinates": [103.8635,1.2895]}} 
{"id": "9145463620","server": "7430","farm": "8","userId": "60061298@N00","secret": "9c901f046f","title": "The Helix Bridge - 2","loc": {"type": "Point","coordinates": [103.86034,1.288833]}} 
{"id": "9143191693","server": "2856","farm": "3","userId": "60061298@N00","secret": "60e9627bb5","title": "The Singapore Flyer - 04","loc": {"type": "Point","coordinates": [103.8625,1.289167]}} 
{"id": "9145411292","server": "7430","farm": "8","userId": "60061298@N00","secret": "505e5c322f","title": "The Singapore Flyer - 03","loc": {"type": "Point","coordinates": [103.86317,1.2895]}} 
{"id": "9143180077","server": "7352","farm": "8","userId": "60061298@N00","secret": "b03974ea77","title": "The Singapore Flyer - 01","loc": {"type": "Point","coordinates": [103.863335,1.289333]}} 
{"id": "9143181553","server": "7326","farm": "8","userId": "60061298@N00","secret": "dda5a79f5f","title": "The Singapore Flyer - 02","loc": {"type": "Point","coordinates": [103.86317,1.2895]}} 
{"id": "9125915258","server": "5339","farm": "6","userId": "49986252@N08","secret": "e616bff1a9","title": "upload","loc": {"type": "Point","coordinates": [103.86308,1.289357]}} 
{"id": "9107864153","server": "2844","farm": "3","userId": "76684964@N05","secret": "5957d21d31","title": "","loc": {"type": "Point","coordinates": [103.86308,1.289357]}} 
{"id": "9107025096","server": "3696","farm": "4","userId": "97652139@N07","secret": "3b79bbe0fd","title": "IMG_7713","loc": {"type": "Point","coordinates": [103.86251,1.289432]}} 
{"id": "9097812749","server": "3706","farm": "4","userId": "45513448@N04","secret": "ce7726b5c3","title": "flyer","loc": {"type": "Point","coordinates": [103.863434,1.289325]}} 
{"id": "9095888379","server": "3712","farm": "4","userId": "9608227@N08","secret": "31749ae7fd","title": "Singapore Flyer View.....","loc": {"type": "Point","coordinates": [103.86308,1.289357]}} 
{"id": "9097506772","server": "5506","farm": "6","userId": "31620456@N05","secret": "98fbebb6ae","title": "Singapore Flyer at Night","loc": {"type": "Point","coordinates": [103.863846,1.289411]}} 
{"id": "9095278307","server": "3710","farm": "4","userId": "31620456@N05","secret": "213b32d053","title": "Singapore Flyer at Night","loc": {"type": "Point","coordinates": [103.863846,1.289411]}} 
{"id": "9091091581","server": "7313","farm": "8","userId": "63899932@N00","secret": "66151eba4d","title": "從小就很喜歡的摩天輪。","loc": {"type": "Point","coordinates": [103.86308,1.289358]}} 
{"id": "9093305460","server": "7395","farm": "8","userId": "63899932@N00","secret": "dff7403197","title": "摩天輪裡的風景。","loc": {"type": "Point","coordinates": [103.86308,1.289358]}} 
{"id": "9093300810","server": "2814","farm": "3","userId": "63899932@N00","secret": "b7076eb1c9","title": "一起坐上摩天輪。","loc": {"type": "Point","coordinates": [103.86308,1.289358]}} 
{"id": "9080025480","server": "5540","farm": "6","userId": "34288076@N08","secret": "3d4472ee5c","title": "Sands hotel reflections","loc": {"type": "Point","coordinates": [103.86007,1.288295]}} 
{"id": "9075306549","server": "3719","farm": "4","userId": "7762143@N03","secret": "ec3df22c6e","title": "","loc": {"type": "Point","coordinates": [103.86308,1.289358]}} 
{"id": "9077536800","server": "7346","farm": "8","userId": "7762143@N03","secret": "141a12ba53","title": "","loc": {"type": "Point","coordinates": [103.86308,1.289358]}} 
{"id": "9077538086","server": "2829","farm": "3","userId": "7762143@N03","secret": "671902c745","title": "","loc": {"type": "Point","coordinates": [103.86308,1.289358]}} 
{"id": "9065243151","server": "2856","farm": "3","userId": "83195865@N08","secret": "e89202a700","title": "IMG_2563.jpg","loc": {"type": "Point","coordinates": [103.86052,1.287844]}} 
{"id": "9064333809","server": "3756","farm": "4","userId": "7815794@N08","secret": "ba69f6d4f7","title": "Southeast Asia in September","loc": {"type": "Point","coordinates": [103.86031,1.288783]}} 
{"id": "9066559744","server": "5457","farm": "6","userId": "7815794@N08","secret": "49ea0f6173","title": "Billionaire Path","loc": {"type": "Point","coordinates": [103.86047,1.288313]}} 
{"id": "9064333739","server": "7405","farm": "8","userId": "7815794@N08","secret": "5a3f7211d0","title": "Caught in Singapore","loc": {"type": "Point","coordinates": [103.86037,1.288741]}} 
{"id": "9052475574","server": "5477","farm": "6","userId": "60784770@N06","secret": "6f1daa128d","title": "Singapore - Helix Bridge","loc": {"type": "Point","coordinates": [103.86047,1.288081]}} 
{"id": "9050244869","server": "5443","farm": "6","userId": "60784770@N06","secret": "f93e71690e","title": "Singapore - Helix Bridge","loc": {"type": "Point","coordinates": [103.86047,1.288081]}} 
{"id": "9052468280","server": "5517","farm": "6","userId": "60784770@N06","secret": "016cc57542","title": "Singapore - Helix Bridge","loc": {"type": "Point","coordinates": [103.86047,1.288081]}} 
{"id": "9049263005","server": "5335","farm": "6","userId": "40011875@N00","secret": "75d7f50c1a","title": "Ring of light","loc": {"type": "Point","coordinates": [103.86308,1.289357]}} 
{"id": "9049236551","server": "2884","farm": "3","userId": "40011875@N00","secret": "0a20fe3638","title": "Criss cross","loc": {"type": "Point","coordinates": [103.86308,1.289357]}} 
{"id": "9051071376","server": "5517","farm": "6","userId": "30476053@N00","secret": "b7fbe01031","title": "Australian Guns N roses show. #beerfestasia2013 #Singapore #instagood #htcone #ultrapixels #mates #Singapore I'm 16 again. (: you could be mine..  But you're way out of lineee","loc": {"type": "Point","coordinates": [103.86417,1.289409]}} 
{"id": "9048068821","server": "3815","farm": "4","userId": "30476053@N00","secret": "6eabb5afb6","title": "It isn't a beer fest without classic rock.  Whole lotta love. #beerfestasia2013 #Singapore #bands #music #mates #htcone #ultrapixels #instagood","loc": {"type": "Point","coordinates": [103.86417,1.289409]}} 
{"id": "9050207352","server": "2817","farm": "3","userId": "30476053@N00","secret": "947e59bc74","title": "Thats a mighty fine ipa #craft #beer #beerfestasia2013 #hic #Singapore #instagood #htcone #ultrapixels #mates","loc": {"type": "Point","coordinates": [103.86417,1.289409]}} 
{"id": "9038894785","server": "7386","farm": "8","userId": "82533607@N04","secret": "809abe8215","title": "Great Weekend Party!!","loc": {"type": "Point","coordinates": [103.86411,1.289188]}} 
{"id": "9038761894","server": "5542","farm": "6","userId": "82533607@N04","secret": "515da4d42e","title": "Had A Blast!!","loc": {"type": "Point","coordinates": [103.86411,1.289188]}} 
{"id": "9033712961","server": "5348","farm": "6","userId": "95362622@N00","secret": "41e84a3cc8","title": "#Singapore","loc": {"type": "Point","coordinates": [103.86308,1.289357]}} 
{"id": "9024242754","server": "8123","farm": "9","userId": "16105436@N00","secret": "6dae5ba991","title": "2013-06-10 18.44.32","loc": {"type": "Point","coordinates": [103.86383,1.2885]}} 
{"id": "9009274501","server": "8544","farm": "9","userId": "28472171@N08","secret": "0b16bc4b6e","title": "Panoramic view to marina bay","loc": {"type": "Point","coordinates": [103.86277,1.2891]}} 
{"id": "9009997888","server": "2821","farm": "3","userId": "28472171@N08","secret": "9e9732f037","title": "Singapore flyer","loc": {"type": "Point","coordinates": [103.86212,1.289233]}} 
{"id": "9008802779","server": "7320","farm": "8","userId": "28472171@N08","secret": "2c60ff32c6","title": "Marina Bay","loc": {"type": "Point","coordinates": [103.860504,1.289222]}} 
{"id": "8995848629","server": "2863","farm": "3","userId": "40601139@N03","secret": "363ff486b4","title": "Lion City","loc": {"type": "Point","coordinates": [103.86308,1.289358]}} 
{"id": "8995237818","server": "5331","farm": "6","userId": "96406011@N08","secret": "b65d105a68","title": "Singapore Flyer","loc": {"type": "Point","coordinates": [103.863235,1.289647]}} 
{"id": "8994040897","server": "3711","farm": "4","userId": "96406011@N08","secret": "4fd19b8610","title": "Singapore Flyer","loc": {"type": "Point","coordinates": [103.863235,1.289647]}} 
{"id": "8994036615","server": "7314","farm": "8","userId": "96406011@N08","secret": "7677075c99","title": "Singapore Flyer","loc": {"type": "Point","coordinates": [103.863235,1.289647]}} 
{"id": "8994821518","server": "7457","farm": "8","userId": "25718534@N05","secret": "f9f7c4d57d","title": "wp81_130605_073","loc": {"type": "Point","coordinates": [103.86261,1.289177]}} 
{"id": "8993642843","server": "2827","farm": "3","userId": "25718534@N05","secret": "3f219f7626","title": "wp81_130605_001","loc": {"type": "Point","coordinates": [103.863335,1.289444]}} 
{"id": "8994822114","server": "7363","farm": "8","userId": "25718534@N05","secret": "4e399e7c18","title": "wp81_130605_057","loc": {"type": "Point","coordinates": [103.863045,1.289041]}} 
{"id": "8993636315","server": "7345","farm": "8","userId": "25718534@N05","secret": "e2006cbec5","title": "wp81_130605_031","loc": {"type": "Point","coordinates": [103.86363,1.289769]}} 
{"id": "8993634277","server": "2811","farm": "3","userId": "25718534@N05","secret": "74212774a0","title": "wp81_130605_041","loc": {"type": "Point","coordinates": [103.863754,1.289963]}} 
{"id": "8994818782","server": "3674","farm": "4","userId": "25718534@N05","secret": "80b94fd1b7","title": "wp81_130605_088","loc": {"type": "Point","coordinates": [103.86231,1.288408]}} 
{"id": "8993642471","server": "7310","farm": "8","userId": "25718534@N05","secret": "5f9ddd21c0","title": "wp81_130605_002","loc": {"type": "Point","coordinates": [103.863335,1.289444]}} 
{"id": "8993635215","server": "3785","farm": "4","userId": "25718534@N05","secret": "83faefd85b","title": "wp81_130605_035","loc": {"type": "Point","coordinates": [103.863754,1.289963]}} 
{"id": "8994825620","server": "3755","farm": "4","userId": "25718534@N05","secret": "2402e75167","title": "wp81_130605_037","loc": {"type": "Point","coordinates": [103.863754,1.289963]}} 
{"id": "8994828044","server": "7296","farm": "8","userId": "25718534@N05","secret": "ec1c32878d","title": "wp81_130605_025","loc": {"type": "Point","coordinates": [103.86376,1.289794]}} 
{"id": "8994829172","server": "7369","farm": "8","userId": "25718534@N05","secret": "f8935ae2e4","title": "wp81_130605_022","loc": {"type": "Point","coordinates": [103.86376,1.289794]}} 
{"id": "8994831894","server": "5341","farm": "6","userId": "25718534@N05","secret": "297a6fd82a","title": "wp81_130605_007","loc": {"type": "Point","coordinates": [103.86343,1.289344]}} 
{"id": "8993635651","server": "8260","farm": "9","userId": "25718534@N05","secret": "e2d0e92318","title": "wp81_130605_033","loc": {"type": "Point","coordinates": [103.86363,1.289769]}} 
{"id": "8994814146","server": "3741","farm": "4","userId": "25718534@N05","secret": "38b93651dd","title": "wp81_130605_101","loc": {"type": "Point","coordinates": [103.86159,1.288238]}} 
{"id": "8993624261","server": "5462","farm": "6","userId": "25718534@N05","secret": "bbf93a038f","title": "wp81_130605_098","loc": {"type": "Point","coordinates": [103.86159,1.288238]}} 
{"id": "8993594173","server": "3807","farm": "4","userId": "25718534@N05","secret": "e1cc81b4c1","title": "wp82_130605_005","loc": {"type": "Point","coordinates": [103.86322,1.28943]}} 
{"id": "8994816630","server": "7286","farm": "8","userId": "25718534@N05","secret": "719c775a49","title": "wp81_130605_095","loc": {"type": "Point","coordinates": [103.86159,1.288238]}} 
{"id": "8994823736","server": "7460","farm": "8","userId": "25718534@N05","secret": "9e18fcb3c2","title": "wp81_130605_049","loc": {"type": "Point","coordinates": [103.863045,1.289041]}} 
{"id": "8994822564","server": "8269","farm": "9","userId": "25718534@N05","secret": "3ce4736590","title": "wp81_130605_056","loc": {"type": "Point","coordinates": [103.863045,1.289041]}} 
{"id": "8994816260","server": "3715","farm": "4","userId": "25718534@N05","secret": "c0b099543f","title": "wp81_130605_096","loc": {"type": "Point","coordinates": [103.86159,1.288238]}} 
{"id": "8993630367","server": "2845","farm": "3","userId": "25718534@N05","secret": "7282a104f0","title": "wp81_130605_076","loc": {"type": "Point","coordinates": [103.86275,1.289333]}} 
{"id": "8994822998","server": "2855","farm": "3","userId": "25718534@N05","secret": "9c57d3d455","title": "wp81_130605_054","loc": {"type": "Point","coordinates": [103.863045,1.289041]}} 
{"id": "8994815802","server": "7306","farm": "8","userId": "25718534@N05","secret": "c1a3da7c46","title": "wp81_130605_097","loc": {"type": "Point","coordinates": [103.86159,1.288238]}} 
{"id": "8994832776","server": "5340","farm": "6","userId": "25718534@N05","secret": "df353d74b0","title": "wp81_130605_004","loc": {"type": "Point","coordinates": [103.86343,1.289344]}} 
{"id": "8993633323","server": "8553","farm": "9","userId": "25718534@N05","secret": "a28292f36e","title": "wp81_130605_047","loc": {"type": "Point","coordinates": [103.86308,1.289466]}} 
{"id": "8993638659","server": "3834","farm": "4","userId": "25718534@N05","secret": "876dfbe616","title": "wp81_130605_021","loc": {"type": "Point","coordinates": [103.86376,1.289794]}} 
{"id": "8993628193","server": "3718","farm": "4","userId": "25718534@N05","secret": "072431f94f","title": "wp81_130605_087","loc": {"type": "Point","coordinates": [103.86231,1.288408]}} 
{"id": "8993639211","server": "5444","farm": "6","userId": "25718534@N05","secret": "d3bdc5f62d","title": "wp81_130605_018","loc": {"type": "Point","coordinates": [103.86363,1.289466]}} 
{"id": "8993623493","server": "8394","farm": "9","userId": "25718534@N05","secret": "5d2ee7ff08","title": "wp81_130605_100","loc": {"type": "Point","coordinates": [103.86159,1.288238]}} 
{"id": "8994829742","server": "8133","farm": "9","userId": "25718534@N05","secret": "6f293d055a","title": "wp81_130605_020","loc": {"type": "Point","coordinates": [103.86363,1.289466]}} 
{"id": "8994827450","server": "5469","farm": "6","userId": "25718534@N05","secret": "a119af8cef","title": "wp81_130605_029","loc": {"type": "Point","coordinates": [103.86363,1.289769]}} 
{"id": "8993641613","server": "8127","farm": "9","userId": "25718534@N05","secret": "f6caf75d40","title": "wp81_130605_005","loc": {"type": "Point","coordinates": [103.86343,1.289344]}} 
{"id": "8994819964","server": "7341","farm": "8","userId": "25718534@N05","secret": "70fa8d5c41","title": "wp81_130605_082","loc": {"type": "Point","coordinates": [103.86246,1.288975]}} 
{"id": "8994820304","server": "5341","farm": "6","userId": "25718534@N05","secret": "6f06291790","title": "wp81_130605_081","loc": {"type": "Point","coordinates": [103.86246,1.288975]}} 
{"id": "8993636977","server": "7325","farm": "8","userId": "25718534@N05","secret": "8409b7354b","title": "wp81_130605_027","loc": {"type": "Point","coordinates": [103.86358,1.289763]}} 
{"id": "8993633921","server": "7346","farm": "8","userId": "25718534@N05","secret": "7182726669","title": "wp81_130605_042","loc": {"type": "Point","coordinates": [103.8629,1.289475]}} 
{"id": "8994820674","server": "8554","farm": "9","userId": "25718534@N05","secret": "86d73c85e1","title": "wp81_130605_079","loc": {"type": "Point","coordinates": [103.86246,1.288975]}} 
{"id": "8993631067","server": "7293","farm": "8","userId": "25718534@N05","secret": "c42b68c373","title": "wp81_130605_071","loc": {"type": "Point","coordinates": [103.86261,1.289177]}} 
{"id": "8993634613","server": "3672","farm": "4","userId": "25718534@N05","secret": "b828279da8","title": "wp81_130605_040","loc": {"type": "Point","coordinates": [103.863754,1.289963]}} 
{"id": "8993639651","server": "3832","farm": "4","userId": "25718534@N05","secret": "0509946825","title": "wp81_130605_010","loc": {"type": "Point","coordinates": [103.86343,1.289344]}} 
{"id": "8994828264","server": "3735","farm": "4","userId": "25718534@N05","secret": "e4bb149f61","title": "wp81_130605_024","loc": {"type": "Point","coordinates": [103.86376,1.289794]}} 
{"id": "8994823378","server": "3673","farm": "4","userId": "25718534@N05","secret": "f3f9ccd62d","title": "wp81_130605_052","loc": {"type": "Point","coordinates": [103.863045,1.289041]}} 
{"id": "8994831322","server": "5466","farm": "6","userId": "25718534@N05","secret": "4e51038ba0","title": "wp81_130605_008","loc": {"type": "Point","coordinates": [103.86343,1.289344]}} 
{"id": "8993626425","server": "5328","farm": "6","userId": "25718534@N05","secret": "4e3e159888","title": "wp81_130605_092","loc": {"type": "Point","coordinates": [103.86233,1.288461]}} 
{"id": "8993630105","server": "7342","farm": "8","userId": "25718534@N05","secret": "836767591a","title": "wp81_130605_078","loc": {"type": "Point","coordinates": [103.86275,1.289333]}} 
{"id": "8994813826","server": "5467","farm": "6","userId": "25718534@N05","secret": "871ccf4fcf","title": "wp81_130605_102","loc": {"type": "Point","coordinates": [103.86159,1.288238]}} 
{"id": "8993633591","server": "7400","farm": "8","userId": "25718534@N05","secret": "2a6b41abcb","title": "wp81_130605_046","loc": {"type": "Point","coordinates": [103.86308,1.289466]}} 
{"id": "8993628593","server": "3755","farm": "4","userId": "25718534@N05","secret": "9a1e155dff","title": "wp81_130605_083","loc": {"type": "Point","coordinates": [103.86281,1.289138]}} 
{"id": "8994785854","server": "7428","farm": "8","userId": "25718534@N05","secret": "6bfbc58c51","title": "wp82_130605_003","loc": {"type": "Point","coordinates": [103.86303,1.289363]}} 
{"id": "8993637973","server": "8407","farm": "9","userId": "25718534@N05","secret": "fcfcf14c58","title": "wp81_130605_023","loc": {"type": "Point","coordinates": [103.86376,1.289794]}} 
{"id": "8994814804","server": "5348","farm": "6","userId": "25718534@N05","secret": "0db5eacce7","title": "wp81_130605_099","loc": {"type": "Point","coordinates": [103.86159,1.288238]}} 
{"id": "8992579609","server": "3720","farm": "4","userId": "95503244@N08","secret": "8f6d0fefe4","title": "IMG_0221","loc": {"type": "Point","coordinates": [103.863335,1.289666]}} 
{"id": "8992579673","server": "3776","farm": "4","userId": "95503244@N08","secret": "97c547d1b5","title": "IMG_0220","loc": {"type": "Point","coordinates": [103.8635,1.289833]}} 
{"id": "8992580071","server": "5455","farm": "6","userId": "95503244@N08","secret": "4428aaf285","title": "IMG_0217","loc": {"type": "Point","coordinates": [103.8635,1.289666]}} 
{"id": "8977176983","server": "3710","farm": "4","userId": "36919220@N00","secret": "0048bb8920","title": "upload","loc": {"type": "Point","coordinates": [103.86308,1.289357]}} 
{"id": "8969293125","server": "7443","farm": "8","userId": "36729543@N04","secret": "3ac49a8917","title": "","loc": {"type": "Point","coordinates": [103.86308,1.289358]}} 
{"id": "8959587515","server": "3778","farm": "4","userId": "89116906@N00","secret": "4ca337c435","title": "130507 - Marina Bay","loc": {"type": "Point","coordinates": [103.86317,1.288446]}} 
{"id": "8945398597","server": "7385","farm": "8","userId": "33328464@N03","secret": "25970eef9b","title": "Marina Bay Science Center","loc": {"type": "Point","coordinates": [103.86,1.288666]}} 
{"id": "8944826673","server": "7411","farm": "8","userId": "67024773@N06","secret": "a68f24b89f","title": "First Sunset of 2013 Singapore","loc": {"type": "Point","coordinates": [103.86041,1.288767]}} 
{"id": "8937233956","server": "7357","farm": "8","userId": "18898795@N08","secret": "b2b9048ea8","title": "marathon à 0h","loc": {"type": "Point","coordinates": [103.864334,1.289833]}} 
{"id": "8934623141","server": "7427","farm": "8","userId": "96851071@N02","secret": "421e875785","title": "IMG_1948","loc": {"type": "Point","coordinates": [103.86153,1.289454]}} 
{"id": "8920108888","server": "3714","farm": "4","userId": "37086375@N02","secret": "fab3556fe6","title": "#singapore  #city #flyer #wall #facade #art  #architect  #architect  #design  #building  #detail  #iphone  #iphone5  #instagram  #instagood  #webstagram","loc": {"type": "Point","coordinates": [103.86308,1.289357]}} 
{"id": "8919149410","server": "8533","farm": "9","userId": "19282426@N00","secret": "5698d2df74","title": "The rig that I used for shooting on the spore flyer, thanks to @tomohitoshi, changed the ball head to a larger one","loc": {"type": "Point","coordinates": [103.86308,1.289357]}} 
{"id": "8914332509","server": "8398","farm": "9","userId": "58964175@N06","secret": "8e3de18c35","title": "SingaporeF1_2010_0924(244)","loc": {"type": "Point","coordinates": [103.86298,1.28954]}} 
{"id": "8914943136","server": "3676","farm": "4","userId": "58964175@N06","secret": "af952950a4","title": "SingaporeF1_2010_0924(253)","loc": {"type": "Point","coordinates": [103.86298,1.28954]}} 
{"id": "8914945064","server": "5342","farm": "6","userId": "58964175@N06","secret": "e136372f97","title": "SingaporeF1_2010_0924(251)","loc": {"type": "Point","coordinates": [103.86298,1.28954]}} 
{"id": "8914948356","server": "7396","farm": "8","userId": "58964175@N06","secret": "8c8da8ffb9","title": "SingaporeF1_2010_0924(246)","loc": {"type": "Point","coordinates": [103.86298,1.28954]}} 
{"id": "8914946824","server": "3665","farm": "4","userId": "58964175@N06","secret": "1c558f5dff","title": "SingaporeF1_2010_0924(249)","loc": {"type": "Point","coordinates": [103.86298,1.28954]}} 
{"id": "8914326063","server": "7377","farm": "8","userId": "58964175@N06","secret": "3ef349316c","title": "SingaporeF1_2010_0924(252)","loc": {"type": "Point","coordinates": [103.86298,1.28954]}} 
{"id": "8914949352","server": "2860","farm": "3","userId": "58964175@N06","secret": "d451f3bc75","title": "SingaporeF1_2010_0924(245)","loc": {"type": "Point","coordinates": [103.86298,1.28954]}} 
{"id": "8914324119","server": "7369","farm": "8","userId": "58964175@N06","secret": "0558ae42f1","title": "SingaporeF1_2010_0924(254)","loc": {"type": "Point","coordinates": [103.86298,1.28954]}} 
{"id": "8914329891","server": "3705","farm": "4","userId": "58964175@N06","secret": "607eaf0d87","title": "SingaporeF1_2010_0924(247)","loc": {"type": "Point","coordinates": [103.86298,1.28954]}} 
{"id": "8914323265","server": "7412","farm": "8","userId": "58964175@N06","secret": "c943a94bbc","title": "SingaporeF1_2010_0924(255)","loc": {"type": "Point","coordinates": [103.86298,1.28954]}} 
{"id": "8914952764","server": "3694","farm": "4","userId": "58964175@N06","secret": "531f4d4951","title": "SingaporeF1_2010_0924(242)","loc": {"type": "Point","coordinates": [103.86298,1.28954]}} 
{"id": "8914337113","server": "8397","farm": "9","userId": "58964175@N06","secret": "1c7a7755a7","title": "SingaporeF1_2010_0924(239)","loc": {"type": "Point","coordinates": [103.86298,1.28954]}} 
{"id": "8914951826","server": "8403","farm": "9","userId": "58964175@N06","secret": "1371bc0a4b","title": "SingaporeF1_2010_0924(243)","loc": {"type": "Point","coordinates": [103.86298,1.28954]}} 
{"id": "8914336491","server": "7384","farm": "8","userId": "58964175@N06","secret": "9770ea3e83","title": "SingaporeF1_2010_0924(240)","loc": {"type": "Point","coordinates": [103.86298,1.28954]}} 
{"id": "8914953344","server": "2833","farm": "3","userId": "58964175@N06","secret": "f838e17b04","title": "SingaporeF1_2010_0924(241)","loc": {"type": "Point","coordinates": [103.86298,1.28954]}} 
{"id": "8912206073","server": "7396","farm": "8","userId": "57831413@N00","secret": "197b8f54e4","title": "26 May, 2013 08:56","loc": {"type": "Point","coordinates": [103.86034,1.288667]}} 
{"id": "8911464554","server": "8403","farm": "9","userId": "58964175@N06","secret": "0e93df8cb0","title": "DSCF0838","loc": {"type": "Point","coordinates": [103.86298,1.28954]}} 
{"id": "8911471456","server": "3768","farm": "4","userId": "58964175@N06","secret": "d4828d1e6d","title": "DSCF0832","loc": {"type": "Point","coordinates": [103.86298,1.28954]}} 
{"id": "8911474686","server": "2817","farm": "3","userId": "58964175@N06","secret": "b01d0bde39","title": "DSCF0830","loc": {"type": "Point","coordinates": [103.8611,1.289969]}} 
{"id": "8911467042","server": "5467","farm": "6","userId": "58964175@N06","secret": "010d400c5e","title": "DSCF0836","loc": {"type": "Point","coordinates": [103.86298,1.28954]}} 
{"id": "8910850379","server": "5449","farm": "6","userId": "58964175@N06","secret": "81ba330b57","title": "DSCF0831","loc": {"type": "Point","coordinates": [103.8611,1.289969]}} 
{"id": "8910845889","server": "3688","farm": "4","userId": "58964175@N06","secret": "a6c5187c2e","title": "DSCF0835","loc": {"type": "Point","coordinates": [103.86298,1.28954]}} 
{"id": "8910843101","server": "3708","farm": "4","userId": "58964175@N06","secret": "0c4f350ff9","title": "DSCF0837","loc": {"type": "Point","coordinates": [103.86298,1.28954]}} 
{"id": "8910846885","server": "3696","farm": "4","userId": "58964175@N06","secret": "101251013d","title": "DSCF0834","loc": {"type": "Point","coordinates": [103.86298,1.28954]}} 
{"id": "8911461832","server": "5441","farm": "6","userId": "58964175@N06","secret": "9bcb73d4f1","title": "DSCF0840","loc": {"type": "Point","coordinates": [103.86298,1.28954]}} 
{"id": "8911460688","server": "3778","farm": "4","userId": "58964175@N06","secret": "6af91b06ea","title": "DSCF0841","loc": {"type": "Point","coordinates": [103.86298,1.28954]}} 
{"id": "8910835343","server": "7393","farm": "8","userId": "58964175@N06","secret": "8c9c958e09","title": "DSCF0843","loc": {"type": "Point","coordinates": [103.86298,1.28954]}} 
{"id": "8911459192","server": "2885","farm": "3","userId": "58964175@N06","secret": "97494c1b07","title": "DSCF0842","loc": {"type": "Point","coordinates": [103.86298,1.28954]}} 
{"id": "8910839909","server": "8119","farm": "9","userId": "58964175@N06","secret": "602a639d29","title": "DSCF0839","loc": {"type": "Point","coordinates": [103.86298,1.28954]}} 
{"id": "8910847837","server": "8257","farm": "9","userId": "58964175@N06","secret": "6e10617f4f","title": "DSCF0833","loc": {"type": "Point","coordinates": [103.86298,1.28954]}} 
{"id": "8910710899","server": "2890","farm": "3","userId": "58964175@N06","secret": "56d9a930bc","title": "DSCF0688","loc": {"type": "Point","coordinates": [103.86298,1.28954]}} 
{"id": "8910900432","server": "7333","farm": "8","userId": "58964175@N06","secret": "cecce55269","title": "DSCF0663","loc": {"type": "Point","coordinates": [103.8611,1.289969]}} 
{"id": "8910932160","server": "7413","farm": "8","userId": "58964175@N06","secret": "c33c28c762","title": "DSCF0643","loc": {"type": "Point","coordinates": [103.8611,1.289969]}} 
{"id": "8910293723","server": "7357","farm": "8","userId": "58964175@N06","secret": "a98d27d1d0","title": "DSCF0652","loc": {"type": "Point","coordinates": [103.8611,1.289969]}} 
{"id": "8910288803","server": "3798","farm": "4","userId": "58964175@N06","secret": "a6ecfe474d","title": "DSCF0655","loc": {"type": "Point","coordinates": [103.8611,1.289969]}} 
{"id": "8911459192","server": "2885","farm": "3","userId": "58964175@N06","secret": "97494c1b07","title": "DSCF0842","loc": {"type": "Point","coordinates": [103.86298,1.28954]}} 
{"id": "8910839909","server": "8119","farm": "9","userId": "58964175@N06","secret": "602a639d29","title": "DSCF0839","loc": {"type": "Point","coordinates": [103.86298,1.28954]}} 
{"id": "8910847837","server": "8257","farm": "9","userId": "58964175@N06","secret": "6e10617f4f","title": "DSCF0833","loc": {"type": "Point","coordinates": [103.86298,1.28954]}} 
{"id": "8910710899","server": "2890","farm": "3","userId": "58964175@N06","secret": "56d9a930bc","title": "DSCF0688","loc": {"type": "Point","coordinates": [103.86298,1.28954]}} 
{"id": "8910900432","server": "7333","farm": "8","userId": "58964175@N06","secret": "cecce55269","title": "DSCF0663","loc": {"type": "Point","coordinates": [103.8611,1.289969]}} 
{"id": "8910932160","server": "7413","farm": "8","userId": "58964175@N06","secret": "c33c28c762","title": "DSCF0643","loc": {"type": "Point","coordinates": [103.8611,1.289969]}} 
{"id": "8910293723","server": "7357","farm": "8","userId": "58964175@N06","secret": "a98d27d1d0","title": "DSCF0652","loc": {"type": "Point","coordinates": [103.8611,1.289969]}} 
{"id": "8910288803","server": "3798","farm": "4","userId": "58964175@N06","secret": "a6ecfe474d","title": "DSCF0655","loc": {"type": "Point","coordinates": [103.8611,1.289969]}} 
{"id": "8911169602","server": "7453","farm": "8","userId": "12661118@N07","secret": "a7ecc079f4","title": "Only in #singapore","loc": {"type": "Point","coordinates": [103.8606,1.28748]}} 
{"id": "8911179790","server": "3690","farm": "4","userId": "12661118@N07","secret": "5370758485","title": "Only in #singapore","loc": {"type": "Point","coordinates": [103.8606,1.28748]}} 
{"id": "8907237767","server": "7365","farm": "8","userId": "12661118@N07","secret": "5c59705445","title": "Lemau, lack of training, pay the price, kaki sakit haha #sundown #singapore #me","loc": {"type": "Point","coordinates": [103.86422,1.289611]}} 
{"id": "8869913577","server": "2876","farm": "3","userId": "81436485@N00","secret": "b3b6546f31","title": "Singapore Flyer","loc": {"type": "Point","coordinates": [103.863434,1.288648]}} 
{"id": "8855168887","server": "7368","farm": "8","userId": "81436485@N00","secret": "9c3ccf1c6e","title": "The sculpture","loc": {"type": "Point","coordinates": [103.85985,1.289679]}} 
{"id": "8780640553","server": "3683","farm": "4","userId": "12812990@N00","secret": "51ebaaa7d9","title": "Wakeboarding","loc": {"type": "Point","coordinates": [103.8602,1.288719]}} 
{"id": "8741569618","server": "7285","farm": "8","userId": "12709933@N00","secret": "001b02d35f","title": "Garden by the bay","loc": {"type": "Point","coordinates": [103.863945,1.287758]}} 
{"id": "8728370502","server": "7362","farm": "8","userId": "34811143@N00","secret": "8991478fb4","title": "Cycling around Singapore, 1st Attempt - 11 May 2013","loc": {"type": "Point","coordinates": [103.86083,1.288055]}} 
{"id": "8727251647","server": "7438","farm": "8","userId": "34811143@N00","secret": "3bc9a92cc3","title": "Cycling around Singapore, 1st Attempt - 11 May 2013","loc": {"type": "Point","coordinates": [103.86083,1.288055]}} 
{"id": "8727251815","server": "7312","farm": "8","userId": "34811143@N00","secret": "0147b32ddc","title": "Cycling around Singapore, 1st Attempt - 11 May 2013","loc": {"type": "Point","coordinates": [103.86056,1.287777]}} 
{"id": "8726335127","server": "7341","farm": "8","userId": "69735666@N07","secret": "82c1e8eec4","title": "Rainforest Discovery area at base of Flyer","loc": {"type": "Point","coordinates": [103.86211,1.288728]}} 
{"id": "8726335455","server": "7368","farm": "8","userId": "69735666@N07","secret": "170fc7b772","title": "","loc": {"type": "Point","coordinates": [103.86239,1.288786]}} 
{"id": "8708394517","server": "8397","farm": "9","userId": "87177626@N05","secret": "4b4f4c757c","title": "Marina Bay, Singapore (3)","loc": {"type": "Point","coordinates": [103.86009,1.289152]}} 
{"id": "8694884533","server": "8248","farm": "9","userId": "89542747@N03","secret": "c15093f788","title": "so many icons","loc": {"type": "Point","coordinates": [103.8596,1.288896]}} 
{"id": "8694885421","server": "8523","farm": "9","userId": "89542747@N03","secret": "83f3d5e450","title": "more avatar","loc": {"type": "Point","coordinates": [103.8623,1.288574]}} 
{"id": "8684130297","server": "8535","farm": "9","userId": "8687765@N02","secret": "cf657bdbef","title": "B13I1872","loc": {"type": "Point","coordinates": [103.86406,1.290076]}} 
{"id": "8684126171","server": "8527","farm": "9","userId": "8687765@N02","secret": "a49a2fdabb","title": "Guess Who?","loc": {"type": "Point","coordinates": [103.86406,1.290076]}} 
{"id": "8684131665","server": "8540","farm": "9","userId": "8687765@N02","secret": "2a21d89586","title": "B13I1984","loc": {"type": "Point","coordinates": [103.86406,1.290076]}} 
{"id": "8684134595","server": "8405","farm": "9","userId": "8687765@N02","secret": "b8cc77d316","title": "Here We Go","loc": {"type": "Point","coordinates": [103.86406,1.290076]}} 
{"id": "8685244180","server": "8401","farm": "9","userId": "8687765@N02","secret": "34f63b03b7","title": "OCBC Cycling Pro","loc": {"type": "Point","coordinates": [103.86406,1.290076]}} 
{"id": "8684129443","server": "8265","farm": "9","userId": "8687765@N02","secret": "349559a826","title": "Cornering at Speed","loc": {"type": "Point","coordinates": [103.86406,1.290076]}} 
{"id": "8684125295","server": "8261","farm": "9","userId": "8687765@N02","secret": "94afa41430","title": "Dinah Chan Wins Women's Open Criterium","loc": {"type": "Point","coordinates": [103.86406,1.290076]}} 
{"id": "8685253226","server": "8535","farm": "9","userId": "8687765@N02","secret": "bdcea79dc7","title": "Team Riding","loc": {"type": "Point","coordinates": [103.86406,1.290076]}} 
{"id": "8685245580","server": "8540","farm": "9","userId": "8687765@N02","secret": "0e94eca37f","title": "Orica Greenedge","loc": {"type": "Point","coordinates": [103.86406,1.290076]}} 
{"id": "8684130939","server": "8260","farm": "9","userId": "8687765@N02","secret": "b61a8ee016","title": "Shadow Cycle #2","loc": {"type": "Point","coordinates": [103.86406,1.290076]}} 
{"id": "8685248650","server": "8403","farm": "9","userId": "8687765@N02","secret": "a71a0af352","title": "OCBC Cycle Pro Criterium 2013","loc": {"type": "Point","coordinates": [103.86406,1.290076]}} 
{"id": "8685242528","server": "8256","farm": "9","userId": "8687765@N02","secret": "ee44b2368f","title": "OCBC Supporting Singapore Sports","loc": {"type": "Point","coordinates": [103.86406,1.290076]}} 
{"id": "8684128393","server": "8531","farm": "9","userId": "8687765@N02","secret": "4d1fe45142","title": "O'Grady in Singapore","loc": {"type": "Point","coordinates": [103.86406,1.290076]}} 
{"id": "8684131777","server": "8519","farm": "9","userId": "8687765@N02","secret": "2e6c23551c","title": "Shadow Cycle #6","loc": {"type": "Point","coordinates": [103.86406,1.290076]}} 
{"id": "8684124601","server": "8396","farm": "9","userId": "8687765@N02","secret": "2215b363ce","title": "Cervelo @ OCBC Cycle 2013","loc": {"type": "Point","coordinates": [103.86406,1.290076]}} 
{"id": "8910922528","server": "7406","farm": "8","userId": "58964175@N06","secret": "984ec28411","title": "DSCF0649","loc": {"type": "Point","coordinates": [103.8611,1.289969]}} 
{"id": "8910903956","server": "5450","farm": "6","userId": "58964175@N06","secret": "a776817bc4","title": "DSCF0661","loc": {"type": "Point","coordinates": [103.8611,1.289969]}} 
{"id": "8910935182","server": "5459","farm": "6","userId": "58964175@N06","secret": "394c1345df","title": "DSCF0641","loc": {"type": "Point","coordinates": [103.8611,1.289969]}} 
{"id": "8910915762","server": "2856","farm": "3","userId": "58964175@N06","secret": "8c8e0bcbe8","title": "DSCF0653","loc": {"type": "Point","coordinates": [103.8611,1.289969]}} 
{"id": "8910303761","server": "8416","farm": "9","userId": "58964175@N06","secret": "5bb0a866d4","title": "DSCF0646","loc": {"type": "Point","coordinates": [103.8611,1.289969]}} 
{"id": "8910286323","server": "7350","farm": "8","userId": "58964175@N06","secret": "654c402946","title": "DSCF0657","loc": {"type": "Point","coordinates": [103.8611,1.289969]}} 
{"id": "8910919320","server": "7310","farm": "8","userId": "58964175@N06","secret": "089d8d2855","title": "DSCF0651","loc": {"type": "Point","coordinates": [103.8611,1.289969]}} 
{"id": "8910307039","server": "5469","farm": "6","userId": "58964175@N06","secret": "d52ddf61d5","title": "DSCF0644","loc": {"type": "Point","coordinates": [103.8611,1.289969]}} 
{"id": "8910925878","server": "2836","farm": "3","userId": "58964175@N06","secret": "f543ba67e3","title": "DSCF0647","loc": {"type": "Point","coordinates": [103.8611,1.289969]}} 
{"id": "8910297171","server": "2848","farm": "3","userId": "58964175@N06","secret": "0c2ef64e4f","title": "DSCF0650","loc": {"type": "Point","coordinates": [103.8611,1.289969]}} 
{"id": "8910781652","server": "7364","farm": "8","userId": "58964175@N06","secret": "7548f0ef66","title": "DSCF0829","loc": {"type": "Point","coordinates": [103.8611,1.289969]}} 
{"id": "8910285073","server": "7333","farm": "8","userId": "58964175@N06","secret": "5abbac85ae","title": "DSCF0658","loc": {"type": "Point","coordinates": [103.8611,1.289969]}} 
{"id": "8910160673","server": "8266","farm": "9","userId": "58964175@N06","secret": "6e47e6ae03","title": "DSCF0828","loc": {"type": "Point","coordinates": [103.8611,1.289969]}} 
{"id": "8910281983","server": "5449","farm": "6","userId": "58964175@N06","secret": "243bf1c134","title": "DSCF0660","loc": {"type": "Point","coordinates": [103.8611,1.289969]}} 
{"id": "8910287437","server": "2807","farm": "3","userId": "58964175@N06","secret": "0413b50dfd","title": "DSCF0656","loc": {"type": "Point","coordinates": [103.8611,1.289969]}} 
{"id": "8910290269","server": "7404","farm": "8","userId": "58964175@N06","secret": "e7c0f6abd5","title": "DSCF0654","loc": {"type": "Point","coordinates": [103.8611,1.289969]}} 
{"id": "8910312673","server": "7445","farm": "8","userId": "58964175@N06","secret": "9b8a8b4182","title": "DSCF0640","loc": {"type": "Point","coordinates": [103.8611,1.289969]}} 
{"id": "8910300359","server": "2818","farm": "3","userId": "58964175@N06","secret": "3e4238bcef","title": "DSCF0648","loc": {"type": "Point","coordinates": [103.8611,1.289969]}} 
{"id": "8910278739","server": "8122","farm": "9","userId": "58964175@N06","secret": "9d52f50000","title": "DSCF0662","loc": {"type": "Point","coordinates": [103.8611,1.289969]}} 
{"id": "8910305349","server": "5345","farm": "6","userId": "58964175@N06","secret": "ac4c0d861c","title": "DSCF0645","loc": {"type": "Point","coordinates": [103.8611,1.289969]}} 
{"id": "8910411356","server": "3815","farm": "4","userId": "12661118@N07","secret": "a39fc7e0a1","title": "#sundown #marathon  #singapore  #hm","loc": {"type": "Point","coordinates": [103.86422,1.289611]}} 
{"id": "8908926668","server": "8551","farm": "9","userId": "10451744@N06","secret": "aa0cf6cde1","title": "Sundown Marathon 2013","loc": {"type": "Point","coordinates": [103.86417,1.289499]}} 
{"id": "8907260975","server": "3739","farm": "4","userId": "12661118@N07","secret": "4b72a1cec1","title": "#sundown #marathon #singapore #penat","loc": {"type": "Point","coordinates": [103.86422,1.289611]}} 
{"id": "8907870832","server": "7317","farm": "8","userId": "12661118@N07","secret": "416204434e","title": "Starting line #sundown #marathon #singapore #semimarathon #hm #21km","loc": {"type": "Point","coordinates": [103.86422,1.289611]}} 
{"id": "8905836564","server": "7368","farm": "8","userId": "24989432@N06","secret": "281af32936","title": "After ☺","loc": {"type": "Point","coordinates": [103.86422,1.289611]}} 
{"id": "8904888782","server": "3812","farm": "4","userId": "49098167@N07","secret": "9e50932626","title": "Finishers of the Sundown 10km Run :)","loc": {"type": "Point","coordinates": [103.86422,1.289611]}} 
{"id": "8901410187","server": "2865","farm": "3","userId": "64441505@N07","secret": "10f4dba05d","title": "and I soar through a world that is new that is free","loc": {"type": "Point","coordinates": [103.8606,1.28748]}} 
{"id": "8894873016","server": "5322","farm": "6","userId": "9523596@N05","secret": "2049787119","title": "The Marina Bay Esplanade at night, Singapore","loc": {"type": "Point","coordinates": [103.860275,1.288802]}} 
{"id": "8891623020","server": "7453","farm": "8","userId": "19282426@N00","secret": "ed2aa99e50","title": "Night skyline view from the spore flyer","loc": {"type": "Point","coordinates": [103.86308,1.289357]}} 
{"id": "8889181774","server": "3826","farm": "4","userId": "19282426@N00","secret": "0b673b03e4","title": "They tried #singaporefoodtrail","loc": {"type": "Point","coordinates": [103.86297,1.289583]}} 
{"id": "8888497319","server": "3713","farm": "4","userId": "19282426@N00","secret": "a3cae06ab5","title": "$1.80! No wonder the business is bad","loc": {"type": "Point","coordinates": [103.86297,1.289583]}} 
{"id": "8883321425","server": "5444","farm": "6","userId": "94798923@N05","secret": "21ba53e38a","title": "","loc": {"type": "Point","coordinates": [103.86017,1.289]}} 
{"id": "8880707330","server": "7417","farm": "8","userId": "65988653@N00","secret": "e08c127a56","title": "Marina Bay","loc": {"type": "Point","coordinates": [103.86055,1.287611]}} 
{"id": "8878679556","server": "8255","farm": "9","userId": "35468141938@N01","secret": "3a2fd23897","title": "Office dwellers by day. Urban warriors by night.","loc": {"type": "Point","coordinates": [103.8606,1.28748]}} 
{"id": "8877030071","server": "3797","farm": "4","userId": "65611342@N00","secret": "c3cc26353e","title": "trip asia 2012","loc": {"type": "Point","coordinates": [103.86039,1.288671]}} 
{"id": "8865638500","server": "3715","farm": "4","userId": "32486306@N03","secret": "3980b37cc5","title": "IMG_0407","loc": {"type": "Point","coordinates": [103.85983,1.289]}} 
{"id": "8865635834","server": "3725","farm": "4","userId": "32486306@N03","secret": "4cb4c7d958","title": "IMG_0405","loc": {"type": "Point","coordinates": [103.859665,1.288333]}} 
{"id": "8865002005","server": "7423","farm": "8","userId": "32486306@N03","secret": "f93a1f54dc","title": "IMG_0399","loc": {"type": "Point","coordinates": [103.86217,1.289166]}} 
{"id": "8865003325","server": "3831","farm": "4","userId": "32486306@N03","secret": "693efc4363","title": "IMG_0400","loc": {"type": "Point","coordinates": [103.862335,1.289333]}} 
{"id": "8864975609","server": "2860","farm": "3","userId": "32486306@N03","secret": "8aae786693","title": "IMG_0393","loc": {"type": "Point","coordinates": [103.862335,1.289166]}} 
{"id": "8865619954","server": "5338","farm": "6","userId": "32486306@N03","secret": "2ff6642e6d","title": "IMG_0402","loc": {"type": "Point","coordinates": [103.86083,1.289]}} 
{"id": "8865573346","server": "8399","farm": "9","userId": "32486306@N03","secret": "13af2cb92f","title": "IMG_0391","loc": {"type": "Point","coordinates": [103.85983,1.289]}} 
{"id": "8864985205","server": "5469","farm": "6","userId": "32486306@N03","secret": "ac7df444f1","title": "IMG_0396","loc": {"type": "Point","coordinates": [103.862335,1.289999]}} 
{"id": "8864970075","server": "7299","farm": "8","userId": "32486306@N03","secret": "5e71ef9e7b","title": "IMG_0392","loc": {"type": "Point","coordinates": [103.86217,1.289166]}} 
{"id": "8865568514","server": "3768","farm": "4","userId": "32486306@N03","secret": "84350b5bd8","title": "IMG_0390","loc": {"type": "Point","coordinates": [103.8595,1.288333]}} 
{"id": "8864898463","server": "3708","farm": "4","userId": "32486306@N03","secret": "32b3db80da","title": "IMG_0381","loc": {"type": "Point","coordinates": [103.86017,1.2885]}} 
{"id": "8864937693","server": "7440","farm": "8","userId": "32486306@N03","secret": "f07dc9aa0d","title": "IMG_0387","loc": {"type": "Point","coordinates": [103.86,1.288166]}} 
{"id": "8864918793","server": "3669","farm": "4","userId": "32486306@N03","secret": "8739eff1b1","title": "IMG_0384","loc": {"type": "Point","coordinates": [103.86017,1.2885]}} 
{"id": "8865513610","server": "7375","farm": "8","userId": "32486306@N03","secret": "b27227f683","title": "IMG_0382","loc": {"type": "Point","coordinates": [103.86,1.2885]}} 
{"id": "8851244568","server": "8280","farm": "9","userId": "33938770@N05","secret": "d701c08039","title": "Lotus Flowers and Reflection of Singapore Skyline","loc": {"type": "Point","coordinates": [103.861916,1.287695]}} 
{"id": "8850604869","server": "5339","farm": "6","userId": "33938770@N05","secret": "a82f5d884b","title": "Danny on Helix Bridge With Marina Bay Sands and ArtScience Museum in Background, Singapore","loc": {"type": "Point","coordinates": [103.86187,1.287909]}} 
{"id": "8848773145","server": "5342","farm": "6","userId": "31283968@N02","secret": "7fc9f0cf3e","title": "The new Canon S100 + trial shot","loc": {"type": "Point","coordinates": [103.86221,1.2887]}} 
{"id": "8848772539","server": "7336","farm": "8","userId": "31283968@N02","secret": "ff8ea34dba","title": "The new Canon S100 + trial shot","loc": {"type": "Point","coordinates": [103.86223,1.288705]}} 
{"id": "8848774181","server": "3694","farm": "4","userId": "31283968@N02","secret": "66ffac06a2","title": "The new Canon S100 + trial shot","loc": {"type": "Point","coordinates": [103.86221,1.2887]}} 
{"id": "8848771443","server": "3698","farm": "4","userId": "31283968@N02","secret": "d01f84ab76","title": "The new Canon S100 + trial shot","loc": {"type": "Point","coordinates": [103.86221,1.288713]}} 
{"id": "8848771975","server": "2826","farm": "3","userId": "31283968@N02","secret": "fa7c20ffaa","title": "The new Canon S100 + trial shot","loc": {"type": "Point","coordinates": [103.86223,1.288705]}} 
{"id": "8848770967","server": "5448","farm": "6","userId": "31283968@N02","secret": "4de5663c26","title": "The new Canon S100 + trial shot","loc": {"type": "Point","coordinates": [103.86221,1.288705]}} 
{"id": "8848767935","server": "3710","farm": "4","userId": "31283968@N02","secret": "4041feaff5","title": "The new Canon S100 + trial shot","loc": {"type": "Point","coordinates": [103.862946,1.289563]}} 
{"id": "8848767333","server": "3776","farm": "4","userId": "31283968@N02","secret": "d8f001986e","title": "The new Canon S100 + trial shot","loc": {"type": "Point","coordinates": [103.86322,1.289466]}} 
{"id": "8848765769","server": "5345","farm": "6","userId": "31283968@N02","secret": "5f6aabbb62","title": "The new Canon S100 + trial shot","loc": {"type": "Point","coordinates": [103.86318,1.289622]}} 
{"id": "8849388634","server": "7356","farm": "8","userId": "31283968@N02","secret": "c088586c6b","title": "The new Canon S100 + trial shot","loc": {"type": "Point","coordinates": [103.862236,1.288711]}} 
{"id": "8849389596","server": "5324","farm": "6","userId": "31283968@N02","secret": "e2e5957ee7","title": "The new Canon S100 + trial shot","loc": {"type": "Point","coordinates": [103.862206,1.288711]}} 
{"id": "8849386180","server": "3680","farm": "4","userId": "31283968@N02","secret": "2e530268b7","title": "The new Canon S100 + trial shot","loc": {"type": "Point","coordinates": [103.8633,1.289458]}} 
{"id": "8848766315","server": "7457","farm": "8","userId": "31283968@N02","secret": "96fae28969","title": "The new Canon S100 + trial shot","loc": {"type": "Point","coordinates": [103.86325,1.289513]}} 
{"id": "8848581090","server": "3694","farm": "4","userId": "94798923@N05","secret": "79e44a9d1a","title": "Singapore","loc": {"type": "Point","coordinates": [103.86183,1.288833]}} 
{"id": "8848591300","server": "3733","farm": "4","userId": "94798923@N05","secret": "f5e90ee298","title": "Singapore","loc": {"type": "Point","coordinates": [103.861,1.287499]}} 
{"id": "8847984989","server": "5341","farm": "6","userId": "94798923@N05","secret": "34f36b98de","title": "Singapore","loc": {"type": "Point","coordinates": [103.861,1.287499]}} 
{"id": "8848526268","server": "2868","farm": "3","userId": "94798923@N05","secret": "d0fd4b6745","title": "Singapore","loc": {"type": "Point","coordinates": [103.86017,1.288666]}} 
{"id": "8847915453","server": "5328","farm": "6","userId": "94798923@N05","secret": "ca7f5884a0","title": "Singapore","loc": {"type": "Point","coordinates": [103.86183,1.288666]}} 
{"id": "8822904904","server": "7301","farm": "8","userId": "96406011@N08","secret": "5da33cb333","title": "IMG_3444_DxO","loc": {"type": "Point","coordinates": [103.863235,1.289647]}} 
{"id": "8822901680","server": "8394","farm": "9","userId": "96406011@N08","secret": "bc0530f63f","title": "IMG_3423_DxO","loc": {"type": "Point","coordinates": [103.86052,1.287469]}} 
{"id": "8807158859","server": "2824","farm": "3","userId": "43554012@N00","secret": "9c5f0f14ae","title": "Marina Bay Sands","loc": {"type": "Point","coordinates": [103.863235,1.289388]}} 
{"id": "8801447239","server": "3745","farm": "4","userId": "31620456@N05","secret": "cb83b56603","title": "Marina Bay Sands","loc": {"type": "Point","coordinates": [103.8602,1.288842]}} 
{"id": "8800262621","server": "3752","farm": "4","userId": "35109767@N05","secret": "6f3168c47b","title": "","loc": {"type": "Point","coordinates": [103.86271,1.289152]}} 
{"id": "8810847080","server": "5464","farm": "6","userId": "35109767@N05","secret": "860a457ec0","title": "","loc": {"type": "Point","coordinates": [103.86271,1.289152]}} 
{"id": "8799863393","server": "8131","farm": "9","userId": "12117246@N05","secret": "8b25986ea3","title": "Duck Tour Pro","loc": {"type": "Point","coordinates": [103.86308,1.289357]}} 
{"id": "8787336108","server": "3737","farm": "4","userId": "43554012@N00","secret": "e6b2df9115","title": "Marina Bay Sands","loc": {"type": "Point","coordinates": [103.863235,1.289388]}} 
{"id": "8774238446","server": "8277","farm": "9","userId": "38276735@N04","secret": "3f516b7828","title": "IMG_2957","loc": {"type": "Point","coordinates": [103.86317,1.289166]}} 
{"id": "8767885454","server": "2877","farm": "3","userId": "97236816@N00","secret": "ae537371d4","title": "Singapore","loc": {"type": "Point","coordinates": [103.86038,1.288541]}} 
{"id": "8767901630","server": "2837","farm": "3","userId": "97236816@N00","secret": "6fa8c3d54f","title": "Singapore","loc": {"type": "Point","coordinates": [103.85996,1.287866]}} 
{"id": "8765117403","server": "2867","farm": "3","userId": "97236816@N00","secret": "09c7796725","title": "Singapore","loc": {"type": "Point","coordinates": [103.860466,1.287844]}} 
{"id": "8764232018","server": "3779","farm": "4","userId": "95963385@N07","secret": "b4b21556b8","title": "IMG_1262","loc": {"type": "Point","coordinates": [103.8606,1.289066]}} 
{"id": "8763006761","server": "7344","farm": "8","userId": "45265198@N07","secret": "e36de8025f","title": "An aerial view of the Singapore Flyer","loc": {"type": "Point","coordinates": [103.86308,1.289357]}} 
{"id": "8761417510","server": "8403","farm": "9","userId": "62816734@N00","secret": "2569aa00cf","title": "DSC_1689","loc": {"type": "Point","coordinates": [103.86052,1.288875]}} 
{"id": "8761429034","server": "7433","farm": "8","userId": "62816734@N00","secret": "9e278a567c","title": "DSC_1730","loc": {"type": "Point","coordinates": [103.86052,1.288875]}} 
{"id": "8760118281","server": "7415","farm": "8","userId": "78165875@N07","secret": "804fd2dbbd","title": "Helix.","loc": {"type": "Point","coordinates": [103.8606,1.28748]}} 
{"id": "8761236010","server": "7447","farm": "8","userId": "78165875@N07","secret": "ffcb435abd","title": "Marina.","loc": {"type": "Point","coordinates": [103.859695,1.289321]}} 
{"id": "8761139126","server": "3735","farm": "4","userId": "95165424@N08","secret": "181554fb79","title": "Bridge Marina Bay","loc": {"type": "Point","coordinates": [103.86088,1.289734]}} 
{"id": "8758098472","server": "8258","farm": "9","userId": "39711612@N05","secret": "4c7f8c6d07","title": "Sunrise2013--3","loc": {"type": "Point","coordinates": [103.86184,1.289111]}} 
{"id": "8757701626","server": "8127","farm": "9","userId": "63209542@N08","secret": "ccef62dc63","title": "Sunset over the city","loc": {"type": "Point","coordinates": [103.861496,1.287833]}} 
{"id": "8748705311","server": "8274","farm": "9","userId": "49889859@N07","secret": "07f05d1a08","title": "Singapore Flyer","loc": {"type": "Point","coordinates": [103.8626,1.289711]}} 
{"id": "8748594898","server": "8536","farm": "9","userId": "67433276@N05","secret": "1fb2208906","title": "iPhoto","loc": {"type": "Point","coordinates": [103.86055,1.28792]}} 
{"id": "8748591074","server": "8560","farm": "9","userId": "67433276@N05","secret": "dc62186c02","title": "Marina Bay Sands","loc": {"type": "Point","coordinates": [103.86116,1.288778]}} 
{"id": "8747467403","server": "8538","farm": "9","userId": "67433276@N05","secret": "018e6153d9","title": "Marina Bay Sands","loc": {"type": "Point","coordinates": [103.86,1.289003]}} 
{"id": "8747365903","server": "7297","farm": "8","userId": "66883888@N00","secret": "741d89dc42","title": "upload","loc": {"type": "Point","coordinates": [103.8632,1.289279]}} 
{"id": "8746516455","server": "7297","farm": "8","userId": "89257612@N00","secret": "cf70996892","title": "Marina Bay","loc": {"type": "Point","coordinates": [103.86319,1.289347]}} 
