{"id": "9215965482","server": "7346","farm": "8","userId": "33370793@N02","secret": "f3c1e30bbb","title": "Balloons","loc": {"type": "Point","coordinates": [103.86494,1.284734]}} 
{"id": "9131539003","server": "7442","farm": "8","userId": "33370793@N02","secret": "622981dc33","title": "Cloud Forest Waterfall","loc": {"type": "Point","coordinates": [103.86537,1.284241]}} 
{"id": "8923612602","server": "8257","farm": "9","userId": "57735144@N08","secret": "35c3862f31","title": "Sunset at Marina Bay","loc": {"type": "Point","coordinates": [103.86953,1.287242]}} 
{"id": "8837796179","server": "7428","farm": "8","userId": "57735144@N08","secret": "6a08a3e00e","title": "Tulipmania @ The Flower Dome","loc": {"type": "Point","coordinates": [103.86483,1.284477]}} 
{"id": "8837797909","server": "3681","farm": "4","userId": "57735144@N08","secret": "23714b67f8","title": "Tulipmania @ The Flower Dome","loc": {"type": "Point","coordinates": [103.86483,1.284477]}} 
{"id": "8838425692","server": "5470","farm": "6","userId": "57735144@N08","secret": "b96d5e97b4","title": "Tulipmania @ The Flower Dome","loc": {"type": "Point","coordinates": [103.86483,1.284477]}} 
{"id": "8837799237","server": "2834","farm": "3","userId": "57735144@N08","secret": "99872d375a","title": "Tulipmania @ The Flower Dome","loc": {"type": "Point","coordinates": [103.86483,1.284477]}} 
{"id": "8837800585","server": "8540","farm": "9","userId": "57735144@N08","secret": "d75351180d","title": "Tulipmania @ The Flower Dome","loc": {"type": "Point","coordinates": [103.86483,1.284477]}} 
{"id": "8838424106","server": "2848","farm": "3","userId": "57735144@N08","secret": "4062400d87","title": "Tulipmania @ The Flower Dome","loc": {"type": "Point","coordinates": [103.86483,1.284477]}} 
{"id": "8831659016","server": "8558","farm": "9","userId": "79102856@N00","secret": "4916721c9d","title": "Wedding/Honeymoon","loc": {"type": "Point","coordinates": [103.865,1.2845]}} 
{"id": "8812695795","server": "8545","farm": "9","userId": "57735144@N08","secret": "bdc6872326","title": "Tulipmania @ The Flower Dome","loc": {"type": "Point","coordinates": [103.86483,1.284477]}} 
{"id": "8763482395","server": "8541","farm": "9","userId": "57735144@N08","secret": "0db2911805","title": "Tulipmania @ The Flower Dome","loc": {"type": "Point","coordinates": [103.86483,1.284477]}} 
{"id": "8753324683","server": "7353","farm": "8","userId": "57735144@N08","secret": "ff3e649ab0","title": "Sunset at Marina Bay","loc": {"type": "Point","coordinates": [103.86953,1.287242]}} 
{"id": "8754449980","server": "5340","farm": "6","userId": "57735144@N08","secret": "3f3786f7b1","title": "Sunset at Marina Bay","loc": {"type": "Point","coordinates": [103.86953,1.287242]}} 
{"id": "8754450592","server": "5441","farm": "6","userId": "57735144@N08","secret": "e1e465cf03","title": "Sunset at Marina Bay","loc": {"type": "Point","coordinates": [103.86953,1.287242]}} 
{"id": "8754449594","server": "3677","farm": "4","userId": "57735144@N08","secret": "9eb3165342","title": "Panoramic View of Marina Bay at Sunset","loc": {"type": "Point","coordinates": [103.86953,1.287242]}} 
{"id": "8740472691","server": "7286","farm": "8","userId": "12709933@N00","secret": "685533ddbf","title": "Garden by the bay","loc": {"type": "Point","coordinates": [103.86559,1.284291]}} 
{"id": "8729779327","server": "7390","farm": "8","userId": "20398757@N02","secret": "3af4344793","title": "P5110118","loc": {"type": "Point","coordinates": [103.86511,1.284462]}} 
{"id": "8701263731","server": "8395","farm": "9","userId": "20398757@N02","secret": "422d27f4a1","title": "P5010024","loc": {"type": "Point","coordinates": [103.86511,1.284462]}} 
{"id": "8702387228","server": "8536","farm": "9","userId": "20398757@N02","secret": "98f0275271","title": "P5010002","loc": {"type": "Point","coordinates": [103.86511,1.284462]}} 
{"id": "8699090186","server": "8417","farm": "9","userId": "32056890@N07","secret": "a63f8368f9","title": "Sunrise At Marina","loc": {"type": "Point","coordinates": [103.86483,1.284691]}} 
{"id": "8694835440","server": "8259","farm": "9","userId": "32056890@N07","secret": "7528786ffe","title": "Garden by The Bay Sunrise","loc": {"type": "Point","coordinates": [103.865005,1.284606]}} 
{"id": "9333960867","server": "5530","farm": "6","userId": "14475189@N00","secret": "19ece09983","title": "Shot Using iPhone 5","loc": {"type": "Point","coordinates": [103.86512,1.28423]}} 
{"id": "9331233553","server": "5549","farm": "6","userId": "29406066@N00","secret": "3ed51ceb26","title": "IMG_2269e","loc": {"type": "Point","coordinates": [103.86483,1.284666]}} 
{"id": "9302616241","server": "3698","farm": "4","userId": "96738935@N00","secret": "8fd0928659","title": "IMG_1109","loc": {"type": "Point","coordinates": [103.86483,1.284666]}} 
{"id": "9305404528","server": "5519","farm": "6","userId": "96738935@N00","secret": "a371259bb4","title": "IMG_1083","loc": {"type": "Point","coordinates": [103.86483,1.284666]}} 
{"id": "9302630569","server": "2865","farm": "3","userId": "96738935@N00","secret": "a0a4c1729b","title": "IMG_1054","loc": {"type": "Point","coordinates": [103.86483,1.284666]}} 
{"id": "9302626123","server": "7321","farm": "8","userId": "96738935@N00","secret": "ba1d7a7e3b","title": "IMG_1070","loc": {"type": "Point","coordinates": [103.86483,1.284666]}} 
{"id": "9305410568","server": "7339","farm": "8","userId": "96738935@N00","secret": "239d3c9d08","title": "IMG_1060","loc": {"type": "Point","coordinates": [103.86483,1.284666]}} 
{"id": "9305411364","server": "7331","farm": "8","userId": "96738935@N00","secret": "561619618c","title": "IMG_1057","loc": {"type": "Point","coordinates": [103.86483,1.284666]}} 
{"id": "9305407996","server": "7404","farm": "8","userId": "96738935@N00","secret": "7b00342b5c","title": "IMG_1069","loc": {"type": "Point","coordinates": [103.86483,1.284666]}} 
{"id": "9305399710","server": "5445","farm": "6","userId": "96738935@N00","secret": "a2229a2d97","title": "IMG_1100","loc": {"type": "Point","coordinates": [103.86483,1.284666]}} 
{"id": "9302623159","server": "2877","farm": "3","userId": "96738935@N00","secret": "32c35c3740","title": "IMG_1082","loc": {"type": "Point","coordinates": [103.86483,1.284666]}} 
{"id": "9302623435","server": "7317","farm": "8","userId": "96738935@N00","secret": "59c96d0431","title": "IMG_1080","loc": {"type": "Point","coordinates": [103.86483,1.284666]}} 
{"id": "9302615833","server": "2835","farm": "3","userId": "96738935@N00","secret": "43698e8a2b","title": "IMG_1110","loc": {"type": "Point","coordinates": [103.86483,1.284666]}} 
{"id": "9302625303","server": "7353","farm": "8","userId": "96738935@N00","secret": "1b9f7cf52d","title": "IMG_1073","loc": {"type": "Point","coordinates": [103.86483,1.284666]}} 
{"id": "9305405474","server": "2827","farm": "3","userId": "96738935@N00","secret": "849298fdec","title": "IMG_1078","loc": {"type": "Point","coordinates": [103.86483,1.284666]}} 
{"id": "9305404656","server": "7426","farm": "8","userId": "96738935@N00","secret": "714d621966","title": "IMG_1081","loc": {"type": "Point","coordinates": [103.86483,1.284666]}} 
{"id": "9305406176","server": "5458","farm": "6","userId": "96738935@N00","secret": "5fbdf2cc0b","title": "IMG_1075","loc": {"type": "Point","coordinates": [103.86483,1.284666]}} 
{"id": "9302591183","server": "2817","farm": "3","userId": "96738935@N00","secret": "dc8962b6da","title": "IMG_1077","loc": {"type": "Point","coordinates": [103.86483,1.284666]}} 
{"id": "9302622257","server": "7291","farm": "8","userId": "96738935@N00","secret": "cbf6d81f20","title": "IMG_1087","loc": {"type": "Point","coordinates": [103.86483,1.284666]}} 
{"id": "9302618779","server": "3675","farm": "4","userId": "96738935@N00","secret": "c65277ca31","title": "IMG_1098","loc": {"type": "Point","coordinates": [103.86483,1.284666]}} 
{"id": "9302621527","server": "3788","farm": "4","userId": "96738935@N00","secret": "d5c46d33af","title": "IMG_1090","loc": {"type": "Point","coordinates": [103.86483,1.284666]}} 
{"id": "9305394400","server": "7390","farm": "8","userId": "96738935@N00","secret": "c11b409884","title": "IMG_1120","loc": {"type": "Point","coordinates": [103.86483,1.284666]}} 
{"id": "9305396556","server": "5345","farm": "6","userId": "96738935@N00","secret": "2b2845e24b","title": "IMG_1112","loc": {"type": "Point","coordinates": [103.86483,1.284666]}} 
{"id": "9302626883","server": "2816","farm": "3","userId": "96738935@N00","secret": "7a47149bd5","title": "IMG_1067","loc": {"type": "Point","coordinates": [103.86483,1.284666]}} 
{"id": "9302619735","server": "7396","farm": "8","userId": "96738935@N00","secret": "971bf15396","title": "IMG_1095","loc": {"type": "Point","coordinates": [103.86483,1.284666]}} 
{"id": "9302613271","server": "7424","farm": "8","userId": "96738935@N00","secret": "76e1c561fe","title": "IMG_1119","loc": {"type": "Point","coordinates": [103.86483,1.284666]}} 
{"id": "9305393394","server": "2821","farm": "3","userId": "96738935@N00","secret": "3d6659577a","title": "IMG_1123","loc": {"type": "Point","coordinates": [103.86483,1.284666]}} 
{"id": "9302629423","server": "3801","farm": "4","userId": "96738935@N00","secret": "6734cd41c8","title": "IMG_1058","loc": {"type": "Point","coordinates": [103.86483,1.284666]}} 
{"id": "9305404400","server": "7331","farm": "8","userId": "96738935@N00","secret": "3ba433ac18","title": "IMG_1084","loc": {"type": "Point","coordinates": [103.86483,1.284666]}} 
{"id": "9305395904","server": "7352","farm": "8","userId": "96738935@N00","secret": "559bf360f6","title": "IMG_1115","loc": {"type": "Point","coordinates": [103.86483,1.284666]}} 
{"id": "9305403456","server": "5504","farm": "6","userId": "96738935@N00","secret": "40b1917fac","title": "IMG_1088","loc": {"type": "Point","coordinates": [103.86483,1.284666]}} 
{"id": "9305401892","server": "2876","farm": "3","userId": "96738935@N00","secret": "7f89a9c6bb","title": "IMG_1093","loc": {"type": "Point","coordinates": [103.86483,1.284666]}} 
{"id": "9302618539","server": "2807","farm": "3","userId": "96738935@N00","secret": "1c47f2b595","title": "IMG_1099","loc": {"type": "Point","coordinates": [103.86483,1.284666]}} 
{"id": "9305395504","server": "7343","farm": "8","userId": "96738935@N00","secret": "ceacc951a2","title": "IMG_1116","loc": {"type": "Point","coordinates": [103.86483,1.284666]}} 
{"id": "9302627989","server": "7289","farm": "8","userId": "96738935@N00","secret": "8db5be575b","title": "IMG_1063","loc": {"type": "Point","coordinates": [103.86483,1.284666]}} 
{"id": "9305411948","server": "3753","farm": "4","userId": "96738935@N00","secret": "dfbf78cd25","title": "IMG_1055","loc": {"type": "Point","coordinates": [103.86483,1.284666]}} 
{"id": "9305410004","server": "5483","farm": "6","userId": "96738935@N00","secret": "f0761e8451","title": "IMG_1062","loc": {"type": "Point","coordinates": [103.86483,1.284666]}} 
{"id": "9302628597","server": "7395","farm": "8","userId": "96738935@N00","secret": "537a6f8e14","title": "IMG_1061","loc": {"type": "Point","coordinates": [103.86483,1.284666]}} 
{"id": "9302624285","server": "5342","farm": "6","userId": "96738935@N00","secret": "a06c109d1b","title": "IMG_1076","loc": {"type": "Point","coordinates": [103.86483,1.284666]}} 
{"id": "9305393734","server": "7286","farm": "8","userId": "96738935@N00","secret": "978612345a","title": "IMG_1122","loc": {"type": "Point","coordinates": [103.86483,1.284666]}} 
{"id": "9302620841","server": "7454","farm": "8","userId": "96738935@N00","secret": "3266474daa","title": "IMG_1092","loc": {"type": "Point","coordinates": [103.86483,1.284666]}} 
{"id": "9302614739","server": "5487","farm": "6","userId": "96738935@N00","secret": "f16daa771e","title": "IMG_1113","loc": {"type": "Point","coordinates": [103.86483,1.284666]}} 
{"id": "9305410838","server": "7411","farm": "8","userId": "96738935@N00","secret": "e4d4259d33","title": "IMG_1059","loc": {"type": "Point","coordinates": [103.86483,1.284666]}} 
{"id": "9302622489","server": "3767","farm": "4","userId": "96738935@N00","secret": "6a7321d685","title": "IMG_1086","loc": {"type": "Point","coordinates": [103.86483,1.284666]}} 
{"id": "9305399468","server": "7302","farm": "8","userId": "96738935@N00","secret": "daae795507","title": "IMG_1101","loc": {"type": "Point","coordinates": [103.86483,1.284666]}} 
{"id": "9305408256","server": "7431","farm": "8","userId": "96738935@N00","secret": "dcc3b2319a","title": "IMG_1068","loc": {"type": "Point","coordinates": [103.86483,1.284666]}} 
{"id": "9305407244","server": "7343","farm": "8","userId": "96738935@N00","secret": "9033d0757b","title": "IMG_1072","loc": {"type": "Point","coordinates": [103.86483,1.284666]}} 
{"id": "9302619061","server": "3758","farm": "4","userId": "96738935@N00","secret": "1e3d45a61c","title": "IMG_1097","loc": {"type": "Point","coordinates": [103.86483,1.284666]}} 
{"id": "9305407532","server": "5478","farm": "6","userId": "96738935@N00","secret": "a4708dff6e","title": "IMG_1071","loc": {"type": "Point","coordinates": [103.86483,1.284666]}} 
{"id": "9302615461","server": "7343","farm": "8","userId": "96738935@N00","secret": "7a4ddaebcf","title": "IMG_1111","loc": {"type": "Point","coordinates": [103.86483,1.284666]}} 
{"id": "9305411626","server": "7315","farm": "8","userId": "96738935@N00","secret": "c9bea11ff2","title": "IMG_1056","loc": {"type": "Point","coordinates": [103.86483,1.284666]}} 
{"id": "9305403210","server": "2832","farm": "3","userId": "96738935@N00","secret": "c35df6506e","title": "IMG_1089","loc": {"type": "Point","coordinates": [103.86483,1.284666]}} 
{"id": "9305395190","server": "3733","farm": "4","userId": "96738935@N00","secret": "a7e2edbf30","title": "IMG_1117","loc": {"type": "Point","coordinates": [103.86483,1.284666]}} 
{"id": "9305401500","server": "7419","farm": "8","userId": "96738935@N00","secret": "4a1a50b3dc","title": "IMG_1094","loc": {"type": "Point","coordinates": [103.86483,1.284666]}} 
{"id": "9302612623","server": "5461","farm": "6","userId": "96738935@N00","secret": "c4d4d31b01","title": "IMG_1121","loc": {"type": "Point","coordinates": [103.86483,1.284666]}} 
{"id": "9302613613","server": "3764","farm": "4","userId": "96738935@N00","secret": "7e14552be9","title": "IMG_1118","loc": {"type": "Point","coordinates": [103.86483,1.284666]}} 
{"id": "9302617811","server": "7329","farm": "8","userId": "96738935@N00","secret": "58ed08d777","title": "IMG_1102","loc": {"type": "Point","coordinates": [103.86483,1.284666]}} 
{"id": "9272417802","server": "7442","farm": "8","userId": "8960694@N06","secret": "5eab700805","title": "P7090842e","loc": {"type": "Point","coordinates": [103.86998,1.28718]}} 
{"id": "9162716241","server": "5499","farm": "6","userId": "66358983@N07","secret": "8fa224f22b","title": "Hanging On","loc": {"type": "Point","coordinates": [103.869835,1.286666]}} 
{"id": "9129351121","server": "5537","farm": "6","userId": "92870209@N04","secret": "4b9561e492","title": "","loc": {"type": "Point","coordinates": [103.86636,1.284388]}} 
{"id": "9114459322","server": "3770","farm": "4","userId": "41894167963@N01","secret": "31aa527e49","title": "Gardens by the Bay","loc": {"type": "Point","coordinates": [103.8655,1.284666]}} 
{"id": "9034245890","server": "7417","farm": "8","userId": "63369917@N05","secret": "26703c89b7","title": "2013-05-31 14.39.23","loc": {"type": "Point","coordinates": [103.8655,1.2845]}} 
{"id": "9034242442","server": "3778","farm": "4","userId": "63369917@N05","secret": "08363b9336","title": "2013-05-31 16.09.06","loc": {"type": "Point","coordinates": [103.86567,1.284333]}} 
{"id": "9034242236","server": "5457","farm": "6","userId": "63369917@N05","secret": "f1d8902c7c","title": "2013-05-31 16.09.30","loc": {"type": "Point","coordinates": [103.8655,1.284333]}} 
{"id": "9034246878","server": "5489","farm": "6","userId": "63369917@N05","secret": "fa8a6b6e36","title": "2013-05-31 14.33.11","loc": {"type": "Point","coordinates": [103.8655,1.2845]}} 
{"id": "9034246914","server": "5452","farm": "6","userId": "63369917@N05","secret": "1a2b055021","title": "2013-05-31 14.33.00","loc": {"type": "Point","coordinates": [103.8655,1.2845]}} 
{"id": "9032019025","server": "5442","farm": "6","userId": "63369917@N05","secret": "f4ca3f523f","title": "2013-05-31 14.34.00","loc": {"type": "Point","coordinates": [103.8655,1.2845]}} 
{"id": "9034245286","server": "5514","farm": "6","userId": "63369917@N05","secret": "3048cd04a5","title": "2013-05-31 14.41.57","loc": {"type": "Point","coordinates": [103.86567,1.284333]}} 
{"id": "8988250447","server": "2847","farm": "3","userId": "94541633@N02","secret": "b299dce965","title": "","loc": {"type": "Point","coordinates": [103.865166,1.284833]}} 
{"id": "8930144062","server": "5447","farm": "6","userId": "95982698@N06","secret": "1f1152954b","title": "3 インポートする","loc": {"type": "Point","coordinates": [103.8655,1.284333]}} 
{"id": "8929518855","server": "7447","farm": "8","userId": "95982698@N06","secret": "8a75af6274","title": "1 インポートする","loc": {"type": "Point","coordinates": [103.8655,1.284333]}} 
{"id": "8929544799","server": "7349","farm": "8","userId": "95982698@N06","secret": "5fee86e126","title": "4 インポートする","loc": {"type": "Point","coordinates": [103.8655,1.284333]}} 
{"id": "8910777816","server": "3780","farm": "4","userId": "95982698@N06","secret": "e82f356015","title": "2 インポートする","loc": {"type": "Point","coordinates": [103.865166,1.284333]}} 
{"id": "8910160455","server": "7370","farm": "8","userId": "95982698@N06","secret": "3afa71240e","title": "3 インポートする","loc": {"type": "Point","coordinates": [103.865166,1.284333]}} 
{"id": "8910146241","server": "7322","farm": "8","userId": "95982698@N06","secret": "a17635f82f","title": "1 インポートする","loc": {"type": "Point","coordinates": [103.865166,1.284333]}} 
{"id": "8910697098","server": "3709","farm": "4","userId": "95982698@N06","secret": "4f0ce550e6","title": "4 インポートする","loc": {"type": "Point","coordinates": [103.8655,1.284333]}} 
{"id": "8910632534","server": "8138","farm": "9","userId": "95982698@N06","secret": "5d064677cf","title": "10 インポートする","loc": {"type": "Point","coordinates": [103.86483,1.284666]}} 
{"id": "8910597200","server": "7451","farm": "8","userId": "95982698@N06","secret": "fb73043cc8","title": "5 インポートする","loc": {"type": "Point","coordinates": [103.86483,1.284666]}} 
{"id": "8909907907","server": "5459","farm": "6","userId": "95982698@N06","secret": "26ab912fbc","title": "1 インポートする","loc": {"type": "Point","coordinates": [103.86483,1.284666]}} 
{"id": "8909944207","server": "2856","farm": "3","userId": "95982698@N06","secret": "a198cb60f6","title": "1 インポートする","loc": {"type": "Point","coordinates": [103.86483,1.284666]}} 
{"id": "8909894733","server": "2825","farm": "3","userId": "95982698@N06","secret": "1d5ef2e453","title": "1 インポートする","loc": {"type": "Point","coordinates": [103.86483,1.284666]}} 
{"id": "8909810865","server": "3707","farm": "4","userId": "95982698@N06","secret": "569061379e","title": "2 インポートする","loc": {"type": "Point","coordinates": [103.86483,1.284666]}} 
{"id": "8865657396","server": "7418","farm": "8","userId": "32486306@N03","secret": "15a00ae443","title": "IMG_0413","loc": {"type": "Point","coordinates": [103.865166,1.2845]}} 
{"id": "8865676026","server": "5455","farm": "6","userId": "32486306@N03","secret": "e54700dee3","title": "IMG_0416","loc": {"type": "Point","coordinates": [103.8655,1.284333]}} 
{"id": "8865669406","server": "5457","farm": "6","userId": "32486306@N03","secret": "7c27263607","title": "IMG_0415","loc": {"type": "Point","coordinates": [103.865166,1.2845]}} 
{"id": "8865683108","server": "8275","farm": "9","userId": "32486306@N03","secret": "e28f824e1e","title": "IMG_0417","loc": {"type": "Point","coordinates": [103.8655,1.284333]}} 
{"id": "8864998809","server": "8117","farm": "9","userId": "57735144@N08","secret": "d287edd47c","title": "Tulipmania @ The Flower Dome","loc": {"type": "Point","coordinates": [103.86483,1.284477]}} 
{"id": "8865614418","server": "3677","farm": "4","userId": "57735144@N08","secret": "9e6e980223","title": "Tulipmania @ The Flower Dome","loc": {"type": "Point","coordinates": [103.86483,1.284477]}} 
{"id": "8865605256","server": "2846","farm": "3","userId": "57735144@N08","secret": "14cf7a57a9","title": "Tulipmania @ The Flower Dome","loc": {"type": "Point","coordinates": [103.86483,1.284477]}} 
{"id": "8864999831","server": "2841","farm": "3","userId": "57735144@N08","secret": "ba3be8543f","title": "Tulipmania @ The Flower Dome","loc": {"type": "Point","coordinates": [103.86483,1.284477]}} 
{"id": "8865604674","server": "3830","farm": "4","userId": "57735144@N08","secret": "32887746d2","title": "Tulipmania @ The Flower Dome","loc": {"type": "Point","coordinates": [103.86483,1.284477]}} 
{"id": "8863357984","server": "8557","farm": "9","userId": "94798923@N05","secret": "fbbca58902","title": "Singapore","loc": {"type": "Point","coordinates": [103.8655,1.284333]}} 
{"id": "8863367306","server": "5333","farm": "6","userId": "94798923@N05","secret": "1ac53d2916","title": "Singapore","loc": {"type": "Point","coordinates": [103.8655,1.284333]}} 
{"id": "8823287048","server": "2815","farm": "3","userId": "57735144@N08","secret": "d947bc4115","title": "Tulipmania @ The Flower Dome","loc": {"type": "Point","coordinates": [103.86483,1.284477]}} 
{"id": "8811304466","server": "7355","farm": "8","userId": "57735144@N08","secret": "19fecc91fc","title": "Tulipmania @ The Flower Dome","loc": {"type": "Point","coordinates": [103.86483,1.284477]}} 
{"id": "8800718457","server": "3748","farm": "4","userId": "57735144@N08","secret": "caa4c28399","title": "Tulipmania @ The Flower Dome","loc": {"type": "Point","coordinates": [103.86483,1.284477]}} 
{"id": "8811303512","server": "7397","farm": "8","userId": "57735144@N08","secret": "d5ec42dbc5","title": "Tulipmania @ The Flower Dome","loc": {"type": "Point","coordinates": [103.86483,1.284477]}} 
{"id": "8800158326","server": "7431","farm": "8","userId": "57735144@N08","secret": "eed915af43","title": "Tulipmania @ The Flower Dome","loc": {"type": "Point","coordinates": [103.86483,1.284477]}} 
{"id": "8800156790","server": "3723","farm": "4","userId": "57735144@N08","secret": "423f5b7a43","title": "Tulipmania @ The Flower Dome","loc": {"type": "Point","coordinates": [103.86483,1.284477]}} 
{"id": "8800158972","server": "3753","farm": "4","userId": "57735144@N08","secret": "372242d1d5","title": "Tulipmania @ The Flower Dome","loc": {"type": "Point","coordinates": [103.86483,1.284477]}} 
{"id": "8800156242","server": "7358","farm": "8","userId": "57735144@N08","secret": "bce0b0bf81","title": "Tulipmania @ The Flower Dome","loc": {"type": "Point","coordinates": [103.86483,1.284477]}} 
{"id": "8789578233","server": "5469","farm": "6","userId": "57735144@N08","secret": "cbbe0c75a4","title": "Tulipmania @ The Flower Dome","loc": {"type": "Point","coordinates": [103.86483,1.284477]}} 
{"id": "8800157610","server": "3682","farm": "4","userId": "57735144@N08","secret": "28eab2a333","title": "Tulipmania @ The Flower Dome","loc": {"type": "Point","coordinates": [103.86483,1.284477]}} 
{"id": "8794378864","server": "3666","farm": "4","userId": "95982698@N06","secret": "6e055ff1e9","title": "IMAGE_21.jpeg","loc": {"type": "Point","coordinates": [103.8655,1.284333]}} 
{"id": "8794226462","server": "5461","farm": "6","userId": "95982698@N06","secret": "acb1d81d7e","title": "IMAGE_17.jpeg","loc": {"type": "Point","coordinates": [103.8655,1.284333]}} 
{"id": "8794095994","server": "7328","farm": "8","userId": "95982698@N06","secret": "ab05276752","title": "IMAGE_13.jpeg","loc": {"type": "Point","coordinates": [103.8655,1.284333]}} 
{"id": "8793960724","server": "8417","farm": "9","userId": "95982698@N06","secret": "e9c20d59e1","title": "シンガポールの花","loc": {"type": "Point","coordinates": [103.865166,1.284333]}} 
{"id": "8793823002","server": "2842","farm": "3","userId": "95982698@N06","secret": "66075bac28","title": "IMAGE_2.jpeg","loc": {"type": "Point","coordinates": [103.865166,1.284333]}} 
{"id": "8793859700","server": "5347","farm": "6","userId": "95982698@N06","secret": "33ceb5d172","title": "IMAGE_3.jpeg","loc": {"type": "Point","coordinates": [103.865166,1.284333]}} 
{"id": "8780816411","server": "2809","farm": "3","userId": "20398757@N02","secret": "8a560abf77","title": "P5190174_HDR","loc": {"type": "Point","coordinates": [103.86511,1.284462]}} 
{"id": "8779289379","server": "3768","farm": "4","userId": "93543978@N03","secret": "8b299cb1ee","title": "","loc": {"type": "Point","coordinates": [103.865166,1.284333]}} 
{"id": "8785638226","server": "2836","farm": "3","userId": "57735144@N08","secret": "4a2cfaccfc","title": "Tulipmania @ The Flower Dome","loc": {"type": "Point","coordinates": [103.86483,1.284477]}} 
{"id": "8785620286","server": "8120","farm": "9","userId": "57735144@N08","secret": "0028110be8","title": "Tulipmania @ The Flower Dome","loc": {"type": "Point","coordinates": [103.86483,1.284477]}} 
{"id": "8785639496","server": "2871","farm": "3","userId": "57735144@N08","secret": "7e054bbcbf","title": "Tulipmania @ The Flower Dome","loc": {"type": "Point","coordinates": [103.86483,1.284477]}} 
{"id": "8779067061","server": "3720","farm": "4","userId": "57735144@N08","secret": "0dfeaffe62","title": "Tulipmania @ The Flower Dome","loc": {"type": "Point","coordinates": [103.86483,1.284477]}} 
{"id": "8779044947","server": "8536","farm": "9","userId": "57735144@N08","secret": "2e74a592f0","title": "Tulipmania @ The Flower Dome","loc": {"type": "Point","coordinates": [103.86483,1.284477]}} 
{"id": "8779047947","server": "2894","farm": "3","userId": "57735144@N08","secret": "2e6ba8b236","title": "Tulipmania @ The Flower Dome","loc": {"type": "Point","coordinates": [103.86483,1.284477]}} 
{"id": "8763491509","server": "8125","farm": "9","userId": "57735144@N08","secret": "f4a52bdc84","title": "Tulipmania @ The Flower Dome","loc": {"type": "Point","coordinates": [103.86483,1.284477]}} 
{"id": "8763526691","server": "8256","farm": "9","userId": "57735144@N08","secret": "13878ebd99","title": "Tulipmania @ The Flower Dome","loc": {"type": "Point","coordinates": [103.86483,1.284477]}} 
{"id": "8766126730","server": "3734","farm": "4","userId": "57735144@N08","secret": "ce75960f99","title": "Tulipmania @ The Flower Dome","loc": {"type": "Point","coordinates": [103.86483,1.284477]}} 
{"id": "8763490289","server": "8414","farm": "9","userId": "57735144@N08","secret": "497cc4739b","title": "Tulipmania @ The Flower Dome","loc": {"type": "Point","coordinates": [103.86483,1.284477]}} 
{"id": "8763494885","server": "8258","farm": "9","userId": "57735144@N08","secret": "a922d5cf94","title": "Tulipmania @ The Flower Dome","loc": {"type": "Point","coordinates": [103.86483,1.284477]}} 
{"id": "8766129274","server": "7345","farm": "8","userId": "57735144@N08","secret": "aa77bb37e3","title": "Tulipmania @ The Flower Dome","loc": {"type": "Point","coordinates": [103.86483,1.284477]}} 
{"id": "8762443886","server": "3685","farm": "4","userId": "52537869@N00","secret": "e50b83a4a7","title": "#Gardens By The Bay","loc": {"type": "Point","coordinates": [103.86483,1.284833]}} 
{"id": "8757049993","server": "7354","farm": "8","userId": "57735144@N08","secret": "c221318e01","title": "Tulipmania @ The Flower Dome","loc": {"type": "Point","coordinates": [103.86483,1.284477]}} 
{"id": "8757047857","server": "3735","farm": "4","userId": "57735144@N08","secret": "4627bd13e1","title": "Tulipmania @ The Flower Dome","loc": {"type": "Point","coordinates": [103.86483,1.284477]}} 
{"id": "8758174566","server": "8540","farm": "9","userId": "57735144@N08","secret": "fe5a17cbb4","title": "Tulipmania @ The Flower Dome","loc": {"type": "Point","coordinates": [103.86483,1.284477]}} 
{"id": "8758174872","server": "2868","farm": "3","userId": "57735144@N08","secret": "bf0fac89e0","title": "Tulipmania @ The Flower Dome","loc": {"type": "Point","coordinates": [103.86483,1.284477]}} 
{"id": "8758173638","server": "2864","farm": "3","userId": "57735144@N08","secret": "a07871b466","title": "Tulipmania @ The Flower Dome","loc": {"type": "Point","coordinates": [103.86483,1.284477]}} 
{"id": "8748128958","server": "8396","farm": "9","userId": "20398757@N02","secret": "224ccf43bf","title": "P5110123","loc": {"type": "Point","coordinates": [103.86511,1.284462]}} 
{"id": "8746983867","server": "8549","farm": "9","userId": "20398757@N02","secret": "a485a35565","title": "P5110119","loc": {"type": "Point","coordinates": [103.86511,1.284462]}} 
{"id": "8746904737","server": "7282","farm": "8","userId": "20398757@N02","secret": "4938de1f0d","title": "P5110125","loc": {"type": "Point","coordinates": [103.86511,1.284462]}} 
{"id": "8747992956","server": "7325","farm": "8","userId": "20398757@N02","secret": "b4268856bb","title": "P5110127","loc": {"type": "Point","coordinates": [103.86511,1.284462]}} 
{"id": "8746875581","server": "8416","farm": "9","userId": "20398757@N02","secret": "c44745fd2a","title": "P5110126","loc": {"type": "Point","coordinates": [103.86511,1.284462]}} 
{"id": "8741573210","server": "7281","farm": "8","userId": "20398757@N02","secret": "2510262a38","title": "P5110100","loc": {"type": "Point","coordinates": [103.86511,1.284462]}} 
{"id": "8737711609","server": "7281","farm": "8","userId": "20398757@N02","secret": "ea728016d9","title": "P5110048","loc": {"type": "Point","coordinates": [103.86511,1.284462]}} 
{"id": "8738814922","server": "7285","farm": "8","userId": "20398757@N02","secret": "bff6141e7b","title": "P5110041","loc": {"type": "Point","coordinates": [103.86511,1.284462]}} 
{"id": "8737776809","server": "7288","farm": "8","userId": "20398757@N02","secret": "fd968e884f","title": "P5110124","loc": {"type": "Point","coordinates": [103.86511,1.284462]}} 
{"id": "8738949720","server": "7284","farm": "8","userId": "20398757@N02","secret": "d006916074","title": "P5110108","loc": {"type": "Point","coordinates": [103.86511,1.284462]}} 
{"id": "8737808797","server": "7286","farm": "8","userId": "20398757@N02","secret": "3455ef146f","title": "P5110023","loc": {"type": "Point","coordinates": [103.86511,1.284462]}} 
{"id": "8735891488","server": "7306","farm": "8","userId": "20398757@N02","secret": "faa4d14cde","title": "P5110094","loc": {"type": "Point","coordinates": [103.86511,1.284462]}} 
{"id": "8735886466","server": "7290","farm": "8","userId": "20398757@N02","secret": "5ab4c3952f","title": "P5110113","loc": {"type": "Point","coordinates": [103.86511,1.284462]}} 
{"id": "8735795102","server": "7290","farm": "8","userId": "20398757@N02","secret": "323ff3c0b1","title": "P5110038","loc": {"type": "Point","coordinates": [103.86511,1.284462]}} 
{"id": "8735767128","server": "7297","farm": "8","userId": "20398757@N02","secret": "e1fbdb13ba","title": "P5110018","loc": {"type": "Point","coordinates": [103.86511,1.284462]}} 
{"id": "8734647671","server": "7314","farm": "8","userId": "20398757@N02","secret": "901c440dc1","title": "P5110151","loc": {"type": "Point","coordinates": [103.86511,1.284462]}} 
{"id": "8727525417","server": "7356","farm": "8","userId": "39711612@N05","secret": "9bdd299827","title": "FlowerDome2013-8722","loc": {"type": "Point","coordinates": [103.864845,1.284477]}} 
{"id": "8728634850","server": "7291","farm": "8","userId": "39711612@N05","secret": "1a017534ce","title": "FlowerDome2013--16","loc": {"type": "Point","coordinates": [103.86502,1.284305]}} 
{"id": "8719968507","server": "7299","farm": "8","userId": "79635871@N00","secret": "a70c481f3b","title": "FlowerDome_20130504_122555","loc": {"type": "Point","coordinates": [103.8649,1.284933]}} 
{"id": "8719944143","server": "7413","farm": "8","userId": "79635871@N00","secret": "05c84b7b28","title": "FlowerDome_20130504_100410","loc": {"type": "Point","coordinates": [103.86489,1.284755]}} 
{"id": "8719952667","server": "7438","farm": "8","userId": "79635871@N00","secret": "8f8ce73af7","title": "FlowerDome_20130504_105142","loc": {"type": "Point","coordinates": [103.86483,1.284744]}} 
{"id": "8719953617","server": "7426","farm": "8","userId": "79635871@N00","secret": "e5fd9ca53f","title": "FlowerDome_20130504_114532","loc": {"type": "Point","coordinates": [103.864876,1.284788]}} 
{"id": "8721018922","server": "7413","farm": "8","userId": "79635871@N00","secret": "3f27d2467a","title": "FlowerDome_20130324_170810","loc": {"type": "Point","coordinates": [103.86485,1.284805]}} 
{"id": "8708797151","server": "8407","farm": "9","userId": "20398757@N02","secret": "6cba19cb22","title": "P5010047","loc": {"type": "Point","coordinates": [103.86511,1.284462]}} 
{"id": "8709900038","server": "8125","farm": "9","userId": "20398757@N02","secret": "74bebdb7d2","title": "P5010030","loc": {"type": "Point","coordinates": [103.86511,1.284462]}} 
{"id": "8708760909","server": "8397","farm": "9","userId": "20398757@N02","secret": "660a01e501","title": "P5010026","loc": {"type": "Point","coordinates": [103.86511,1.284462]}} 
{"id": "8708732049","server": "8136","farm": "9","userId": "20398757@N02","secret": "2b4906c590","title": "P5010035","loc": {"type": "Point","coordinates": [103.86511,1.284462]}} 
{"id": "8701262511","server": "8406","farm": "9","userId": "20398757@N02","secret": "08db6e38a7","title": "P5010038","loc": {"type": "Point","coordinates": [103.86511,1.284462]}} 
{"id": "8682723988","server": "8117","farm": "9","userId": "32056890@N07","secret": "394fd1155c","title": "Garden by the Bay Sunrise","loc": {"type": "Point","coordinates": [103.86555,1.284514]}} 
{"id": "8678576228","server": "8405","farm": "9","userId": "14976902@N00","secret": "75705fc2ca","title": "IMAG0368","loc": {"type": "Point","coordinates": [103.867226,1.284738]}} 
{"id": "8677461949","server": "8530","farm": "9","userId": "14976902@N00","secret": "c2afb18ab1","title": "IMAG0410","loc": {"type": "Point","coordinates": [103.865,1.286583]}} 
{"id": "8677471883","server": "8398","farm": "9","userId": "14976902@N00","secret": "7dcec9e295","title": "IMAG0362","loc": {"type": "Point","coordinates": [103.867226,1.284738]}} 
{"id": "8678578946","server": "8262","farm": "9","userId": "14976902@N00","secret": "497249fa9c","title": "IMAG0354","loc": {"type": "Point","coordinates": [103.867226,1.284738]}} 
{"id": "8677474889","server": "8386","farm": "9","userId": "14976902@N00","secret": "84449fce0b","title": "IMAG0346","loc": {"type": "Point","coordinates": [103.867226,1.284738]}} 
{"id": "8677475709","server": "8115","farm": "9","userId": "14976902@N00","secret": "febf9fd810","title": "IMAG0341","loc": {"type": "Point","coordinates": [103.867226,1.284738]}} 
{"id": "8678577728","server": "8379","farm": "9","userId": "14976902@N00","secret": "761ce8fa03","title": "IMAG0360","loc": {"type": "Point","coordinates": [103.867226,1.284738]}} 
{"id": "8678574426","server": "8404","farm": "9","userId": "14976902@N00","secret": "aebc22083f","title": "IMAG0377","loc": {"type": "Point","coordinates": [103.867226,1.284738]}} 
{"id": "8678581652","server": "8530","farm": "9","userId": "14976902@N00","secret": "14b400018d","title": "IMAG0338","loc": {"type": "Point","coordinates": [103.867226,1.284738]}} 
{"id": "8677473361","server": "8406","farm": "9","userId": "14976902@N00","secret": "f5164544db","title": "IMAG0355","loc": {"type": "Point","coordinates": [103.867226,1.284738]}} 
{"id": "8678580592","server": "8526","farm": "9","userId": "14976902@N00","secret": "b0790b2a35","title": "IMAG0344","loc": {"type": "Point","coordinates": [103.867226,1.284738]}} 
{"id": "8677468097","server": "8523","farm": "9","userId": "14976902@N00","secret": "c41407dc7c","title": "IMAG0381","loc": {"type": "Point","coordinates": [103.867226,1.284738]}} 
{"id": "8677470347","server": "8400","farm": "9","userId": "14976902@N00","secret": "ca300597e1","title": "IMAG0370","loc": {"type": "Point","coordinates": [103.867226,1.284738]}} 
{"id": "8678576782","server": "8261","farm": "9","userId": "14976902@N00","secret": "cc7d17759d","title": "IMAG0364","loc": {"type": "Point","coordinates": [103.867226,1.284738]}} 
{"id": "8678581804","server": "8381","farm": "9","userId": "14976902@N00","secret": "a9dac9f63b","title": "IMAG0337","loc": {"type": "Point","coordinates": [103.867226,1.284738]}} 
{"id": "8678573824","server": "8394","farm": "9","userId": "14976902@N00","secret": "736fa63c7f","title": "IMAG0380","loc": {"type": "Point","coordinates": [103.867226,1.284738]}} 
{"id": "8678575548","server": "8116","farm": "9","userId": "14976902@N00","secret": "487d9a6480","title": "IMAG0371","loc": {"type": "Point","coordinates": [103.867226,1.284738]}} 
{"id": "8677471157","server": "8538","farm": "9","userId": "14976902@N00","secret": "3aab6abf6b","title": "IMAG0365","loc": {"type": "Point","coordinates": [103.867226,1.284738]}} 
{"id": "8678580960","server": "8121","farm": "9","userId": "14976902@N00","secret": "6eeaed8e86","title": "IMAG0342","loc": {"type": "Point","coordinates": [103.867226,1.284738]}} 
{"id": "8677469939","server": "8253","farm": "9","userId": "14976902@N00","secret": "80d184d672","title": "IMAG0372","loc": {"type": "Point","coordinates": [103.867226,1.284738]}} 
{"id": "8678573824","server": "8394","farm": "9","userId": "14976902@N00","secret": "736fa63c7f","title": "IMAG0380","loc": {"type": "Point","coordinates": [103.867226,1.284738]}} 
{"id": "8678575548","server": "8116","farm": "9","userId": "14976902@N00","secret": "487d9a6480","title": "IMAG0371","loc": {"type": "Point","coordinates": [103.867226,1.284738]}} 
{"id": "8677471157","server": "8538","farm": "9","userId": "14976902@N00","secret": "3aab6abf6b","title": "IMAG0365","loc": {"type": "Point","coordinates": [103.867226,1.284738]}} 
{"id": "8678580960","server": "8121","farm": "9","userId": "14976902@N00","secret": "6eeaed8e86","title": "IMAG0342","loc": {"type": "Point","coordinates": [103.867226,1.284738]}} 
{"id": "8677469939","server": "8253","farm": "9","userId": "14976902@N00","secret": "80d184d672","title": "IMAG0372","loc": {"type": "Point","coordinates": [103.867226,1.284738]}} 
{"id": "8563477213","server": "8092","farm": "9","userId": "31081742@N07","secret": "cf525e2050","title": "fisheye day/night singapore panorama","loc": {"type": "Point","coordinates": [103.87006,1.28718]}} 
{"id": "8561666593","server": "8248","farm": "9","userId": "31081742@N07","secret": "2cba444afe","title": "candy skyline","loc": {"type": "Point","coordinates": [103.87024,1.286493]}} 
{"id": "8525108528","server": "8233","farm": "9","userId": "20398757@N02","secret": "2792b8e100","title": "P3020115","loc": {"type": "Point","coordinates": [103.86511,1.284462]}} 
{"id": "8520474996","server": "8112","farm": "9","userId": "29829814@N05","secret": "fdb37b3236","title": "Chinese New Year @ Gardens Bt The Bay","loc": {"type": "Point","coordinates": [103.86483,1.284666]}} 
{"id": "8507582746","server": "8225","farm": "9","userId": "20398757@N02","secret": "21cb06155b","title": "P2110104","loc": {"type": "Point","coordinates": [103.86511,1.284462]}} 
{"id": "8467846463","server": "8508","farm": "9","userId": "20398757@N02","secret": "2601f812f6","title": "P2110046","loc": {"type": "Point","coordinates": [103.86511,1.284462]}} 
{"id": "8394366983","server": "8228","farm": "9","userId": "34272393@N06","secret": "d4921d66e5","title": "Cloud Forest","loc": {"type": "Point","coordinates": [103.86559,1.284282]}} 
{"id": "8395454866","server": "8052","farm": "9","userId": "34272393@N06","secret": "bce8c33062","title": "Cloud Forest","loc": {"type": "Point","coordinates": [103.86559,1.284232]}} 
{"id": "8373633126","server": "8471","farm": "9","userId": "34272393@N06","secret": "d2fff29771","title": "Flower Dome","loc": {"type": "Point","coordinates": [103.86495,1.284796]}} 
{"id": "8373625814","server": "8511","farm": "9","userId": "34272393@N06","secret": "a4000035ee","title": "Flower Dome","loc": {"type": "Point","coordinates": [103.86527,1.284229]}} 
{"id": "8340119577","server": "8072","farm": "9","userId": "44459794@N00","secret": "48e656ecda","title": "","loc": {"type": "Point","coordinates": [103.869995,1.286515]}} 
{"id": "8320314361","server": "8355","farm": "9","userId": "44948406@N00","secret": "a563acd454","title": "","loc": {"type": "Point","coordinates": [103.86547,1.284237]}} 
{"id": "8271392539","server": "8363","farm": "9","userId": "65809978@N00","secret": "49a108eccd","title": "IMG_2632.JPG","loc": {"type": "Point","coordinates": [103.864845,1.28448]}} 
{"id": "8271393299","server": "8500","farm": "9","userId": "65809978@N00","secret": "df9a437fe0","title": "IMG_2638.JPG","loc": {"type": "Point","coordinates": [103.864845,1.28448]}} 
{"id": "8271311705","server": "8057","farm": "9","userId": "65809978@N00","secret": "d5ec63a9bb","title": "IMG_2626.JPG","loc": {"type": "Point","coordinates": [103.864845,1.28448]}} 
{"id": "8250936721","server": "8070","farm": "9","userId": "54511827@N00","secret": "586029be14","title": "Cloud mountain dome","loc": {"type": "Point","coordinates": [103.8655,1.284333]}} 
{"id": "8247452415","server": "8199","farm": "9","userId": "48627921@N05","secret": "cd5085ce1d","title": "Speckles","loc": {"type": "Point","coordinates": [103.86541,1.284584]}} 
{"id": "8248519928","server": "8066","farm": "9","userId": "48627921@N05","secret": "9edd27e10f","title": "Don't Get Too Close!","loc": {"type": "Point","coordinates": [103.86541,1.284584]}} 
{"id": "8248520638","server": "8487","farm": "9","userId": "48627921@N05","secret": "3c645d3fb8","title": "Vergated","loc": {"type": "Point","coordinates": [103.86541,1.284584]}} 
{"id": "8239735735","server": "8346","farm": "9","userId": "51822167@N05","secret": "9a76c09aa1","title": "Old People","loc": {"type": "Point","coordinates": [103.86558,1.284241]}} 
{"id": "8239738851","server": "8207","farm": "9","userId": "51822167@N05","secret": "e23bfd557c","title": "Singapore Flyer","loc": {"type": "Point","coordinates": [103.86558,1.284241]}} 
{"id": "8239736819","server": "8349","farm": "9","userId": "51822167@N05","secret": "bfe586e9f0","title": "A lot of bags","loc": {"type": "Point","coordinates": [103.86558,1.284241]}} 
{"id": "8677475053","server": "8385","farm": "9","userId": "14976902@N00","secret": "cbd01e5297","title": "IMAG0345","loc": {"type": "Point","coordinates": [103.867226,1.284738]}} 
{"id": "8678580774","server": "8383","farm": "9","userId": "14976902@N00","secret": "fe20cd2813","title": "IMAG0343","loc": {"type": "Point","coordinates": [103.867226,1.284738]}} 
{"id": "8678578540","server": "8528","farm": "9","userId": "14976902@N00","secret": "e0e10b15ee","title": "IMAG0356","loc": {"type": "Point","coordinates": [103.867226,1.284738]}} 
{"id": "8678576986","server": "8262","farm": "9","userId": "14976902@N00","secret": "9141be8fb0","title": "IMAG0363","loc": {"type": "Point","coordinates": [103.867226,1.284738]}} 
{"id": "8677472767","server": "8385","farm": "9","userId": "14976902@N00","secret": "b42310f751","title": "IMAG0358","loc": {"type": "Point","coordinates": [103.867226,1.284738]}} 
{"id": "8677474421","server": "8534","farm": "9","userId": "14976902@N00","secret": "bf2dbc2ecb","title": "IMAG0349","loc": {"type": "Point","coordinates": [103.867226,1.284738]}} 
{"id": "8677476569","server": "8385","farm": "9","userId": "14976902@N00","secret": "554c4116d4","title": "IMAG0336","loc": {"type": "Point","coordinates": [103.867226,1.284738]}} 
{"id": "8678573178","server": "8534","farm": "9","userId": "14976902@N00","secret": "2fc5a47962","title": "IMAG0383","loc": {"type": "Point","coordinates": [103.867226,1.284738]}} 
{"id": "8678550366","server": "8525","farm": "9","userId": "14976902@N00","secret": "5cb6fed2e8","title": "IMAG0331","loc": {"type": "Point","coordinates": [103.867226,1.284738]}} 
{"id": "8677475997","server": "8124","farm": "9","userId": "14976902@N00","secret": "32e4e9b004","title": "IMAG0339","loc": {"type": "Point","coordinates": [103.867226,1.284738]}} 
{"id": "8678567892","server": "8264","farm": "9","userId": "14976902@N00","secret": "dbe2b56381","title": "IMAG0409","loc": {"type": "Point","coordinates": [103.866005,1.286405]}} 
{"id": "8677474099","server": "8530","farm": "9","userId": "14976902@N00","secret": "41c0f4b382","title": "IMAG0351","loc": {"type": "Point","coordinates": [103.867226,1.284738]}} 
{"id": "8678574608","server": "8528","farm": "9","userId": "14976902@N00","secret": "9f2b5784f0","title": "IMAG0376","loc": {"type": "Point","coordinates": [103.867226,1.284738]}} 
{"id": "8677468705","server": "8115","farm": "9","userId": "14976902@N00","secret": "baf42ce3e8","title": "IMAG0378","loc": {"type": "Point","coordinates": [103.867226,1.284738]}} 
{"id": "8678574892","server": "8541","farm": "9","userId": "14976902@N00","secret": "bba2b25a90","title": "IMAG0374","loc": {"type": "Point","coordinates": [103.867226,1.284738]}} 
{"id": "8678577934","server": "8540","farm": "9","userId": "14976902@N00","secret": "cd60562d5f","title": "IMAG0359","loc": {"type": "Point","coordinates": [103.867226,1.284738]}} 
{"id": "8678581322","server": "8113","farm": "9","userId": "14976902@N00","secret": "0d46238b10","title": "IMAG0340","loc": {"type": "Point","coordinates": [103.867226,1.284738]}} 
{"id": "8677474583","server": "8524","farm": "9","userId": "14976902@N00","secret": "0d6fc63edc","title": "IMAG0348","loc": {"type": "Point","coordinates": [103.867226,1.284738]}} 
{"id": "8678574072","server": "8545","farm": "9","userId": "14976902@N00","secret": "768d4c37b3","title": "IMAG0379","loc": {"type": "Point","coordinates": [103.867226,1.284738]}} 
{"id": "8677476781","server": "8522","farm": "9","userId": "14976902@N00","secret": "eacf3a0edb","title": "IMAG0335","loc": {"type": "Point","coordinates": [103.867226,1.284738]}} 
{"id": "8678577466","server": "8393","farm": "9","userId": "14976902@N00","secret": "b73bda5b4b","title": "IMAG0361","loc": {"type": "Point","coordinates": [103.867226,1.284738]}} 
{"id": "8678578308","server": "8385","farm": "9","userId": "14976902@N00","secret": "524393c29e","title": "IMAG0357","loc": {"type": "Point","coordinates": [103.867226,1.284738]}} 
{"id": "8678567454","server": "8120","farm": "9","userId": "14976902@N00","secret": "7d25b320e8","title": "IMAG0411","loc": {"type": "Point","coordinates": [103.865,1.286583]}} 
{"id": "8677477477","server": "8125","farm": "9","userId": "14976902@N00","secret": "d8e963b720","title": "IMAG0330","loc": {"type": "Point","coordinates": [103.867226,1.284738]}} 
{"id": "8677462379","server": "8382","farm": "9","userId": "14976902@N00","secret": "5e73aef3e7","title": "IMAG0408","loc": {"type": "Point","coordinates": [103.866005,1.286405]}} 
{"id": "8677470555","server": "8264","farm": "9","userId": "14976902@N00","secret": "11aa1d0202","title": "IMAG0369","loc": {"type": "Point","coordinates": [103.867226,1.284738]}} 
{"id": "8678580152","server": "8386","farm": "9","userId": "14976902@N00","secret": "1e36ca613d","title": "IMAG0347","loc": {"type": "Point","coordinates": [103.867226,1.284738]}} 
{"id": "8677469689","server": "8524","farm": "9","userId": "14976902@N00","secret": "657921e161","title": "IMAG0373","loc": {"type": "Point","coordinates": [103.867226,1.284738]}} 
{"id": "8667500878","server": "8262","farm": "9","userId": "32056890@N07","secret": "2606e4a7b3","title": "Garden By The Bay","loc": {"type": "Point","coordinates": [103.86517,1.28452]}} 
{"id": "8648838772","server": "8247","farm": "9","userId": "20398757@N02","secret": "42a6415de8","title": "P4130012","loc": {"type": "Point","coordinates": [103.86511,1.284462]}} 
{"id": "8623974815","server": "8251","farm": "9","userId": "94718224@N02","secret": "956bfae95e","title": "Marina Bay","loc": {"type": "Point","coordinates": [103.86992,1.28703]}} 
{"id": "8597072269","server": "8244","farm": "9","userId": "27526427@N05","secret": "d9f523af4d","title": "Morning off in Singapore","loc": {"type": "Point","coordinates": [103.86533,1.284666]}} 
{"id": "8597071481","server": "8112","farm": "9","userId": "27526427@N05","secret": "de60b76a37","title": "Morning off in Singapore","loc": {"type": "Point","coordinates": [103.865166,1.284666]}} 
{"id": "8597074343","server": "8110","farm": "9","userId": "27526427@N05","secret": "3f2f29b9f2","title": "Man made waterfall","loc": {"type": "Point","coordinates": [103.8655,1.284333]}} 
{"id": "8597070391","server": "8506","farm": "9","userId": "27526427@N05","secret": "5706182e87","title": "Morning off in Singapore","loc": {"type": "Point","coordinates": [103.865,1.284666]}} 
{"id": "8598176666","server": "8532","farm": "9","userId": "27526427@N05","secret": "6b8b356db0","title": "Morning off in Singapore","loc": {"type": "Point","coordinates": [103.8655,1.284666]}} 
{"id": "8592580744","server": "8526","farm": "9","userId": "40481186@N04","secret": "c0f794cde8","title": "Flower Dome - Gardens by the Bay","loc": {"type": "Point","coordinates": [103.86483,1.284666]}} 
{"id": "8581424725","server": "8506","farm": "9","userId": "48941525@N07","secret": "3b53af9962","title": "3 in 1","loc": {"type": "Point","coordinates": [103.86977,1.287223]}} 
{"id": "8519358069","server": "8370","farm": "9","userId": "29829814@N05","secret": "0fdfd1bb4e","title": "Chinese New Year @ Gardens Bt The Bay","loc": {"type": "Point","coordinates": [103.86483,1.284666]}} 
{"id": "8519359103","server": "8112","farm": "9","userId": "29829814@N05","secret": "aac3177305","title": "Chinese New Year @ Gardens Bt The Bay","loc": {"type": "Point","coordinates": [103.86483,1.284666]}} 
{"id": "8519359735","server": "8235","farm": "9","userId": "29829814@N05","secret": "043b145cbd","title": "Chinese New Year @ Gardens Bt The Bay","loc": {"type": "Point","coordinates": [103.86483,1.284666]}} 
{"id": "8519360489","server": "8513","farm": "9","userId": "29829814@N05","secret": "779fdd3cc5","title": "Chinese New Year @ Gardens Bt The Bay","loc": {"type": "Point","coordinates": [103.86483,1.284666]}} 
{"id": "8519361289","server": "8247","farm": "9","userId": "29829814@N05","secret": "5de826017a","title": "Chinese New Year @ Gardens Bt The Bay","loc": {"type": "Point","coordinates": [103.86483,1.284666]}} 
{"id": "8519358455","server": "8109","farm": "9","userId": "29829814@N05","secret": "2647e7ea82","title": "Chinese New Year @ Gardens Bt The Bay","loc": {"type": "Point","coordinates": [103.86483,1.284666]}} 
{"id": "8506710771","server": "8241","farm": "9","userId": "20398757@N02","secret": "c89b802a67","title": "P2240044","loc": {"type": "Point","coordinates": [103.86511,1.284462]}} 
{"id": "8507583832","server": "8368","farm": "9","userId": "20398757@N02","secret": "3b14e244a2","title": "P2110125","loc": {"type": "Point","coordinates": [103.86511,1.284462]}} 
{"id": "8491767355","server": "8380","farm": "9","userId": "20398757@N02","secret": "05dbdc482d","title": "P2110118","loc": {"type": "Point","coordinates": [103.86511,1.284462]}} 
{"id": "8492861232","server": "8239","farm": "9","userId": "20398757@N02","secret": "126b47da85","title": "P2110126","loc": {"type": "Point","coordinates": [103.86511,1.284462]}} 
{"id": "8492857956","server": "8097","farm": "9","userId": "20398757@N02","secret": "fab78e68d0","title": "P2110083","loc": {"type": "Point","coordinates": [103.86511,1.284462]}} 
{"id": "8491765917","server": "8387","farm": "9","userId": "20398757@N02","secret": "83975dae87","title": "P2110122","loc": {"type": "Point","coordinates": [103.86511,1.284462]}} 
{"id": "8434515975","server": "8221","farm": "9","userId": "48412889@N02","secret": "fc1010d1e8","title": "Purple Daisy with Green Background","loc": {"type": "Point","coordinates": [103.86485,1.284672]}} 
{"id": "8435596386","server": "8190","farm": "9","userId": "48412889@N02","secret": "b3ffc80fa5","title": "Spring Blossoms","loc": {"type": "Point","coordinates": [103.86485,1.284672]}} 
{"id": "8435601922","server": "8046","farm": "9","userId": "48412889@N02","secret": "bbeaed2909","title": "Spring Blossoms","loc": {"type": "Point","coordinates": [103.86485,1.284672]}} 
{"id": "8434511365","server": "8090","farm": "9","userId": "48412889@N02","secret": "7c5147996b","title": "Spring Blossoms","loc": {"type": "Point","coordinates": [103.86485,1.284672]}} 
{"id": "8434517763","server": "8077","farm": "9","userId": "48412889@N02","secret": "4cf90e80ea","title": "Spring Blossoms","loc": {"type": "Point","coordinates": [103.86485,1.284672]}} 
{"id": "8434512965","server": "8472","farm": "9","userId": "48412889@N02","secret": "cebb09548b","title": "Yellow Flower","loc": {"type": "Point","coordinates": [103.86485,1.284672]}} 
{"id": "8434518217","server": "8476","farm": "9","userId": "48412889@N02","secret": "c5d8380652","title": "Spring Blossoms","loc": {"type": "Point","coordinates": [103.86485,1.284672]}} 
{"id": "8434509653","server": "8501","farm": "9","userId": "48412889@N02","secret": "93574e0507","title": "Spring Blossoms","loc": {"type": "Point","coordinates": [103.86485,1.284672]}} 
{"id": "8434510923","server": "8048","farm": "9","userId": "48412889@N02","secret": "e80f985d5c","title": "Spring Blossoms","loc": {"type": "Point","coordinates": [103.86485,1.284672]}} 
{"id": "8434514585","server": "8335","farm": "9","userId": "48412889@N02","secret": "805bfe64b0","title": "Spring Blossoms","loc": {"type": "Point","coordinates": [103.86485,1.284672]}} 
{"id": "8435600968","server": "8222","farm": "9","userId": "48412889@N02","secret": "84f3bb6395","title": "Spring Blossoms","loc": {"type": "Point","coordinates": [103.86485,1.284672]}} 
{"id": "8434515117","server": "8226","farm": "9","userId": "48412889@N02","secret": "fb6484f5e8","title": "Spring Blossoms","loc": {"type": "Point","coordinates": [103.86485,1.284672]}} 
{"id": "8435596662","server": "8071","farm": "9","userId": "48412889@N02","secret": "4127fdac6f","title": "Spring Blossoms","loc": {"type": "Point","coordinates": [103.86485,1.284672]}} 
{"id": "8434516903","server": "8331","farm": "9","userId": "48412889@N02","secret": "f3063a4fce","title": "Spring Blossoms","loc": {"type": "Point","coordinates": [103.86485,1.284672]}} 
{"id": "8434513449","server": "8361","farm": "9","userId": "48412889@N02","secret": "2eda7dfafa","title": "Spring Blossoms","loc": {"type": "Point","coordinates": [103.86485,1.284672]}} 
{"id": "8435598498","server": "8510","farm": "9","userId": "48412889@N02","secret": "849e4a55a1","title": "Spring Blossoms","loc": {"type": "Point","coordinates": [103.86485,1.284672]}} 
{"id": "8435594810","server": "8495","farm": "9","userId": "48412889@N02","secret": "654d856bff","title": "Spring Blossoms","loc": {"type": "Point","coordinates": [103.86485,1.284672]}} 
{"id": "8435587900","server": "8500","farm": "9","userId": "48412889@N02","secret": "5dd3d36c29","title": "Pink Flower after Watering","loc": {"type": "Point","coordinates": [103.86485,1.284672]}} 
{"id": "8435586808","server": "8516","farm": "9","userId": "48412889@N02","secret": "a67336e997","title": "Spring Blossoms","loc": {"type": "Point","coordinates": [103.86485,1.284672]}} 
{"id": "8434507143","server": "8184","farm": "9","userId": "48412889@N02","secret": "7ac5dd6e3d","title": "Spring Blossoms","loc": {"type": "Point","coordinates": [103.86485,1.284672]}} 
{"id": "8435581708","server": "8375","farm": "9","userId": "48412889@N02","secret": "0cdd794148","title": "Christmas at Gardens by the Bay","loc": {"type": "Point","coordinates": [103.86485,1.284672]}} 
{"id": "8435583488","server": "8089","farm": "9","userId": "48412889@N02","secret": "3d41058ab2","title": "Christmas at Gardens by the Bay","loc": {"type": "Point","coordinates": [103.86485,1.284672]}} 
{"id": "8435583104","server": "8056","farm": "9","userId": "48412889@N02","secret": "8437f0f29f","title": "Christmas at Gardens by the Bay","loc": {"type": "Point","coordinates": [103.86485,1.284672]}} 
{"id": "8434505563","server": "8097","farm": "9","userId": "48412889@N02","secret": "40ca63d545","title": "Spring Blossoms","loc": {"type": "Point","coordinates": [103.86485,1.284672]}} 
{"id": "8435589038","server": "8231","farm": "9","userId": "48412889@N02","secret": "45bd08026b","title": "Spring Blossoms","loc": {"type": "Point","coordinates": [103.86485,1.284672]}} 
{"id": "8435582736","server": "8072","farm": "9","userId": "48412889@N02","secret": "84cc011eeb","title": "Christmas at Gardens by the Bay","loc": {"type": "Point","coordinates": [103.86485,1.284672]}} 
{"id": "8434502799","server": "8225","farm": "9","userId": "48412889@N02","secret": "8d338b2fb1","title": "Spring Blossoms","loc": {"type": "Point","coordinates": [103.86485,1.284672]}} 
{"id": "8434506357","server": "8184","farm": "9","userId": "48412889@N02","secret": "288e2da971","title": "Spring Blossoms","loc": {"type": "Point","coordinates": [103.86485,1.284672]}} 
{"id": "8435592876","server": "8509","farm": "9","userId": "48412889@N02","secret": "c3aa0ce81f","title": "Spring Blossoms","loc": {"type": "Point","coordinates": [103.86485,1.284672]}} 
{"id": "8435586270","server": "8185","farm": "9","userId": "48412889@N02","secret": "5a97843317","title": "Spring Blossoms","loc": {"type": "Point","coordinates": [103.86485,1.284672]}} 
{"id": "8434499599","server": "8051","farm": "9","userId": "48412889@N02","secret": "575479b01c","title": "Christmas at Gardens by the Bay","loc": {"type": "Point","coordinates": [103.86485,1.284672]}} 
{"id": "8434505993","server": "8087","farm": "9","userId": "48412889@N02","secret": "2f52d2bed7","title": "Spring Blossoms","loc": {"type": "Point","coordinates": [103.86485,1.284672]}} 
{"id": "8434508015","server": "8232","farm": "9","userId": "48412889@N02","secret": "ab7099f0bd","title": "Spring Blossoms","loc": {"type": "Point","coordinates": [103.86485,1.284672]}} 
{"id": "8434499931","server": "8230","farm": "9","userId": "48412889@N02","secret": "5490ae71f6","title": "Christmas at Gardens by the Bay","loc": {"type": "Point","coordinates": [103.86485,1.284672]}} 
{"id": "8434499091","server": "8192","farm": "9","userId": "48412889@N02","secret": "d5f113a4d7","title": "Christmas at Gardens by the Bay","loc": {"type": "Point","coordinates": [103.86485,1.284672]}} 
{"id": "8435584954","server": "8055","farm": "9","userId": "48412889@N02","secret": "d6832e28cd","title": "Christmas at Gardens by the Bay","loc": {"type": "Point","coordinates": [103.86485,1.284672]}} 
{"id": "8435582158","server": "8229","farm": "9","userId": "48412889@N02","secret": "28c804784c","title": "Daisy Facing upwards","loc": {"type": "Point","coordinates": [103.86485,1.284672]}} 
{"id": "8435585598","server": "8374","farm": "9","userId": "48412889@N02","secret": "7af2650e19","title": "Christmas at Gardens by the Bay","loc": {"type": "Point","coordinates": [103.86485,1.284672]}} 
{"id": "8435593338","server": "8374","farm": "9","userId": "48412889@N02","secret": "1838fb9c7c","title": "Spring Blossoms","loc": {"type": "Point","coordinates": [103.86485,1.284672]}} 
{"id": "8435592050","server": "8223","farm": "9","userId": "48412889@N02","secret": "2eecc23f5e","title": "Pink Rose under the Sun","loc": {"type": "Point","coordinates": [103.86485,1.284672]}} 
{"id": "8434500675","server": "8360","farm": "9","userId": "48412889@N02","secret": "bfecff6c8b","title": "Christmas at Gardens by the Bay","loc": {"type": "Point","coordinates": [103.86485,1.284672]}} 
{"id": "8434503975","server": "8367","farm": "9","userId": "48412889@N02","secret": "6d3ac37ae0","title": "Spring Blossoms","loc": {"type": "Point","coordinates": [103.86485,1.284672]}} 
{"id": "8434509333","server": "8220","farm": "9","userId": "48412889@N02","secret": "d90ae58662","title": "Spring Blossoms","loc": {"type": "Point","coordinates": [103.86485,1.284672]}} 
{"id": "8418362631","server": "8094","farm": "9","userId": "73142903@N05","secret": "f1ef138d0f","title": "Gardens by The Bay","loc": {"type": "Point","coordinates": [103.8655,1.284333]}} 
{"id": "8417516389","server": "8504","farm": "9","userId": "66358983@N07","secret": "f8482a9fef","title": "Broken Sky","loc": {"type": "Point","coordinates": [103.87024,1.285292]}} 
{"id": "8408846502","server": "8352","farm": "9","userId": "74855524@N00","secret": "ca2e47f8f2","title": "Carving","loc": {"type": "Point","coordinates": [103.86533,1.2865]}} 
{"id": "8407750157","server": "8196","farm": "9","userId": "74855524@N00","secret": "608e5240b9","title": "Dew","loc": {"type": "Point","coordinates": [103.86533,1.2865]}} 
{"id": "8408847482","server": "8357","farm": "9","userId": "74855524@N00","secret": "061b1281a3","title": "Bromeliads","loc": {"type": "Point","coordinates": [103.86533,1.2865]}} 
{"id": "8407744791","server": "8235","farm": "9","userId": "74855524@N00","secret": "eb4abd39be","title": "Totems","loc": {"type": "Point","coordinates": [103.8655,1.2865]}} 
{"id": "8407752595","server": "8517","farm": "9","userId": "74855524@N00","secret": "965a8efb59","title": "Way Down","loc": {"type": "Point","coordinates": [103.865166,1.2865]}} 
{"id": "8407753875","server": "8098","farm": "9","userId": "74855524@N00","secret": "af5e4c98f5","title": "Above the Clouds","loc": {"type": "Point","coordinates": [103.865166,1.2865]}} 
{"id": "8408839124","server": "8043","farm": "9","userId": "74855524@N00","secret": "54bf9c87e3","title": "Elevated","loc": {"type": "Point","coordinates": [103.86567,1.2865]}} 
{"id": "8408850012","server": "8511","farm": "9","userId": "74855524@N00","secret": "4b545c85d3","title": "Greenery","loc": {"type": "Point","coordinates": [103.865166,1.2865]}} 
{"id": "8408852256","server": "8495","farm": "9","userId": "74855524@N00","secret": "0c61150f4e","title": "Canopy","loc": {"type": "Point","coordinates": [103.865,1.286666]}} 
{"id": "8408850634","server": "8464","farm": "9","userId": "74855524@N00","secret": "71091cd6ea","title": "Impossible","loc": {"type": "Point","coordinates": [103.865,1.286666]}} 
{"id": "8408853188","server": "8078","farm": "9","userId": "74855524@N00","secret": "8e8cf030e4","title": "Top of the Forest","loc": {"type": "Point","coordinates": [103.86483,1.286666]}} 
{"id": "8408848746","server": "8354","farm": "9","userId": "74855524@N00","secret": "2209b89e6a","title": "Cloud Level Flowers","loc": {"type": "Point","coordinates": [103.865166,1.2865]}} 
{"id": "8408851678","server": "8505","farm": "9","userId": "74855524@N00","secret": "7bf8ed9cb4","title": "Levels","loc": {"type": "Point","coordinates": [103.865,1.286666]}} 
{"id": "8408843160","server": "8372","farm": "9","userId": "74855524@N00","secret": "e843dc0f83","title": "Red","loc": {"type": "Point","coordinates": [103.8655,1.2865]}} 
{"id": "8408838230","server": "8221","farm": "9","userId": "74855524@N00","secret": "5a49d411dc","title": "Bored","loc": {"type": "Point","coordinates": [103.86567,1.2865]}} 
{"id": "8408844122","server": "8335","farm": "9","userId": "74855524@N00","secret": "07e159df67","title": "Character","loc": {"type": "Point","coordinates": [103.8655,1.2865]}} 
{"id": "8407759545","server": "8091","farm": "9","userId": "74855524@N00","secret": "37c28e03a1","title": "Flowers","loc": {"type": "Point","coordinates": [103.86483,1.286666]}} 
{"id": "8407749003","server": "8188","farm": "9","userId": "74855524@N00","secret": "1eeab1771a","title": "Orchid","loc": {"type": "Point","coordinates": [103.86533,1.2865]}} 
{"id": "8407760197","server": "8211","farm": "9","userId": "74855524@N00","secret": "c520498cb0","title": "Mountaintop Flowers","loc": {"type": "Point","coordinates": [103.86483,1.286666]}} 
{"id": "8408854602","server": "8353","farm": "9","userId": "74855524@N00","secret": "631809424e","title": "Treetop Walk","loc": {"type": "Point","coordinates": [103.86483,1.286666]}} 
{"id": "8408842218","server": "8229","farm": "9","userId": "74855524@N00","secret": "74afd17a2a","title": "Viewpoint","loc": {"type": "Point","coordinates": [103.8655,1.2865]}} 
{"id": "8408841488","server": "8096","farm": "9","userId": "74855524@N00","secret": "a2cc0cf2d4","title": "Perch","loc": {"type": "Point","coordinates": [103.86533,1.2865]}} 
{"id": "8408834798","server": "8077","farm": "9","userId": "74855524@N00","secret": "59da399ac9","title": "None Shall Pass","loc": {"type": "Point","coordinates": [103.86567,1.2865]}} 
{"id": "8407741379","server": "8086","farm": "9","userId": "74855524@N00","secret": "38a2816c84","title": "Artwork","loc": {"type": "Point","coordinates": [103.86567,1.2865]}} 
{"id": "8408833306","server": "8091","farm": "9","userId": "74855524@N00","secret": "aa96df048a","title": "Into the Mist","loc": {"type": "Point","coordinates": [103.86567,1.286333]}} 
{"id": "8408834020","server": "8474","farm": "9","userId": "74855524@N00","secret": "0baba24546","title": "Bottom of the Mountain","loc": {"type": "Point","coordinates": [103.86567,1.2865]}} 
{"id": "8407740511","server": "8324","farm": "9","userId": "74855524@N00","secret": "dc0843e505","title": "Clouds","loc": {"type": "Point","coordinates": [103.86567,1.2865]}} 
{"id": "8408832366","server": "8468","farm": "9","userId": "74855524@N00","secret": "9724917866","title": "Misty","loc": {"type": "Point","coordinates": [103.86567,1.286333]}} 
{"id": "8397926640","server": "8043","farm": "9","userId": "35738929@N08","secret": "1317478e36","title": "Indoor cloud forest","loc": {"type": "Point","coordinates": [103.865166,1.2845]}} 
{"id": "8374141245","server": "8191","farm": "9","userId": "91670890@N04","secret": "a1f3b853e2","title": "","loc": {"type": "Point","coordinates": [103.867,1.284666]}} 
{"id": "8352312727","server": "8081","farm": "9","userId": "91309073@N03","secret": "898ace018f","title": "Still again!","loc": {"type": "Point","coordinates": [103.869835,1.286833]}} 
{"id": "8350626236","server": "8365","farm": "9","userId": "16102830@N05","secret": "a48fa377b1","title": "1211_NovemberRandoms_HR_090","loc": {"type": "Point","coordinates": [103.86483,1.284666]}} 
{"id": "8349566563","server": "8076","farm": "9","userId": "16102830@N05","secret": "bf2b186d61","title": "1211_NovemberRandoms_HR_089","loc": {"type": "Point","coordinates": [103.86483,1.284666]}} 
{"id": "8303459576","server": "8218","farm": "9","userId": "24141292@N02","secret": "427fd4c35f","title": "Contemporary Architecture, Singapore","loc": {"type": "Point","coordinates": [103.865204,1.284509]}} 
{"id": "8302407259","server": "8498","farm": "9","userId": "24141292@N02","secret": "9bf93dc598","title": "Marina Bay Sands","loc": {"type": "Point","coordinates": [103.865204,1.284509]}} 
{"id": "8284268187","server": "8493","farm": "9","userId": "65598092@N00","secret": "9673dd490e","title": "Singapore Gardens by the Bay","loc": {"type": "Point","coordinates": [103.8665,1.284333]}} 
{"id": "8284205996","server": "8070","farm": "9","userId": "91199563@N07","secret": "72c6652567","title": "Gardens By The Bay","loc": {"type": "Point","coordinates": [103.86483,1.284666]}} 
{"id": "8283145087","server": "8500","farm": "9","userId": "91199563@N07","secret": "3cc11d4d1d","title": "Gardens By The Bay","loc": {"type": "Point","coordinates": [103.86483,1.284666]}} 
{"id": "8284204814","server": "8198","farm": "9","userId": "91199563@N07","secret": "2d7cc1b258","title": "Gardens By The Bay","loc": {"type": "Point","coordinates": [103.86483,1.284666]}} 
{"id": "8282342629","server": "8351","farm": "9","userId": "75771631@N00","secret": "abfa657f3c","title": "dome_panorama","loc": {"type": "Point","coordinates": [103.86483,1.284521]}} 
{"id": "8282342851","server": "8213","farm": "9","userId": "75771631@N00","secret": "f2bd4a943a","title": "extend","loc": {"type": "Point","coordinates": [103.86483,1.284521]}} 
{"id": "8282343017","server": "8338","farm": "9","userId": "75771631@N00","secret": "be29d438ac","title": "fractal","loc": {"type": "Point","coordinates": [103.86483,1.284521]}} 
{"id": "8264642516","server": "8494","farm": "9","userId": "35266357@N00","secret": "04290d2354","title": "20121209-DSC_4040","loc": {"type": "Point","coordinates": [103.86492,1.285061]}} 
{"id": "8260350381","server": "8215","farm": "9","userId": "79022843@N00","secret": "97751a65d0","title": "Yellow flowers with MBS in background","loc": {"type": "Point","coordinates": [103.8703,1.286386]}} 
{"id": "8259752287","server": "8213","farm": "9","userId": "79022843@N00","secret": "fa92448056","title": "Singapore skyline (taken with my phone)","loc": {"type": "Point","coordinates": [103.869965,1.286677]}} 
{"id": "8242397241","server": "8198","farm": "9","userId": "9895689@N04","secret": "187d0077f3","title": "Singapore","loc": {"type": "Point","coordinates": [103.86608,1.284263]}} 
{"id": "8241213618","server": "8478","farm": "9","userId": "8150902@N02","secret": "aac41e4076","title": "","loc": {"type": "Point","coordinates": [103.86483,1.284667]}} 
{"id": "8240145413","server": "8210","farm": "9","userId": "8150902@N02","secret": "94db556425","title": "","loc": {"type": "Point","coordinates": [103.8655,1.284333]}} 
{"id": "8240151415","server": "8059","farm": "9","userId": "8150902@N02","secret": "92408162be","title": "","loc": {"type": "Point","coordinates": [103.86483,1.284667]}} 
{"id": "8240144407","server": "8205","farm": "9","userId": "8150902@N02","secret": "26f953dd47","title": "","loc": {"type": "Point","coordinates": [103.8655,1.284333]}} 
{"id": "8240804854","server": "8069","farm": "9","userId": "51822167@N05","secret": "a1b8317091","title": "Elderly","loc": {"type": "Point","coordinates": [103.86558,1.284241]}} 
{"id": "8236351343","server": "8483","farm": "9","userId": "9895689@N04","secret": "db03e9a20d","title": "Purple","loc": {"type": "Point","coordinates": [103.86486,1.284477]}} 
{"id": "8225219471","server": "8197","farm": "9","userId": "9895689@N04","secret": "6eaaa59d3c","title": "bird","loc": {"type": "Point","coordinates": [103.86604,1.284227]}} 
{"id": "8221328448","server": "8206","farm": "9","userId": "66919430@N00","secret": "52ccecb6ac","title": "The huge flower dome","loc": {"type": "Point","coordinates": [103.86483,1.284666]}} 
{"id": "8199034159","server": "8057","farm": "9","userId": "16102830@N05","secret": "1455aeecbd","title": "121113_GardensByTheBayOuting_HR_008","loc": {"type": "Point","coordinates": [103.86483,1.284666]}} 
{"id": "8198950409","server": "8477","farm": "9","userId": "16102830@N05","secret": "416b6f6f05","title": "121113_GardensByTheBayOuting_HR_046","loc": {"type": "Point","coordinates": [103.86483,1.284666]}} 
{"id": "8198929361","server": "8487","farm": "9","userId": "16102830@N05","secret": "1eb01951e4","title": "121113_GardensByTheBayOuting_HR_056","loc": {"type": "Point","coordinates": [103.86483,1.284666]}} 
{"id": "8200064168","server": "8058","farm": "9","userId": "16102830@N05","secret": "e80f7bd844","title": "121113_GardensByTheBayOuting_HR_036","loc": {"type": "Point","coordinates": [103.86483,1.284666]}} 
{"id": "8198956351","server": "8481","farm": "9","userId": "16102830@N05","secret": "9612790f97","title": "121113_GardensByTheBayOuting_HR_043","loc": {"type": "Point","coordinates": [103.86483,1.284666]}} 
{"id": "8200121470","server": "8197","farm": "9","userId": "16102830@N05","secret": "8ab08f338f","title": "121113_GardensByTheBayOuting_HR_010","loc": {"type": "Point","coordinates": [103.86483,1.284666]}} 
{"id": "8198970161","server": "8057","farm": "9","userId": "16102830@N05","secret": "8b6b3e8c96","title": "121113_GardensByTheBayOuting_HR_037","loc": {"type": "Point","coordinates": [103.86483,1.284666]}} 
{"id": "8199043477","server": "8197","farm": "9","userId": "16102830@N05","secret": "e2f7ddb462","title": "121113_GardensByTheBayOuting_HR_004","loc": {"type": "Point","coordinates": [103.86483,1.284666]}} 
{"id": "8200057046","server": "8070","farm": "9","userId": "16102830@N05","secret": "cfd6e76f9e","title": "121113_GardensByTheBayOuting_HR_039","loc": {"type": "Point","coordinates": [103.86483,1.284666]}} 
{"id": "8200076428","server": "8066","farm": "9","userId": "16102830@N05","secret": "0a555ac945","title": "121113_GardensByTheBayOuting_HR_031","loc": {"type": "Point","coordinates": [103.86483,1.284666]}} 
{"id": "8199031703","server": "8204","farm": "9","userId": "16102830@N05","secret": "edfb0abc90","title": "121113_GardensByTheBayOuting_HR_009","loc": {"type": "Point","coordinates": [103.86483,1.284666]}} 
{"id": "8198958691","server": "8489","farm": "9","userId": "16102830@N05","secret": "40b4b4acb6","title": "121113_GardensByTheBayOuting_HR_042","loc": {"type": "Point","coordinates": [103.86483,1.284666]}} 
{"id": "8199008553","server": "8485","farm": "9","userId": "16102830@N05","secret": "c7f6edbefe","title": "121113_GardensByTheBayOuting_HR_020","loc": {"type": "Point","coordinates": [103.86483,1.284666]}} 
{"id": "8198946629","server": "8484","farm": "9","userId": "16102830@N05","secret": "bd60d32fc0","title": "121113_GardensByTheBayOuting_HR_048","loc": {"type": "Point","coordinates": [103.86483,1.284666]}} 
{"id": "8200011134","server": "8347","farm": "9","userId": "16102830@N05","secret": "f5627229b9","title": "121113_GardensByTheBayOuting_HR_061","loc": {"type": "Point","coordinates": [103.86483,1.284666]}} 
{"id": "8199020799","server": "8341","farm": "9","userId": "16102830@N05","secret": "381beba385","title": "121113_GardensByTheBayOuting_HR_014","loc": {"type": "Point","coordinates": [103.86483,1.284666]}} 
{"id": "8200032500","server": "8337","farm": "9","userId": "16102830@N05","secret": "b8296927cf","title": "121113_GardensByTheBayOuting_HR_051","loc": {"type": "Point","coordinates": [103.86483,1.284666]}} 
{"id": "8198924467","server": "8486","farm": "9","userId": "16102830@N05","secret": "d102bd1bc9","title": "121113_GardensByTheBayOuting_HR_058","loc": {"type": "Point","coordinates": [103.86483,1.284666]}} 
{"id": "8200087840","server": "8486","farm": "9","userId": "16102830@N05","secret": "74e6eb6eec","title": "121113_GardensByTheBayOuting_HR_026","loc": {"type": "Point","coordinates": [103.86483,1.284666]}} 
{"id": "8200083600","server": "8203","farm": "9","userId": "16102830@N05","secret": "37cc3716ff","title": "121113_GardensByTheBayOuting_HR_028","loc": {"type": "Point","coordinates": [103.86483,1.284666]}} 
{"id": "8200073214","server": "8489","farm": "9","userId": "16102830@N05","secret": "f938b05fc2","title": "121113_GardensByTheBayOuting_HR_032","loc": {"type": "Point","coordinates": [103.86483,1.284666]}} 
{"id": "8199000653","server": "8486","farm": "9","userId": "16102830@N05","secret": "37e2d1b32a","title": "121113_GardensByTheBayOuting_HR_024","loc": {"type": "Point","coordinates": [103.86483,1.284666]}} 
{"id": "8200132868","server": "8478","farm": "9","userId": "16102830@N05","secret": "1b8f3d6424","title": "121113_GardensByTheBayOuting_HR_005","loc": {"type": "Point","coordinates": [103.86483,1.284666]}} 
{"id": "8200097872","server": "8205","farm": "9","userId": "16102830@N05","secret": "2517244d96","title": "121113_GardensByTheBayOuting_HR_021","loc": {"type": "Point","coordinates": [103.86483,1.284666]}} 
{"id": "8134773864","server": "8190","farm": "9","userId": "31682800@N04","secret": "a81e51f9b7","title": "Lights On @ Marina Bay","loc": {"type": "Point","coordinates": [103.86656,1.284638]}} 
{"id": "8200104004","server": "8068","farm": "9","userId": "16102830@N05","secret": "ba780bf303","title": "121113_GardensByTheBayOuting_HR_018","loc": {"type": "Point","coordinates": [103.86483,1.284666]}} 
{"id": "8199022985","server": "8489","farm": "9","userId": "16102830@N05","secret": "7c2d61793e","title": "121113_GardensByTheBayOuting_HR_013","loc": {"type": "Point","coordinates": [103.86483,1.284666]}} 
{"id": "8200025376","server": "8490","farm": "9","userId": "16102830@N05","secret": "c61ffe8fee","title": "121113_GardensByTheBayOuting_HR_054","loc": {"type": "Point","coordinates": [103.86483,1.284666]}} 
{"id": "8198961169","server": "8482","farm": "9","userId": "16102830@N05","secret": "8da6431fe3","title": "121113_GardensByTheBayOuting_HR_041","loc": {"type": "Point","coordinates": [103.86483,1.284666]}} 
{"id": "8200101962","server": "8208","farm": "9","userId": "16102830@N05","secret": "7eb0264a5c","title": "121113_GardensByTheBayOuting_HR_019","loc": {"type": "Point","coordinates": [103.86483,1.284666]}} 
{"id": "8200014928","server": "8204","farm": "9","userId": "16102830@N05","secret": "4db03df21e","title": "121113_GardensByTheBayOuting_HR_059","loc": {"type": "Point","coordinates": [103.86483,1.284666]}} 
{"id": "8200137504","server": "8060","farm": "9","userId": "16102830@N05","secret": "69db3de9e2","title": "121113_GardensByTheBayOuting_HR_003","loc": {"type": "Point","coordinates": [103.86483,1.284666]}} 
{"id": "8200107868","server": "8342","farm": "9","userId": "16102830@N05","secret": "c88ca84332","title": "121113_GardensByTheBayOuting_HR_016","loc": {"type": "Point","coordinates": [103.86483,1.284666]}} 
{"id": "8198974455","server": "8482","farm": "9","userId": "16102830@N05","secret": "6c0c6ecc3f","title": "121113_GardensByTheBayOuting_HR_035","loc": {"type": "Point","coordinates": [103.86483,1.284666]}} 
{"id": "8198988939","server": "8066","farm": "9","userId": "16102830@N05","secret": "ca80fea0fa","title": "121113_GardensByTheBayOuting_HR_029","loc": {"type": "Point","coordinates": [103.86483,1.284666]}} 
{"id": "8200046050","server": "8198","farm": "9","userId": "16102830@N05","secret": "6739d9b138","title": "121113_GardensByTheBayOuting_HR_044","loc": {"type": "Point","coordinates": [103.86483,1.284666]}} 
{"id": "8198986815","server": "8337","farm": "9","userId": "16102830@N05","secret": "24cd6a1e56","title": "121113_GardensByTheBayOuting_HR_030","loc": {"type": "Point","coordinates": [103.86483,1.284666]}} 
{"id": "8198944907","server": "8203","farm": "9","userId": "16102830@N05","secret": "b5dda439fc","title": "121113_GardensByTheBayOuting_HR_049","loc": {"type": "Point","coordinates": [103.86483,1.284666]}} 
{"id": "8200018260","server": "8483","farm": "9","userId": "16102830@N05","secret": "6acc418f8d","title": "121113_GardensByTheBayOuting_HR_057","loc": {"type": "Point","coordinates": [103.86483,1.284666]}} 
{"id": "8200119164","server": "8342","farm": "9","userId": "16102830@N05","secret": "e6f22352bd","title": "121113_GardensByTheBayOuting_HR_011","loc": {"type": "Point","coordinates": [103.86483,1.284666]}} 
{"id": "8200106396","server": "8208","farm": "9","userId": "16102830@N05","secret": "6b874219ac","title": "121113_GardensByTheBayOuting_HR_017","loc": {"type": "Point","coordinates": [103.86483,1.284666]}} 
{"id": "8199018273","server": "8479","farm": "9","userId": "16102830@N05","secret": "2121d15593","title": "121113_GardensByTheBayOuting_HR_015","loc": {"type": "Point","coordinates": [103.86483,1.284666]}} 
{"id": "8200094246","server": "8067","farm": "9","userId": "16102830@N05","secret": "fa95f0846c","title": "121113_GardensByTheBayOuting_HR_023","loc": {"type": "Point","coordinates": [103.86483,1.284666]}} 
{"id": "8200068280","server": "8345","farm": "9","userId": "16102830@N05","secret": "63bccc1e60","title": "121113_GardensByTheBayOuting_HR_034","loc": {"type": "Point","coordinates": [103.86483,1.284666]}} 
{"id": "8198978825","server": "8064","farm": "9","userId": "16102830@N05","secret": "eca58f9685","title": "121113_GardensByTheBayOuting_HR_033","loc": {"type": "Point","coordinates": [103.86483,1.284666]}} 
{"id": "8199036623","server": "8197","farm": "9","userId": "16102830@N05","secret": "cdf776e48f","title": "121113_GardensByTheBayOuting_HR_007","loc": {"type": "Point","coordinates": [103.86483,1.284666]}} 
{"id": "8200117068","server": "8208","farm": "9","userId": "16102830@N05","secret": "e0741987ba","title": "121113_GardensByTheBayOuting_HR_012","loc": {"type": "Point","coordinates": [103.86483,1.284666]}} 
{"id": "8198998267","server": "8349","farm": "9","userId": "16102830@N05","secret": "88cf5d47e4","title": "121113_GardensByTheBayOuting_HR_025","loc": {"type": "Point","coordinates": [103.86483,1.284666]}} 
{"id": "8199049883","server": "8339","farm": "9","userId": "16102830@N05","secret": "e3a6c11e67","title": "121113_GardensByTheBayOuting_HR_001","loc": {"type": "Point","coordinates": [103.86483,1.284666]}} 
{"id": "8200044298","server": "8205","farm": "9","userId": "16102830@N05","secret": "72bca580e6","title": "121113_GardensByTheBayOuting_HR_045","loc": {"type": "Point","coordinates": [103.86483,1.284666]}} 
{"id": "8199038843","server": "8348","farm": "9","userId": "16102830@N05","secret": "76e9067fde","title": "121113_GardensByTheBayOuting_HR_006","loc": {"type": "Point","coordinates": [103.86483,1.284666]}} 
{"id": "8200040592","server": "8346","farm": "9","userId": "16102830@N05","secret": "ee80498af0","title": "121113_GardensByTheBayOuting_HR_047","loc": {"type": "Point","coordinates": [103.86483,1.284666]}} 
{"id": "8200055008","server": "8485","farm": "9","userId": "16102830@N05","secret": "19d30ceab3","title": "121113_GardensByTheBayOuting_HR_040","loc": {"type": "Point","coordinates": [103.86483,1.284666]}} 
{"id": "8180975864","server": "8482","farm": "9","userId": "82137904@N03","secret": "9e92dbb0d0","title": "The Lost World","loc": {"type": "Point","coordinates": [103.86567,1.28437]}} 
{"id": "8155570156","server": "7131","farm": "8","userId": "49098167@N07","secret": "575aef1b67","title": "Feel like I am in Jurassic Park!","loc": {"type": "Point","coordinates": [103.8654,1.284211]}} 
{"id": "8152723805","server": "7132","farm": "8","userId": "64712193@N06","secret": "8e8948bf04","title": "Gardens By The Bay, Singapore","loc": {"type": "Point","coordinates": [103.86552,1.284861]}} 
{"id": "8152747434","server": "7265","farm": "8","userId": "64712193@N06","secret": "62f9f5a6a0","title": "Gardens By The Bay, Singapore","loc": {"type": "Point","coordinates": [103.86565,1.284904]}} 
{"id": "8152717711","server": "8061","farm": "9","userId": "64712193@N06","secret": "41d551b284","title": "Gardens By The Bay, Singapore","loc": {"type": "Point","coordinates": [103.865395,1.284732]}} 
{"id": "8152723734","server": "7139","farm": "8","userId": "64712193@N06","secret": "8f5760ed30","title": "Gardens By The Bay, Singapore","loc": {"type": "Point","coordinates": [103.86548,1.284865]}} 
{"id": "8152742446","server": "8348","farm": "9","userId": "64712193@N06","secret": "144985aab3","title": "Gardens By The Bay, Singapore","loc": {"type": "Point","coordinates": [103.86552,1.284822]}} 
{"id": "8152704265","server": "7110","farm": "8","userId": "64712193@N06","secret": "cc5639f581","title": "Gardens By The Bay, Singapore","loc": {"type": "Point","coordinates": [103.86522,1.285032]}} 
{"id": "8152695167","server": "7129","farm": "8","userId": "64712193@N06","secret": "e8662bd7d0","title": "Gardens By The Bay, Singapore","loc": {"type": "Point","coordinates": [103.86565,1.284733]}} 
{"id": "8152718975","server": "7272","farm": "8","userId": "64712193@N06","secret": "cb2c319d80","title": "Gardens By The Bay, Singapore","loc": {"type": "Point","coordinates": [103.86561,1.284948]}} 
{"id": "8097217234","server": "8328","farm": "9","userId": "32204075@N08","secret": "587575e122","title": "Gardens By The Bay #4","loc": {"type": "Point","coordinates": [103.86488,1.284209]}} 
{"id": "8100358762","server": "8464","farm": "9","userId": "79635871@N00","secret": "33568bcd90","title": "FlowerDome_20120715_134101","loc": {"type": "Point","coordinates": [103.86553,1.284455]}} 
