{"id": "9405918181","server": "3787","farm": "4","userId": "93969327@N07","secret": "cab15bd42f","title": "Beer Market 3nd Anniversary Celebration !! | Follow us @ http://fb.com/SGEventPhotographers www.SGEventPhotographers.sg Team © 2013","loc": {"type": "Point","coordinates": [103.84573,1.291259]}} 
{"id": "9406529250","server": "7386","farm": "8","userId": "93969327@N07","secret": "70af69e16d","title": "http://www.beermarket.com.sg/our-3rd-anniversary-party/  Keep yourself free on TODAY (31st of July) for Beer Market 3rd birthday bash. They have lined up local sensations Jack and Rai, Ngak, Shirlyn & the UnXpected to celebrate with all of us. Plus $6 net","loc": {"type": "Point","coordinates": [103.84573,1.291259]}} 
{"id": "9344368082","server": "2835","farm": "3","userId": "57895727@N05","secret": "c1ecc383db","title": "OrientalWhiteEye 26jun2013x01","loc": {"type": "Point","coordinates": [103.84672,1.292993]}} 
{"id": "9289976464","server": "2826","farm": "3","userId": "57895727@N05","secret": "b5ce0224be","title": "DollarBird 10JUL2013x01","loc": {"type": "Point","coordinates": [103.84672,1.292993]}} 
{"id": "9077299578","server": "2863","farm": "3","userId": "83633366@N00","secret": "bd3a317c10","title": "Tuesday Night at Clarke Quay","loc": {"type": "Point","coordinates": [103.84543,1.29037]}} 
{"id": "9008706855","server": "7312","farm": "8","userId": "28472171@N08","secret": "8024047c18","title": "Latern outboard boat","loc": {"type": "Point","coordinates": [103.84454,1.290677]}} 
{"id": "9009823822","server": "7430","farm": "8","userId": "28472171@N08","secret": "65f43e55e1","title": "Riverside Point","loc": {"type": "Point","coordinates": [103.84489,1.290502]}} 
{"id": "8983629660","server": "5462","farm": "6","userId": "8857720@N08","secret": "19e63d2347","title": "Char siu - Singapore","loc": {"type": "Point","coordinates": [103.84476,1.291893]}} 
{"id": "8888939607","server": "3691","farm": "4","userId": "32287081@N08","secret": "a569f79473","title": "Carbonara","loc": {"type": "Point","coordinates": [103.845,1.291964]}} 
{"id": "8823890616","server": "8399","farm": "9","userId": "53207432@N00","secret": "93a5c48d06","title": "L1033369","loc": {"type": "Point","coordinates": [103.84405,1.290933]}} 
{"id": "8750135664","server": "7442","farm": "8","userId": "89542747@N03","secret": "f78ef44ff1","title": "colourful","loc": {"type": "Point","coordinates": [103.84818,1.290441]}} 
{"id": "9428850700","server": "2886","farm": "3","userId": "30436867@N00","secret": "8d05daf577","title": "Deluxe Shabu Ramen","loc": {"type": "Point","coordinates": [103.845085,1.291287]}} 
{"id": "9428746666","server": "5347","farm": "6","userId": "30436867@N00","secret": "f5fe779fe3","title": "茶","loc": {"type": "Point","coordinates": [103.845085,1.291288]}} 
{"id": "9424935571","server": "3820","farm": "4","userId": "57895727@N05","secret": "6e5c517746","title": "PiedFantail 21JUL2013x01","loc": {"type": "Point","coordinates": [103.84672,1.292993]}} 
{"id": "9424935819","server": "2869","farm": "3","userId": "57895727@N05","secret": "f7be8d41d9","title": "PiedFantail 21JUL2013x02","loc": {"type": "Point","coordinates": [103.84672,1.292993]}} 
{"id": "9419096677","server": "5336","farm": "6","userId": "57895727@N05","secret": "78dd68b28e","title": "PiedFantail 11JUL2013x01","loc": {"type": "Point","coordinates": [103.84672,1.292993]}} 
{"id": "9390360604","server": "2828","farm": "3","userId": "98896805@N02","secret": "18f1281544","title": "DSCN0333.JPG","loc": {"type": "Point","coordinates": [103.84554,1.290369]}} 
{"id": "9384140137","server": "3674","farm": "4","userId": "98896805@N02","secret": "d5a4de68c5","title": "DSCN0321.JPG","loc": {"type": "Point","coordinates": [103.84599,1.290566]}} 
{"id": "9384128055","server": "2812","farm": "3","userId": "98896805@N02","secret": "5ece1545cf","title": "DSCN0319.JPG","loc": {"type": "Point","coordinates": [103.84584,1.29063]}} 
{"id": "9386931386","server": "3732","farm": "4","userId": "98896805@N02","secret": "aa7be1cda4","title": "DSCN0325_1.JPG","loc": {"type": "Point","coordinates": [103.845535,1.290405]}} 
{"id": "9386910832","server": "2828","farm": "3","userId": "98896805@N02","secret": "0800aafa81","title": "DSCN0320.JPG","loc": {"type": "Point","coordinates": [103.84592,1.290577]}} 
{"id": "9383965615","server": "7416","farm": "8","userId": "98896805@N02","secret": "dbba5787f1","title": "DSCN0290.JPG","loc": {"type": "Point","coordinates": [103.84491,1.290688]}} 
{"id": "9386734810","server": "5547","farm": "6","userId": "98896805@N02","secret": "361a2f00f0","title": "DSCN0289.JPG","loc": {"type": "Point","coordinates": [103.84491,1.290688]}} 
{"id": "9386675744","server": "3734","farm": "4","userId": "98896805@N02","secret": "90dd8aafb7","title": "DSCN0288.JPG","loc": {"type": "Point","coordinates": [103.84491,1.290688]}} 
{"id": "9383899105","server": "3826","farm": "4","userId": "98896805@N02","secret": "61887c9743","title": "DSCN0286.JPG","loc": {"type": "Point","coordinates": [103.84491,1.290688]}} 
{"id": "9383065725","server": "7289","farm": "8","userId": "98896805@N02","secret": "f7cfe59ca2","title": "DSCN0285.JPG","loc": {"type": "Point","coordinates": [103.844826,1.290688]}} 
{"id": "9385830262","server": "2894","farm": "3","userId": "98896805@N02","secret": "7b63850b05","title": "DSCN0283.JPG","loc": {"type": "Point","coordinates": [103.84461,1.290788]}} 
{"id": "9383058415","server": "5529","farm": "6","userId": "98896805@N02","secret": "4dc02f81cc","title": "DSCN0284.JPG","loc": {"type": "Point","coordinates": [103.84469,1.290702]}} 
{"id": "9380382931","server": "3759","farm": "4","userId": "98896805@N02","secret": "4d8f2b9fac","title": "DSCN0259.JPG","loc": {"type": "Point","coordinates": [103.84509,1.290733]}} 
{"id": "9377030113","server": "7316","farm": "8","userId": "74006149@N07","secret": "cb42010612","title": "KOed. #street #nightlife #sg #mcd anyone at Clarke quay area?","loc": {"type": "Point","coordinates": [103.845085,1.291959]}} 
{"id": "9378833356","server": "5507","farm": "6","userId": "98896805@N02","secret": "612c2e912a","title": "DSCN0325.JPG","loc": {"type": "Point","coordinates": [103.845535,1.290405]}} 
{"id": "9376036148","server": "5500","farm": "6","userId": "57629484@N03","secret": "9caa607486","title": "Nothing like a #McFlurry after a hardcore play session. #mcdonalds #singapore","loc": {"type": "Point","coordinates": [103.845085,1.291959]}} 
{"id": "9375815562","server": "3719","farm": "4","userId": "57629484@N03","secret": "e121e7ed05","title": "At Royce #playcentre #singapore","loc": {"type": "Point","coordinates": [103.84479,1.291234]}} 
{"id": "9342595467","server": "3782","farm": "4","userId": "14501676@N07","secret": "ab7a020028","title": "classic ribs - slow baked ribs with a honey, hoisin & orange glaze","loc": {"type": "Point","coordinates": [103.84601,1.291264]}} 
{"id": "9342615775","server": "7354","farm": "8","userId": "14501676@N07","secret": "78c021937f","title": "fern & kiwi - bar & eatery","loc": {"type": "Point","coordinates": [103.84601,1.291264]}} 
{"id": "9345351358","server": "5441","farm": "6","userId": "14501676@N07","secret": "e1ff4720ee","title": "'pure south' beef carpaccio","loc": {"type": "Point","coordinates": [103.84601,1.291264]}} 
{"id": "9342545365","server": "2867","farm": "3","userId": "14501676@N07","secret": "8b3b1301ec","title": "seasonal green salad ~ acid free tomatoes, diced cucumbers, sliced oranges & fresh herbs","loc": {"type": "Point","coordinates": [103.84601,1.291264]}} 
{"id": "9342514613","server": "7441","farm": "8","userId": "14501676@N07","secret": "b096cf59d5","title": "mango frozen margarita","loc": {"type": "Point","coordinates": [103.84601,1.291264]}} 
{"id": "9337542023","server": "7412","farm": "8","userId": "57895727@N05","secret": "b177e39997","title": "Abbott'sBabbler 12JUL2013x01","loc": {"type": "Point","coordinates": [103.84672,1.292993]}} 
{"id": "9340328768","server": "2846","farm": "3","userId": "57895727@N05","secret": "190af75d4f","title": "BlueThroatedBeeEater 12JUL2013x01","loc": {"type": "Point","coordinates": [103.84672,1.292993]}} 
{"id": "9325949850","server": "3693","farm": "4","userId": "57629484@N03","secret": "61ff488818","title": "Ilan working up a storm in the kitchen. #singapore #play #kids","loc": {"type": "Point","coordinates": [103.84479,1.291234]}} 
{"id": "9320540063","server": "2849","farm": "3","userId": "30476053@N00","secret": "62ee2bb296","title": "Omg it's Stas angmoski #fenixroom #mates #djing #Singapore #instagood #htcone #ultrapixels","loc": {"type": "Point","coordinates": [103.846085,1.290742]}} 
{"id": "9323255290","server": "3672","farm": "4","userId": "13198911@N00","secret": "aa6d6bf574","title": "Imma go home eventually...","loc": {"type": "Point","coordinates": [103.84533,1.290484]}} 
{"id": "9321078918","server": "2805","farm": "3","userId": "57895727@N05","secret": "1377a1e5de","title": "AsianGlossyStarling (J) 11JUL2013x01","loc": {"type": "Point","coordinates": [103.84672,1.292993]}} 
{"id": "9312349923","server": "5509","farm": "6","userId": "57895727@N05","secret": "c3ce7f512f","title": "RainbowLorikeet 10jul2013x03","loc": {"type": "Point","coordinates": [103.84672,1.292993]}} 
{"id": "9306973544","server": "7416","farm": "8","userId": "96738935@N00","secret": "e1357fce19","title": "IMG_2914","loc": {"type": "Point","coordinates": [103.848,1.2905]}} 
{"id": "9305389766","server": "5324","farm": "6","userId": "57895727@N05","secret": "b367910433","title": "BlueRumpedParrot 12JUL2013x01","loc": {"type": "Point","coordinates": [103.84672,1.292993]}} 
{"id": "9305384502","server": "3778","farm": "4","userId": "57895727@N05","secret": "002e1e5715","title": "BlueRumpedParrot (M) 12JUL2013x02","loc": {"type": "Point","coordinates": [103.84672,1.292993]}} 
{"id": "9305389438","server": "2843","farm": "3","userId": "57895727@N05","secret": "b9e8d9d571","title": "BlueRumpedParrot (M/J) 12JUL2013x01","loc": {"type": "Point","coordinates": [103.84672,1.292993]}} 
{"id": "9305385320","server": "7311","farm": "8","userId": "57895727@N05","secret": "2c2cf28d62","title": "BlueRumpedParrot (M) 12JUL2013x01","loc": {"type": "Point","coordinates": [103.84672,1.292993]}} 
{"id": "9305389042","server": "5498","farm": "6","userId": "57895727@N05","secret": "4ffb4e20b0","title": "BlueRumpedParrot (M/J) 12JUL2013x02","loc": {"type": "Point","coordinates": [103.84672,1.292993]}} 
{"id": "9302394853","server": "3786","farm": "4","userId": "96738935@N00","secret": "737d28a30b","title": "IMG_0915","loc": {"type": "Point","coordinates": [103.84333,1.293]}} 
{"id": "9299663794","server": "7423","farm": "8","userId": "57895727@N05","secret": "5006201272","title": "OlivebackedSunbird 07May2013x01","loc": {"type": "Point","coordinates": [103.84672,1.292993]}} 
{"id": "9287197781","server": "5466","farm": "6","userId": "57895727@N05","secret": "4256168abe","title": "HillMyna 12JUL2013x01","loc": {"type": "Point","coordinates": [103.84672,1.292993]}} 
{"id": "9280700749","server": "3829","farm": "4","userId": "11434986@N04","secret": "54671789bf","title": "'A good actor will make a performance seem, perfectly natural..' #acting #pretending #lastnight","loc": {"type": "Point","coordinates": [103.846085,1.290742]}} 
{"id": "9279573034","server": "3755","farm": "4","userId": "11434986@N04","secret": "2710e3b0a0","title": "Thnx for coming @bialy_atsawa","loc": {"type": "Point","coordinates": [103.846085,1.290742]}} 
{"id": "9276571427","server": "3679","farm": "4","userId": "11434986@N04","secret": "e29af805ef","title": "Nooooo!!!! Not again!!!! I promise I won't get trash tonight!!! ✨#fenix #sg #singapore #mystorysg #party #partygirl #partyanimal #satnight #damn nnnn","loc": {"type": "Point","coordinates": [103.846085,1.290742]}} 
{"id": "9276415593","server": "7308","farm": "8","userId": "11434986@N04","secret": "b5a1ee0f0f","title": "Yesssss!! Babeeeeee!!! My fav #cristal ever!!!!!!! Muahhhh!!!","loc": {"type": "Point","coordinates": [103.846085,1.290742]}} 
{"id": "9276350667","server": "5450","farm": "6","userId": "11434986@N04","secret": "ddb4ebfb0d","title": "Here I am..  #satnight #again nnnnnn","loc": {"type": "Point","coordinates": [103.846085,1.290742]}} 
{"id": "9252225013","server": "3721","farm": "4","userId": "13523861@N03","secret": "fe84584746","title": "Tea with dad","loc": {"type": "Point","coordinates": [103.84499,1.291557]}} 
{"id": "9245145963","server": "5510","farm": "6","userId": "57895727@N05","secret": "0e84dde87c","title": "GreaterPaintedSnipe(M) 04JUL2013x02","loc": {"type": "Point","coordinates": [103.84672,1.292993]}} 
{"id": "9239576436","server": "5531","farm": "6","userId": "57895727@N05","secret": "24550816c7","title": "CommonKingfisher 04nov2012x01","loc": {"type": "Point","coordinates": [103.84672,1.292993]}} 
{"id": "9229002816","server": "3748","farm": "4","userId": "92593934@N04","secret": "7c84d92d55","title": "Roar for ramen! *burp","loc": {"type": "Point","coordinates": [103.84496,1.292042]}} 
{"id": "9218956427","server": "7328","farm": "8","userId": "13394179@N06","secret": "3806c1f1f4","title": "IMAG0479","loc": {"type": "Point","coordinates": [103.84795,1.293108]}} 
{"id": "9218956581","server": "5507","farm": "6","userId": "13394179@N06","secret": "74db0a632d","title": "IMAG0477","loc": {"type": "Point","coordinates": [103.84788,1.293394]}} 
{"id": "9221732362","server": "5475","farm": "6","userId": "13394179@N06","secret": "f7f32f0b13","title": "IMAG0478","loc": {"type": "Point","coordinates": [103.847855,1.293377]}} 
{"id": "9215455600","server": "3827","farm": "4","userId": "24125024@N06","secret": "ec7f62dff5","title": "Project Continuation #216 'A couple in red shirt'","loc": {"type": "Point","coordinates": [103.84533,1.290833]}} 
{"id": "9209284796","server": "3808","farm": "4","userId": "30051432@N02","secret": "dc800b4a29","title": "Singapore Clarke Quay","loc": {"type": "Point","coordinates": [103.84477,1.290762]}} 
{"id": "9206503687","server": "2867","farm": "3","userId": "30051432@N02","secret": "db78bc6e9a","title": "Singapore Clarke Quay","loc": {"type": "Point","coordinates": [103.844894,1.290977]}} 
{"id": "9209284588","server": "7302","farm": "8","userId": "30051432@N02","secret": "fc5087d2dc","title": "Singapore Clarke Quay","loc": {"type": "Point","coordinates": [103.84473,1.290934]}} 
{"id": "9209048996","server": "7360","farm": "8","userId": "74006149@N07","secret": "15beb04c2d","title": "Some ppl want Meat for this weekend chalet #cosfest #meatporn","loc": {"type": "Point","coordinates": [103.8449,1.29195]}} 
{"id": "9183596684","server": "7352","farm": "8","userId": "74006149@N07","secret": "326fe28c13","title": "Okay if tamoya udon dun settle my udon craving... I need to go Japan le... #foodporn #dinner #japanese #food","loc": {"type": "Point","coordinates": [103.84499,1.291557]}} 
{"id": "9180442657","server": "3820","farm": "4","userId": "91122271@N03","secret": "4e0af22001","title": "Colourful :)  #mci #windows #colourful #awesome","loc": {"type": "Point","coordinates": [103.848335,1.29078]}} 
{"id": "9181388776","server": "3831","farm": "4","userId": "57895727@N05","secret": "6e21439b64","title": "GoldenbilledGerygone23MAY2013x02","loc": {"type": "Point","coordinates": [103.84672,1.292993]}} 
{"id": "9179174397","server": "3758","farm": "4","userId": "57895727@N05","secret": "fc9329ce78","title": "GoldenbilledGerygone 22may2013x03","loc": {"type": "Point","coordinates": [103.84672,1.292993]}} 
{"id": "9179173525","server": "2822","farm": "3","userId": "57895727@N05","secret": "ea259a7971","title": "GoldenbilledGerygone 22may2013x01","loc": {"type": "Point","coordinates": [103.84672,1.292993]}} 
{"id": "9179173243","server": "7309","farm": "8","userId": "57895727@N05","secret": "0833dc1f5e","title": "GoldenbilledGerygone 22may2013x02","loc": {"type": "Point","coordinates": [103.84672,1.292993]}} 
{"id": "9125185518","server": "5543","farm": "6","userId": "92845688@N08","secret": "8d1f714f40","title": "Chinatown","loc": {"type": "Point","coordinates": [103.844315,1.292843]}} 
{"id": "9122928419","server": "3805","farm": "4","userId": "92845688@N08","secret": "4e983b1e12","title": "Long Beach","loc": {"type": "Point","coordinates": [103.844315,1.292843]}} 
{"id": "9125178986","server": "3686","farm": "4","userId": "92845688@N08","secret": "01b8459d46","title": "Little India","loc": {"type": "Point","coordinates": [103.844315,1.292843]}} 
{"id": "9125170992","server": "3798","farm": "4","userId": "92845688@N08","secret": "302a5a9c88","title": "Wilford Family","loc": {"type": "Point","coordinates": [103.844315,1.292843]}} 
{"id": "9125200700","server": "7395","farm": "8","userId": "92845688@N08","secret": "cf5f2ef99e","title": "Botanical Gardens","loc": {"type": "Point","coordinates": [103.844315,1.292843]}} 
{"id": "9125239000","server": "7381","farm": "8","userId": "92845688@N08","secret": "3333de1149","title": "Raffles Place","loc": {"type": "Point","coordinates": [103.844315,1.292843]}} 
{"id": "9125141052","server": "2875","farm": "3","userId": "92845688@N08","secret": "148d03ff07","title": "Raffles Place","loc": {"type": "Point","coordinates": [103.844315,1.292843]}} 
{"id": "9125231462","server": "5340","farm": "6","userId": "92845688@N08","secret": "bd469326ab","title": "Raffles Place","loc": {"type": "Point","coordinates": [103.844315,1.292843]}} 
{"id": "9125124042","server": "2845","farm": "3","userId": "92845688@N08","secret": "d125e5518c","title": "Inter-Continental","loc": {"type": "Point","coordinates": [103.844315,1.292843]}} 
{"id": "9122920311","server": "2891","farm": "3","userId": "92845688@N08","secret": "bc41d97700","title": "Holland Village","loc": {"type": "Point","coordinates": [103.844315,1.292843]}} 
{"id": "9125173320","server": "7365","farm": "8","userId": "92845688@N08","secret": "e5757b8491","title": "Mall","loc": {"type": "Point","coordinates": [103.844315,1.292843]}} 
{"id": "9125131722","server": "3821","farm": "4","userId": "92845688@N08","secret": "f37628b91b","title": "Inter-Continental","loc": {"type": "Point","coordinates": [103.844315,1.292843]}} 
{"id": "9125180698","server": "5463","farm": "6","userId": "92845688@N08","secret": "de35dd23de","title": "Little India","loc": {"type": "Point","coordinates": [103.844315,1.292843]}} 
{"id": "9122893459","server": "7455","farm": "8","userId": "92845688@N08","secret": "51ae8d5a11","title": "Inter-Continental","loc": {"type": "Point","coordinates": [103.844315,1.292843]}} 
{"id": "9122989975","server": "3741","farm": "4","userId": "92845688@N08","secret": "699fb9b162","title": "Raffles Place","loc": {"type": "Point","coordinates": [103.844315,1.292843]}} 
{"id": "9125137992","server": "2836","farm": "3","userId": "92845688@N08","secret": "c569a43ae4","title": "Inter-Continental","loc": {"type": "Point","coordinates": [103.844315,1.292843]}} 
{"id": "9125240034","server": "7448","farm": "8","userId": "92845688@N08","secret": "5894efa498","title": "Collyer Quay","loc": {"type": "Point","coordinates": [103.844315,1.292843]}} 
{"id": "9125221674","server": "3669","farm": "4","userId": "92845688@N08","secret": "91f49de1bf","title": "Botanical Gardens","loc": {"type": "Point","coordinates": [103.844315,1.292843]}} 
{"id": "9109462225","server": "2892","farm": "3","userId": "91996050@N03","secret": "e3606c25ee","title": "OLA!!! #playhouse","loc": {"type": "Point","coordinates": [103.84545,1.290586]}} 
{"id": "9100077757","server": "3705","farm": "4","userId": "88201527@N00","secret": "a4f7be5ac2","title": "Clarke Quay","loc": {"type": "Point","coordinates": [103.8455,1.2905]}} 
{"id": "9100075669","server": "2821","farm": "3","userId": "88201527@N00","secret": "e401a18737","title": "Clarke Quay","loc": {"type": "Point","coordinates": [103.84683,1.2905]}} 
{"id": "9097313091","server": "7329","farm": "8","userId": "57629484@N03","secret": "4a6d993a1f","title": "Ilan enjoying a afternoon #McFlurry treat from #McDonalds #singapore","loc": {"type": "Point","coordinates": [103.845146,1.291977]}} 
{"id": "9090508011","server": "5441","farm": "6","userId": "14385475@N05","secret": "9efcb5ecc8","title": "IMG_7186","loc": {"type": "Point","coordinates": [103.844,1.292833]}} 
{"id": "9087374970","server": "7406","farm": "8","userId": "91765621@N04","secret": "e81d8c4475","title": "","loc": {"type": "Point","coordinates": [103.845665,1.291166]}} 
{"id": "9084937078","server": "3777","farm": "4","userId": "92845688@N08","secret": "5dfdd15cfc","title": "Hindu temple, Singapore","loc": {"type": "Point","coordinates": [103.844315,1.292843]}} 
{"id": "9082714359","server": "7318","farm": "8","userId": "92845688@N08","secret": "1960a4fbcf","title": "Lizard on a stick...only in Chinatown, Singapore","loc": {"type": "Point","coordinates": [103.844315,1.292843]}} 
{"id": "9075732858","server": "5519","farm": "6","userId": "57895727@N05","secret": "cf89d223a7","title": "BlackNapedTern 21Apr2013x04","loc": {"type": "Point","coordinates": [103.84672,1.292993]}} 
{"id": "9057437781","server": "3697","farm": "4","userId": "9225423@N03","secret": "5f2dd7fa19","title": "DSC_0016","loc": {"type": "Point","coordinates": [103.84813,1.290602]}} 
{"id": "9058313846","server": "2863","farm": "3","userId": "38662956@N00","secret": "f01b65d6e6","title": "Jeremy aka The Constant Idealist","loc": {"type": "Point","coordinates": [103.84573,1.291259]}} 
{"id": "9058139134","server": "2883","farm": "3","userId": "38662956@N00","secret": "d023490dea","title": "Su Hee at Sunday Originals","loc": {"type": "Point","coordinates": [103.84573,1.291259]}} 
{"id": "9032610937","server": "7436","farm": "8","userId": "92696820@N08","secret": "cb5ee54470","title": "Inside apartment...just now...sing sing sing with fellows... #ss_white21 @snhanifa @dewihanifah","loc": {"type": "Point","coordinates": [103.84289,1.292369]}} 
{"id": "9032811150","server": "2867","farm": "3","userId": "57895727@N05","secret": "4bca85b7af","title": "SavannaNightjar 06APR2013x01","loc": {"type": "Point","coordinates": [103.84672,1.292993]}} 
{"id": "9028626523","server": "3746","farm": "4","userId": "63899932@N00","secret": "963e8bf790","title": "和Jess一起吃冰淇淋一起拍照。","loc": {"type": "Point","coordinates": [103.846664,1.290833]}} 
{"id": "9023194019","server": "7399","farm": "8","userId": "40798914@N00","secret": "7472731289","title": "IMG776","loc": {"type": "Point","coordinates": [103.845535,1.290835]}} 
{"id": "9025460324","server": "8128","farm": "9","userId": "40798914@N00","secret": "5f24ea81d5","title": "MOV023","loc": {"type": "Point","coordinates": [103.845535,1.290835]}} 
{"id": "9008692507","server": "7320","farm": "8","userId": "28472171@N08","secret": "fc0eb23579","title": "Panoramic view from Singapore River to Clarke Quay","loc": {"type": "Point","coordinates": [103.84454,1.290672]}} 
{"id": "9008657343","server": "2811","farm": "3","userId": "28472171@N08","secret": "cbffb3757a","title": "View from Singapore River to Clarke Quay","loc": {"type": "Point","coordinates": [103.84454,1.290669]}} 
{"id": "8994108000","server": "3747","farm": "4","userId": "9031961@N02","secret": "9764b389dc","title": "The best place to hang out for a 22-month-old.","loc": {"type": "Point","coordinates": [103.84479,1.291234]}} 
{"id": "8982621259","server": "5343","farm": "6","userId": "57629484@N03","secret": "9fab352ef8","title": "I can see me in this #car on #FathersDay next week?","loc": {"type": "Point","coordinates": [103.845215,1.291648]}} 
{"id": "8976560077","server": "2890","farm": "3","userId": "57775711@N00","secret": "18a3376efe","title": "And now dessert after disappointing Udon.","loc": {"type": "Point","coordinates": [103.84489,1.292188]}} 
{"id": "8973236588","server": "2879","farm": "3","userId": "94460638@N08","secret": "aa10a38de6","title": "Fun of us","loc": {"type": "Point","coordinates": [103.84517,1.290666]}} 
{"id": "8972044571","server": "5464","farm": "6","userId": "94460638@N08","secret": "ccc53838c0","title": "Fun of us","loc": {"type": "Point","coordinates": [103.84517,1.290666]}} 
{"id": "8973214724","server": "5449","farm": "6","userId": "94460638@N08","secret": "d86b8824d7","title": "Fun of us","loc": {"type": "Point","coordinates": [103.845,1.290666]}} 
{"id": "8972002437","server": "3703","farm": "4","userId": "94460638@N08","secret": "daaceec97c","title": "Fun of us","loc": {"type": "Point","coordinates": [103.845,1.290666]}} 
{"id": "8972431434","server": "8553","farm": "9","userId": "11434986@N04","secret": "223029fc7e","title": "I need it!!!!!!  @playhousesg @aunmai ✨","loc": {"type": "Point","coordinates": [103.84545,1.290586]}} 
{"id": "8964396909","server": "2864","farm": "3","userId": "57895727@N05","secret": "a082e96c6e","title": "MaskedLapwing 14may2013x04 (2)","loc": {"type": "Point","coordinates": [103.84672,1.292993]}} 
{"id": "8965538622","server": "3714","farm": "4","userId": "57895727@N05","secret": "40c9a5cd3d","title": "MaskedLapwing 14may2013x02","loc": {"type": "Point","coordinates": [103.84672,1.292993]}} 
{"id": "8964344877","server": "8278","farm": "9","userId": "57895727@N05","secret": "ffd55b683d","title": "MaskedLapwing 14may2013x01 (2)","loc": {"type": "Point","coordinates": [103.84672,1.292993]}} 
{"id": "8953666331","server": "2819","farm": "3","userId": "36163014@N00","secret": "db9226e0f6","title": "P1010444","loc": {"type": "Point","coordinates": [103.84725,1.292099]}} 
{"id": "8954836192","server": "2872","farm": "3","userId": "36163014@N00","secret": "d4132c9951","title": "P1010441","loc": {"type": "Point","coordinates": [103.847885,1.293219]}} 
{"id": "8954874358","server": "3673","farm": "4","userId": "36163014@N00","secret": "281ddbd207","title": "P1010445","loc": {"type": "Point","coordinates": [103.84746,1.290644]}} 
{"id": "8953648041","server": "3815","farm": "4","userId": "36163014@N00","secret": "a22f2647bd","title": "P1010442","loc": {"type": "Point","coordinates": [103.847885,1.293219]}} 
{"id": "8954885112","server": "7297","farm": "8","userId": "36163014@N00","secret": "76b316f88e","title": "P1010446","loc": {"type": "Point","coordinates": [103.84746,1.290644]}} 
{"id": "8954854374","server": "3750","farm": "4","userId": "36163014@N00","secret": "ba2f01ba82","title": "P1010443","loc": {"type": "Point","coordinates": [103.84725,1.292099]}} 
{"id": "8947151180","server": "8535","farm": "9","userId": "57895727@N05","secret": "c62dfb784d","title": "LittleTern 27MAY2013x02","loc": {"type": "Point","coordinates": [103.84672,1.292993]}} 
{"id": "8934769129","server": "3833","farm": "4","userId": "41933249@N08","secret": "6927d16702","title": "Dinner time!","loc": {"type": "Point","coordinates": [103.84572,1.290953]}} 
{"id": "8925017656","server": "7430","farm": "8","userId": "57895727@N05","secret": "35b118f2f7","title": "GreaterRackettailedDrongo16mar2013x02","loc": {"type": "Point","coordinates": [103.84672,1.292993]}} 
{"id": "8922793548","server": "5340","farm": "6","userId": "9031961@N02","secret": "bfae0494b1","title": "I AM NO. 1!!!! #boy #son #loveofmylife #funnyexpression #ferrari #ride #playgym","loc": {"type": "Point","coordinates": [103.84479,1.291234]}} 
{"id": "8889945193","server": "3760","farm": "4","userId": "57895727@N05","secret": "70fc95c695","title": "GreaterRackettailedDrongo 20APR2013x04","loc": {"type": "Point","coordinates": [103.84672,1.292993]}} 
{"id": "8890562760","server": "5447","farm": "6","userId": "57895727@N05","secret": "2b51d71ccf","title": "GreaterRacketTailedDrongo 16MAR2013x01","loc": {"type": "Point","coordinates": [103.84672,1.292993]}} 
{"id": "8890575008","server": "5453","farm": "6","userId": "57895727@N05","secret": "125b041873","title": "GreaterRackettailedDrongo 20APR2013x03","loc": {"type": "Point","coordinates": [103.84672,1.292993]}} 
{"id": "8888887458","server": "5332","farm": "6","userId": "11434986@N04","secret": "213eeaab1f","title": "After party with @aunmai","loc": {"type": "Point","coordinates": [103.84545,1.290586]}} 
{"id": "8839341866","server": "8419","farm": "9","userId": "57895727@N05","secret": "2361d86947","title": "LittleGrebe 20May2013x02","loc": {"type": "Point","coordinates": [103.84672,1.292993]}} 
{"id": "8839345424","server": "7365","farm": "8","userId": "57895727@N05","secret": "8c22912d77","title": "LittleGrebe 20May2013x01","loc": {"type": "Point","coordinates": [103.84672,1.292993]}} 
{"id": "8822763896","server": "5323","farm": "6","userId": "38662956@N00","secret": "d35077d3a8","title": "The Artists","loc": {"type": "Point","coordinates": [103.84573,1.291259]}} 
{"id": "8812152591","server": "8551","farm": "9","userId": "38662956@N00","secret": "4619fc82e5","title": "Shelves at Music Matters Live","loc": {"type": "Point","coordinates": [103.84573,1.291259]}} 
{"id": "8812141905","server": "7415","farm": "8","userId": "38662956@N00","secret": "0b7f96f152","title": "Noel of Shelves at Music Matters Live","loc": {"type": "Point","coordinates": [103.84573,1.291259]}} 
{"id": "8822711912","server": "2844","farm": "3","userId": "38662956@N00","secret": "8ae7ee254c","title": "Shelves at Music Matters Live","loc": {"type": "Point","coordinates": [103.84573,1.291259]}} 
{"id": "8812135729","server": "5468","farm": "6","userId": "38662956@N00","secret": "ed3a0e6f06","title": "Brian of Shelves at Music Matters Live","loc": {"type": "Point","coordinates": [103.84573,1.291259]}} 
{"id": "8821377052","server": "3806","farm": "4","userId": "96274365@N03","secret": "c08eaa3109","title": "Signs in Chinatown, Singapore, in the rain.","loc": {"type": "Point","coordinates": [103.84323,1.292157]}} 
{"id": "8813180530","server": "3711","farm": "4","userId": "38662956@N00","secret": "3f929f3fc3","title": "The Rabbit & the Scarecrow","loc": {"type": "Point","coordinates": [103.84496,1.292042]}} 
{"id": "8802205696","server": "5339","farm": "6","userId": "85522272@N06","secret": "93f19c01eb","title": "upload","loc": {"type": "Point","coordinates": [103.84473,1.292288]}} 
{"id": "8791600917","server": "5340","farm": "6","userId": "85522272@N06","secret": "4bba09b184","title": "upload","loc": {"type": "Point","coordinates": [103.84473,1.292288]}} 
{"id": "8802084510","server": "3749","farm": "4","userId": "85522272@N06","secret": "577201c696","title": "upload","loc": {"type": "Point","coordinates": [103.84473,1.292288]}} 
{"id": "8791527305","server": "7434","farm": "8","userId": "85522272@N06","secret": "026670e5ce","title": "upload","loc": {"type": "Point","coordinates": [103.84473,1.292288]}} 
{"id": "8802069102","server": "8255","farm": "9","userId": "85522272@N06","secret": "3e46064e78","title": "Fluke","loc": {"type": "Point","coordinates": [103.84473,1.292288]}} 
{"id": "8801998408","server": "7426","farm": "8","userId": "85522272@N06","secret": "731507be31","title": "upload","loc": {"type": "Point","coordinates": [103.84473,1.292288]}} 
{"id": "8795503416","server": "8264","farm": "9","userId": "96115645@N02","secret": "5fbf8dec61","title": "TFBB Champion Breakfast","loc": {"type": "Point","coordinates": [103.84597,1.291868]}} 
{"id": "8784306688","server": "8113","farm": "9","userId": "57895727@N05","secret": "a552c6a0a6","title": "Coppersmith Barbet 05MAY2013x03","loc": {"type": "Point","coordinates": [103.84672,1.292993]}} 
{"id": "8784307864","server": "7454","farm": "8","userId": "57895727@N05","secret": "792db14594","title": "Coppersmith Barbet 04MAY2013x01","loc": {"type": "Point","coordinates": [103.84672,1.292993]}} 
{"id": "8776313269","server": "2894","farm": "3","userId": "53207432@N00","secret": "f8f949430c","title": "L1033192","loc": {"type": "Point","coordinates": [103.84484,1.290591]}} 
{"id": "8767878108","server": "3705","farm": "4","userId": "97236816@N00","secret": "7fc4cd51f0","title": "Singapore","loc": {"type": "Point","coordinates": [103.8456,1.290913]}} 
{"id": "8767893020","server": "8280","farm": "9","userId": "97236816@N00","secret": "2f3907a713","title": "Singapore - Fort Canning Park","loc": {"type": "Point","coordinates": [103.84815,1.291658]}} 
{"id": "8767892348","server": "2844","farm": "3","userId": "97236816@N00","secret": "16e5f538e1","title": "Singapore - Fort Canning Park","loc": {"type": "Point","coordinates": [103.84691,1.291702]}} 
{"id": "8765124743","server": "3784","farm": "4","userId": "97236816@N00","secret": "c8b0495e38","title": "Singapore - Fort Canning Park","loc": {"type": "Point","coordinates": [103.84751,1.292083]}} 
{"id": "8765100197","server": "5332","farm": "6","userId": "97236816@N00","secret": "2c71eea64a","title": "Singapore - Fort Canning Park","loc": {"type": "Point","coordinates": [103.84796,1.292691]}} 
{"id": "8765390910","server": "7391","farm": "8","userId": "53207432@N00","secret": "2693f5e32f","title": "L1033773-2","loc": {"type": "Point","coordinates": [103.84708,1.290466]}} 
{"id": "8765361018","server": "2834","farm": "3","userId": "53207432@N00","secret": "6e73f080df","title": "L1033774","loc": {"type": "Point","coordinates": [103.846214,1.290908]}} 
{"id": "8763376602","server": "8137","farm": "9","userId": "57895727@N05","secret": "28279e2bf4","title": "Macaque 18May2013x01","loc": {"type": "Point","coordinates": [103.84672,1.292993]}} 
{"id": "8761319211","server": "5460","farm": "6","userId": "52537869@N00","secret": "ac41333dc5","title": "包容","loc": {"type": "Point","coordinates": [103.84534,1.291666]}} 
{"id": "8757051891","server": "7295","farm": "8","userId": "46635911@N00","secret": "88b7359d72","title": "L x onigiri!","loc": {"type": "Point","coordinates": [103.84433,1.293333]}} 
{"id": "8756667988","server": "8280","farm": "9","userId": "57895727@N05","secret": "0c10601f00","title": "BlueRumpedParrot (M) 19May2013x02","loc": {"type": "Point","coordinates": [103.84672,1.292993]}} 
{"id": "8756663058","server": "8129","farm": "9","userId": "57895727@N05","secret": "868e9b0eb8","title": "BlueRumpedParrot (F) 19May2013x03","loc": {"type": "Point","coordinates": [103.84672,1.292993]}} 
{"id": "8755541539","server": "5469","farm": "6","userId": "57895727@N05","secret": "4b1ee9f0a4","title": "BlueRumpedParrot (F) 19May2013x01","loc": {"type": "Point","coordinates": [103.84672,1.292993]}} 
{"id": "8750197118","server": "7376","farm": "8","userId": "57895727@N05","secret": "2362342ea2","title": "CrestedGoshawk (J) 15May2013x01","loc": {"type": "Point","coordinates": [103.84672,1.292993]}} 
{"id": "8750196736","server": "5329","farm": "6","userId": "57895727@N05","secret": "03aa206214","title": "CrestedGoshawk (J) 15May2013x02","loc": {"type": "Point","coordinates": [103.84672,1.292993]}} 
{"id": "8744967690","server": "7285","farm": "8","userId": "63022225@N04","secret": "e9c2411cea","title": "IMG_1504","loc": {"type": "Point","coordinates": [103.84464,1.291578]}} 
{"id": "8743858729","server": "7287","farm": "8","userId": "63022225@N04","secret": "0ed2b06e6d","title": "IMG_1506","loc": {"type": "Point","coordinates": [103.84464,1.291578]}} 
{"id": "8744953682","server": "7283","farm": "8","userId": "63022225@N04","secret": "341f9f4450","title": "IMG_1502","loc": {"type": "Point","coordinates": [103.84464,1.291578]}} 
{"id": "8744687566","server": "7286","farm": "8","userId": "63022225@N04","secret": "12bf437066","title": "IMG_1492","loc": {"type": "Point","coordinates": [103.84464,1.291578]}} 
{"id": "8743583905","server": "7285","farm": "8","userId": "63022225@N04","secret": "8056945db0","title": "IMG_1496","loc": {"type": "Point","coordinates": [103.84464,1.291578]}} 
{"id": "8744669844","server": "7283","farm": "8","userId": "63022225@N04","secret": "ae516d072d","title": "IMG_1485","loc": {"type": "Point","coordinates": [103.84464,1.291578]}} 
{"id": "8744645810","server": "7282","farm": "8","userId": "63022225@N04","secret": "8842a0bef0","title": "IMG_1482","loc": {"type": "Point","coordinates": [103.84464,1.291578]}} 
{"id": "8744632844","server": "7285","farm": "8","userId": "63022225@N04","secret": "f5fe30e5d3","title": "IMG_1479","loc": {"type": "Point","coordinates": [103.84464,1.291578]}} 
{"id": "8744554640","server": "7282","farm": "8","userId": "63022225@N04","secret": "eb130336ae","title": "IMG_1472","loc": {"type": "Point","coordinates": [103.84464,1.291578]}} 
{"id": "8743421859","server": "7286","farm": "8","userId": "63022225@N04","secret": "e406ac7eb8","title": "IMG_1468","loc": {"type": "Point","coordinates": [103.84464,1.291578]}} 
{"id": "8743411155","server": "7288","farm": "8","userId": "63022225@N04","secret": "596e7eb5ae","title": "IMG_1465","loc": {"type": "Point","coordinates": [103.84464,1.291578]}} 
{"id": "8743714534","server": "7291","farm": "8","userId": "63022225@N04","secret": "37cdbda922","title": "IMG_1453","loc": {"type": "Point","coordinates": [103.84464,1.291578]}} 
{"id": "8742123638","server": "7283","farm": "8","userId": "63022225@N04","secret": "04733fa28e","title": "IMG_1439","loc": {"type": "Point","coordinates": [103.84464,1.291578]}} 
{"id": "8740972593","server": "7283","farm": "8","userId": "63022225@N04","secret": "f3e77a379f","title": "IMG_1432","loc": {"type": "Point","coordinates": [103.84464,1.291578]}} 
{"id": "8740862179","server": "7281","farm": "8","userId": "63022225@N04","secret": "ea0d949744","title": "IMG_1430","loc": {"type": "Point","coordinates": [103.84464,1.291578]}} 
{"id": "8741955604","server": "7283","farm": "8","userId": "63022225@N04","secret": "a3505c4460","title": "IMG_1425","loc": {"type": "Point","coordinates": [103.84464,1.291578]}} 
{"id": "8741927808","server": "7288","farm": "8","userId": "63022225@N04","secret": "121c64c4fe","title": "IMG_1423","loc": {"type": "Point","coordinates": [103.84464,1.291578]}} 
{"id": "8741938522","server": "7292","farm": "8","userId": "63022225@N04","secret": "740a4bab32","title": "IMG_1424","loc": {"type": "Point","coordinates": [103.84464,1.291578]}} 
{"id": "8739328983","server": "7284","farm": "8","userId": "57895727@N05","secret": "97f3b149ee","title": "PinStripedTitBabbler 02May2013x04","loc": {"type": "Point","coordinates": [103.84672,1.292993]}} 
{"id": "8740445404","server": "7293","farm": "8","userId": "57895727@N05","secret": "934b505915","title": "PinStripedTitBabbler 02May2013x01","loc": {"type": "Point","coordinates": [103.84672,1.292993]}} 
{"id": "8740444750","server": "7289","farm": "8","userId": "57895727@N05","secret": "0b79338045","title": "PinStripedTitBabbler 02May2013x02","loc": {"type": "Point","coordinates": [103.84672,1.292993]}} 
{"id": "8739201768","server": "7287","farm": "8","userId": "63022225@N04","secret": "80d74b7111","title": "IMG_1433","loc": {"type": "Point","coordinates": [103.84464,1.291578]}} 
{"id": "8739147846","server": "7285","farm": "8","userId": "63022225@N04","secret": "35f7a1d79c","title": "IMG_1416","loc": {"type": "Point","coordinates": [103.84464,1.291578]}} 
{"id": "8738022423","server": "7282","farm": "8","userId": "63022225@N04","secret": "dc98879c2a","title": "IMG_1414","loc": {"type": "Point","coordinates": [103.84464,1.291578]}} 
{"id": "8738012705","server": "7288","farm": "8","userId": "63022225@N04","secret": "5fcddaec41","title": "IMG_1407","loc": {"type": "Point","coordinates": [103.84464,1.291578]}} 
{"id": "8739060742","server": "7284","farm": "8","userId": "63022225@N04","secret": "a3e56d1f15","title": "IMG_1405","loc": {"type": "Point","coordinates": [103.84464,1.291578]}} 
{"id": "8739009282","server": "7287","farm": "8","userId": "63022225@N04","secret": "73d4e4096d","title": "IMG_1399","loc": {"type": "Point","coordinates": [103.84464,1.291578]}} 
{"id": "8723209780","server": "7439","farm": "8","userId": "8857720@N08","secret": "bcba24ecfd","title": "Strange Camera - Singapore","loc": {"type": "Point","coordinates": [103.8442,1.29103]}} 
{"id": "8718479707","server": "7365","farm": "8","userId": "57895727@N05","secret": "2c84daa63e","title": "RedNapedTrogon(M) 03MAY2013x02","loc": {"type": "Point","coordinates": [103.84672,1.292993]}} 
{"id": "8682763414","server": "8533","farm": "9","userId": "57895727@N05","secret": "e001ca9eb1","title": "VonSchrencksBittern 25APR2013X01","loc": {"type": "Point","coordinates": [103.84672,1.292993]}} 
{"id": "8650892946","server": "8385","farm": "9","userId": "57895727@N05","secret": "4d601c4e59","title": "BlueWingedPitta 13MAR2013x02","loc": {"type": "Point","coordinates": [103.84672,1.292993]}} 
{"id": "8581623966","server": "8514","farm": "9","userId": "92222429@N05","secret": "3afeae6628","title": "Singapore faro","loc": {"type": "Point","coordinates": [103.84739,1.291856]}} 
{"id": "8549697712","server": "8103","farm": "9","userId": "61108263@N00","secret": "9e6648f45f","title": "Riverside Point at night","loc": {"type": "Point","coordinates": [103.84405,1.290988]}} 
{"id": "8540068484","server": "8239","farm": "9","userId": "61108263@N00","secret": "e58377f804","title": "Directional sign at Fort Canning Park","loc": {"type": "Point","coordinates": [103.84827,1.291342]}} 
{"id": "8539989604","server": "8514","farm": "9","userId": "61108263@N00","secret": "18ed73179d","title": "Old Hill Street Police Station","loc": {"type": "Point","coordinates": [103.84803,1.290484]}} 
{"id": "8539818194","server": "8107","farm": "9","userId": "61108263@N00","secret": "3e171a4268","title": "Relief Sculpture 2","loc": {"type": "Point","coordinates": [103.847534,1.291856]}} 
{"id": "8737026715","server": "7281","farm": "8","userId": "63022225@N04","secret": "260ac14a6d","title": "IMG_1378","loc": {"type": "Point","coordinates": [103.84464,1.291578]}} 
{"id": "8738119742","server": "7281","farm": "8","userId": "63022225@N04","secret": "722c07c42d","title": "IMG_1367","loc": {"type": "Point","coordinates": [103.84464,1.291578]}} 
{"id": "8736819629","server": "7288","farm": "8","userId": "63022225@N04","secret": "3112c60529","title": "IMG_1362","loc": {"type": "Point","coordinates": [103.84464,1.291578]}} 
{"id": "8737917396","server": "7284","farm": "8","userId": "63022225@N04","secret": "6aa1bef869","title": "IMG_1361","loc": {"type": "Point","coordinates": [103.84464,1.291578]}} 
{"id": "8737727074","server": "7287","farm": "8","userId": "57895727@N05","secret": "96f4902695","title": "BlackNapedTern 21Apr2013x03","loc": {"type": "Point","coordinates": [103.84672,1.292993]}} 
{"id": "8736504741","server": "7288","farm": "8","userId": "63022225@N04","secret": "555d481e45","title": "IMG_1442","loc": {"type": "Point","coordinates": [103.84464,1.291578]}} 
{"id": "8736379921","server": "7287","farm": "8","userId": "63022225@N04","secret": "3b0b31a3a9","title": "IMG_1336","loc": {"type": "Point","coordinates": [103.84464,1.291578]}} 
{"id": "8736123152","server": "7290","farm": "8","userId": "63022225@N04","secret": "46311035e1","title": "IMG_1334","loc": {"type": "Point","coordinates": [103.84464,1.291578]}} 
{"id": "8736086124","server": "7322","farm": "8","userId": "63022225@N04","secret": "21154b7bf0","title": "IMG_1324","loc": {"type": "Point","coordinates": [103.84464,1.291578]}} 
{"id": "8735381812","server": "7284","farm": "8","userId": "63022225@N04","secret": "40d9f261b5","title": "IMG_1312","loc": {"type": "Point","coordinates": [103.84464,1.291578]}} 
{"id": "8735294656","server": "7299","farm": "8","userId": "63022225@N04","secret": "ef33bc26cf","title": "IMG_1310","loc": {"type": "Point","coordinates": [103.84464,1.291578]}} 
{"id": "8735026704","server": "7323","farm": "8","userId": "63022225@N04","secret": "178fe51885","title": "IMG_1299","loc": {"type": "Point","coordinates": [103.84464,1.291578]}} 
{"id": "8734775488","server": "7319","farm": "8","userId": "63022225@N04","secret": "f1eda64a8f","title": "IMG_1276","loc": {"type": "Point","coordinates": [103.84464,1.291578]}} 
{"id": "8734638158","server": "7294","farm": "8","userId": "63022225@N04","secret": "08075d5615","title": "IMG_1265","loc": {"type": "Point","coordinates": [103.84464,1.291578]}} 
{"id": "8733472097","server": "7307","farm": "8","userId": "63022225@N04","secret": "ab98fbc865","title": "IMG_1263","loc": {"type": "Point","coordinates": [103.84464,1.291578]}} 
{"id": "8734604374","server": "7298","farm": "8","userId": "63022225@N04","secret": "bd47607ccd","title": "IMG_1264","loc": {"type": "Point","coordinates": [103.84464,1.291578]}} 
{"id": "8733421251","server": "7299","farm": "8","userId": "63022225@N04","secret": "3b08e0a03a","title": "IMG_1248","loc": {"type": "Point","coordinates": [103.84464,1.291578]}} 
{"id": "8733402295","server": "7288","farm": "8","userId": "63022225@N04","secret": "721d108a79","title": "IMG_1245","loc": {"type": "Point","coordinates": [103.84464,1.291578]}} 
{"id": "8734494408","server": "7298","farm": "8","userId": "63022225@N04","secret": "bccfec17e5","title": "IMG_1236","loc": {"type": "Point","coordinates": [103.84464,1.291578]}} 
{"id": "8733390457","server": "7304","farm": "8","userId": "63022225@N04","secret": "95f21b6054","title": "IMG_1239","loc": {"type": "Point","coordinates": [103.84464,1.291578]}} 
{"id": "8734230612","server": "7298","farm": "8","userId": "63022225@N04","secret": "0b2dacb023","title": "IMG_1237","loc": {"type": "Point","coordinates": [103.84464,1.291578]}} 
{"id": "8733012059","server": "7290","farm": "8","userId": "63022225@N04","secret": "caa140eddd","title": "IMG_1223","loc": {"type": "Point","coordinates": [103.84464,1.291578]}} 
{"id": "8731909155","server": "7284","farm": "8","userId": "63022225@N04","secret": "89446e2a36","title": "IMG_1505","loc": {"type": "Point","coordinates": [103.84464,1.291578]}} 
{"id": "8723651790","server": "7337","farm": "8","userId": "57895727@N05","secret": "6938ca541d","title": "RedEyedBulbul 01MAY2013x01","loc": {"type": "Point","coordinates": [103.84672,1.292993]}} 
{"id": "8723653574","server": "7333","farm": "8","userId": "57895727@N05","secret": "b7af36306d","title": "BlackNapedTern 21Apr2013x07","loc": {"type": "Point","coordinates": [103.84672,1.292993]}} 
{"id": "8723253402","server": "7393","farm": "8","userId": "93209726@N08","secret": "f9b976f060","title": "Evening at Clark quay","loc": {"type": "Point","coordinates": [103.84655,1.290441]}} 
{"id": "8721296183","server": "7388","farm": "8","userId": "57895727@N05","secret": "4a4fb70f25","title": "Reticulated Pythons","loc": {"type": "Point","coordinates": [103.84672,1.292993]}} 
{"id": "8720386580","server": "7423","farm": "8","userId": "86522321@N08","secret": "ab7930b0de","title": "P1400291","loc": {"type": "Point","coordinates": [103.84729,1.293187]}} 
{"id": "8718479253","server": "7459","farm": "8","userId": "57895727@N05","secret": "baecc78c8f","title": "RedNapedTrogon(M) 03MAY2013x01","loc": {"type": "Point","coordinates": [103.84672,1.292993]}} 
{"id": "8712960347","server": "8550","farm": "9","userId": "57895727@N05","secret": "9eb744a545","title": "GreyRumpedTreeswift 05may2013x02","loc": {"type": "Point","coordinates": [103.84672,1.292993]}} 
{"id": "8709322577","server": "8417","farm": "9","userId": "57895727@N05","secret": "937c161559","title": "PinTailedWhydah 05may2013x04","loc": {"type": "Point","coordinates": [103.84672,1.292993]}} 
{"id": "8706458753","server": "8277","farm": "9","userId": "83195865@N08","secret": "e347baf8fa","title": "IMG_0977.jpg","loc": {"type": "Point","coordinates": [103.843216,1.293036]}} 
{"id": "8707470642","server": "8116","farm": "9","userId": "74006149@N07","secret": "1429852d67","title": "Dinner! Kama Tampa udon ! #foodporn #dinner #japanese #igsg","loc": {"type": "Point","coordinates": [103.845085,1.291384]}} 
{"id": "8706150589","server": "8416","farm": "9","userId": "83195865@N08","secret": "e0b52be819","title": "IMG_0964.jpg","loc": {"type": "Point","coordinates": [103.843216,1.293036]}} 
{"id": "8706155683","server": "8137","farm": "9","userId": "83195865@N08","secret": "5ae2348c3c","title": "IMG_0979.jpg","loc": {"type": "Point","coordinates": [103.843216,1.293036]}} 
{"id": "8707280840","server": "8126","farm": "9","userId": "83195865@N08","secret": "8684f32f18","title": "IMG_0980.jpg","loc": {"type": "Point","coordinates": [103.843216,1.293036]}} 
{"id": "8707285782","server": "8265","farm": "9","userId": "83195865@N08","secret": "28cb3d125e","title": "IMG_0984.jpg","loc": {"type": "Point","coordinates": [103.843216,1.293036]}} 
{"id": "8707275546","server": "8253","farm": "9","userId": "83195865@N08","secret": "df927f41b2","title": "IMG_0974.jpg","loc": {"type": "Point","coordinates": [103.843216,1.293036]}} 
{"id": "8706154639","server": "8400","farm": "9","userId": "83195865@N08","secret": "901c7b8f5a","title": "IMG_0977-2.jpg","loc": {"type": "Point","coordinates": [103.843216,1.293036]}} 
{"id": "8706150023","server": "8255","farm": "9","userId": "83195865@N08","secret": "bcf26d67af","title": "IMG_0982.jpg","loc": {"type": "Point","coordinates": [103.843216,1.293036]}} 
{"id": "8705827881","server": "8408","farm": "9","userId": "57895727@N05","secret": "96e00e9696","title": "Abbott'sBabbler 02May2013x04","loc": {"type": "Point","coordinates": [103.84672,1.292993]}} 
{"id": "8706600386","server": "8268","farm": "9","userId": "34064267@N00","secret": "b8364f6d7f","title": "03.18.2013","loc": {"type": "Point","coordinates": [103.845,1.292166]}} 
{"id": "8705478741","server": "8278","farm": "9","userId": "34064267@N00","secret": "8b6329f4e2","title": "03.18.2013","loc": {"type": "Point","coordinates": [103.84483,1.292]}} 
{"id": "8704829276","server": "8397","farm": "9","userId": "57895727@N05","secret": "256cdc59b9","title": "Abbott'sBabbler 02May2013x02","loc": {"type": "Point","coordinates": [103.84672,1.292993]}} 
{"id": "8703704649","server": "8558","farm": "9","userId": "57895727@N05","secret": "cb34a32c7a","title": "Abbott'sBabbler 02May2013x01","loc": {"type": "Point","coordinates": [103.84672,1.292993]}} 
{"id": "8685204257","server": "8545","farm": "9","userId": "28137664@N03","secret": "6d7297c0bb","title": "Rear of Ministry of Communications, Hill Street, Singapore","loc": {"type": "Point","coordinates": [103.84825,1.29147]}} 
{"id": "8685203937","server": "8115","farm": "9","userId": "28137664@N03","secret": "58bb4705a8","title": "Fort Canning, Singapore","loc": {"type": "Point","coordinates": [103.84825,1.29147]}} 
{"id": "8686323866","server": "8265","farm": "9","userId": "28137664@N03","secret": "1cb189585e","title": "Raffles Terrace, Fort Canning, Singapore","loc": {"type": "Point","coordinates": [103.84792,1.292189]}} 
{"id": "8686324488","server": "8125","farm": "9","userId": "28137664@N03","secret": "a8f479ed18","title": "Clemenceau Avenue, Singapore (from Fort Canning)","loc": {"type": "Point","coordinates": [103.84616,1.293401]}} 
{"id": "8685204705","server": "8534","farm": "9","userId": "28137664@N03","secret": "e22bea725a","title": "Sunstar behind Fort Canning Lighthouse, Singapore","loc": {"type": "Point","coordinates": [103.84792,1.292189]}} 
{"id": "8686315952","server": "8404","farm": "9","userId": "24989432@N06","secret": "aab20ce9d4","title": "The night is calling, I have to go....","loc": {"type": "Point","coordinates": [103.8455,1.290398]}} 
{"id": "8685204525","server": "8251","farm": "9","userId": "28137664@N03","secret": "616c7a4568","title": "Lighthouse, Fort Canning, Singapore","loc": {"type": "Point","coordinates": [103.84792,1.292189]}} 
{"id": "8685205321","server": "8120","farm": "9","userId": "28137664@N03","secret": "1a15ba093e","title": "Raffles Terrace, Fort Canning, Singapore","loc": {"type": "Point","coordinates": [103.84792,1.292189]}} 
{"id": "8685093547","server": "8396","farm": "9","userId": "94965241@N03","secret": "4b2d2067b9","title": "IMG_7596","loc": {"type": "Point","coordinates": [103.84542,1.290419]}} 
{"id": "8686235192","server": "8258","farm": "9","userId": "94965241@N03","secret": "60a8efe561","title": "IMG_7671","loc": {"type": "Point","coordinates": [103.84542,1.290419]}} 
{"id": "8685054645","server": "8404","farm": "9","userId": "94965241@N03","secret": "b5e8d42182","title": "IMG_7484","loc": {"type": "Point","coordinates": [103.84542,1.290419]}} 
{"id": "8686257956","server": "8537","farm": "9","userId": "94965241@N03","secret": "e3b7e1c27f","title": "IMG_7791","loc": {"type": "Point","coordinates": [103.84542,1.290419]}} 
{"id": "8686162348","server": "8119","farm": "9","userId": "94965241@N03","secret": "3452ae0eb1","title": "IMG_7444","loc": {"type": "Point","coordinates": [103.84542,1.290419]}} 
{"id": "8685097189","server": "8122","farm": "9","userId": "94965241@N03","secret": "1b1c472a7c","title": "IMG_7617","loc": {"type": "Point","coordinates": [103.84542,1.290419]}} 
{"id": "8686165816","server": "8537","farm": "9","userId": "94965241@N03","secret": "fbbb1a9c1f","title": "IMG_7459","loc": {"type": "Point","coordinates": [103.84542,1.290419]}} 
{"id": "8686250732","server": "8122","farm": "9","userId": "94965241@N03","secret": "9e6070ec1a","title": "IMG_7732","loc": {"type": "Point","coordinates": [103.84542,1.290419]}} 
{"id": "8686179798","server": "8114","farm": "9","userId": "94965241@N03","secret": "e56c9ca4e9","title": "IMG_7516","loc": {"type": "Point","coordinates": [103.84542,1.290419]}} 
{"id": "8685119873","server": "8533","farm": "9","userId": "94965241@N03","secret": "afa46c933f","title": "IMG_7683","loc": {"type": "Point","coordinates": [103.84542,1.290419]}} 
{"id": "8686261442","server": "8126","farm": "9","userId": "94965241@N03","secret": "d53c082778","title": "IMG_7798","loc": {"type": "Point","coordinates": [103.84542,1.290419]}} 
{"id": "8685057557","server": "8395","farm": "9","userId": "94965241@N03","secret": "cd3ddb1f50","title": "IMG_7495","loc": {"type": "Point","coordinates": [103.84542,1.290419]}} 
{"id": "8685083575","server": "8399","farm": "9","userId": "94965241@N03","secret": "ddbd99a398","title": "IMG_7566","loc": {"type": "Point","coordinates": [103.84542,1.290419]}} 
{"id": "8685063153","server": "8256","farm": "9","userId": "94965241@N03","secret": "097b8818d3","title": "IMG_7518","loc": {"type": "Point","coordinates": [103.84542,1.290419]}} 
{"id": "8686169010","server": "8255","farm": "9","userId": "94965241@N03","secret": "7236f4a055","title": "IMG_7471","loc": {"type": "Point","coordinates": [103.84542,1.290419]}} 
{"id": "8686207212","server": "8393","farm": "9","userId": "94965241@N03","secret": "d7885b0a66","title": "IMG_7591","loc": {"type": "Point","coordinates": [103.84542,1.290419]}} 
{"id": "8685078829","server": "8124","farm": "9","userId": "94965241@N03","secret": "c844953d6b","title": "IMG_7563","loc": {"type": "Point","coordinates": [103.84542,1.290419]}} 
{"id": "8685074013","server": "8253","farm": "9","userId": "94965241@N03","secret": "dae31d9e32","title": "IMG_7550","loc": {"type": "Point","coordinates": [103.84542,1.290419]}} 
{"id": "8686186594","server": "8534","farm": "9","userId": "94965241@N03","secret": "d0ece00d8f","title": "IMG_7534","loc": {"type": "Point","coordinates": [103.84542,1.290419]}} 
{"id": "8686160316","server": "8126","farm": "9","userId": "94965241@N03","secret": "5f06b331ab","title": "IMG_7465","loc": {"type": "Point","coordinates": [103.84542,1.290419]}} 
{"id": "8685145405","server": "8394","farm": "9","userId": "94965241@N03","secret": "86f3501c6a","title": "IMG_7805","loc": {"type": "Point","coordinates": [103.84542,1.290419]}} 
{"id": "8685042615","server": "8257","farm": "9","userId": "94965241@N03","secret": "49ce5f3b62","title": "IMG_7430","loc": {"type": "Point","coordinates": [103.84542,1.290419]}} 
{"id": "8685123903","server": "8396","farm": "9","userId": "94965241@N03","secret": "a60925a6cf","title": "IMG_7697","loc": {"type": "Point","coordinates": [103.84542,1.290419]}} 
{"id": "8685070873","server": "8535","farm": "9","userId": "94965241@N03","secret": "e79f25319c","title": "IMG_7540","loc": {"type": "Point","coordinates": [103.84542,1.290419]}} 
{"id": "8685101207","server": "8126","farm": "9","userId": "94965241@N03","secret": "2731171a34","title": "IMG_7624","loc": {"type": "Point","coordinates": [103.84542,1.290419]}} 
{"id": "8686254362","server": "8397","farm": "9","userId": "94965241@N03","secret": "612fc65675","title": "IMG_7744","loc": {"type": "Point","coordinates": [103.84542,1.290419]}} 
{"id": "8686228128","server": "8113","farm": "9","userId": "94965241@N03","secret": "2e7845565f","title": "IMG_7651","loc": {"type": "Point","coordinates": [103.84542,1.290419]}} 
{"id": "8685112797","server": "8397","farm": "9","userId": "94965241@N03","secret": "ed524ca4aa","title": "IMG_7664","loc": {"type": "Point","coordinates": [103.84542,1.290419]}} 
{"id": "8685105049","server": "8404","farm": "9","userId": "94965241@N03","secret": "9bf0d73d4c","title": "IMG_7642","loc": {"type": "Point","coordinates": [103.84542,1.290419]}} 
{"id": "8685289796","server": "8545","farm": "9","userId": "57629484@N03","secret": "335639218e","title": "Sachs showing his cousin how to play Mario Cart.","loc": {"type": "Point","coordinates": [103.84479,1.291234]}} 
{"id": "8685235910","server": "8536","farm": "9","userId": "57629484@N03","secret": "9e8c6ba29a","title": "upload","loc": {"type": "Point","coordinates": [103.84479,1.291234]}} 
{"id": "8682763752","server": "8398","farm": "9","userId": "57895727@N05","secret": "509dfc05ac","title": "VonSchrencksBittern 25APR2013X02","loc": {"type": "Point","coordinates": [103.84672,1.292993]}} 
{"id": "8676246477","server": "8391","farm": "9","userId": "57895727@N05","secret": "a57cb4bbd7","title": "BlackNapedOriole13APR2013x02","loc": {"type": "Point","coordinates": [103.84672,1.292993]}} 
{"id": "8676192484","server": "8247","farm": "9","userId": "8659935@N03","secret": "da8c595a7b","title": "Shunju","loc": {"type": "Point","coordinates": [103.843666,1.290911]}} 
{"id": "8666210170","server": "8253","farm": "9","userId": "95165424@N08","secret": "aa3e63122c","title": "Gravure3","loc": {"type": "Point","coordinates": [103.847,1.291749]}} 
{"id": "8666217150","server": "8249","farm": "9","userId": "95165424@N08","secret": "506a436871","title": "Canon","loc": {"type": "Point","coordinates": [103.84721,1.293358]}} 
{"id": "8666217544","server": "8250","farm": "9","userId": "95165424@N08","secret": "01e9ac85b1","title": "Fleur Noir&Blanc + rouge","loc": {"type": "Point","coordinates": [103.846634,1.292715]}} 
{"id": "8665118821","server": "8259","farm": "9","userId": "95165424@N08","secret": "4cd9c8a782","title": "Fleur blanche","loc": {"type": "Point","coordinates": [103.84674,1.292886]}} 
{"id": "8666217752","server": "8264","farm": "9","userId": "95165424@N08","secret": "0f3259eb3c","title": "Fleur jaune","loc": {"type": "Point","coordinates": [103.846954,1.293315]}} 
{"id": "8666217956","server": "8250","farm": "9","userId": "95165424@N08","secret": "bb4047bdea","title": "Fleur rouge","loc": {"type": "Point","coordinates": [103.84692,1.293165]}} 
{"id": "8665119359","server": "8253","farm": "9","userId": "95165424@N08","secret": "7ce9646fbe","title": "Delonix Regia","loc": {"type": "Point","coordinates": [103.84777,1.291899]}} 
{"id": "8666214536","server": "8247","farm": "9","userId": "95165424@N08","secret": "00301efcec","title": "Gravure4","loc": {"type": "Point","coordinates": [103.84689,1.291835]}} 
{"id": "8666214372","server": "8241","farm": "9","userId": "95165424@N08","secret": "81787b22be","title": "Feuilles Details","loc": {"type": "Point","coordinates": [103.84668,1.292543]}} 
{"id": "8665118753","server": "8245","farm": "9","userId": "95165424@N08","secret": "944acdd20b","title": "Fleur","loc": {"type": "Point","coordinates": [103.84668,1.292414]}} 
{"id": "8665112651","server": "8242","farm": "9","userId": "95165424@N08","secret": "0e59e5b267","title": "Warning Spider","loc": {"type": "Point","coordinates": [103.846954,1.291921]}} 
{"id": "8666218180","server": "8260","farm": "9","userId": "95165424@N08","secret": "13a43a8326","title": "Delonix Regia2","loc": {"type": "Point","coordinates": [103.847046,1.293079]}} 
{"id": "8665118323","server": "8262","farm": "9","userId": "95165424@N08","secret": "b539abb51d","title": "Canon","loc": {"type": "Point","coordinates": [103.84698,1.293187]}} 
{"id": "8665104701","server": "8265","farm": "9","userId": "95165424@N08","secret": "14bebb7dd3","title": "Fleur rose seule","loc": {"type": "Point","coordinates": [103.84685,1.292414]}} 
{"id": "8666200532","server": "8246","farm": "9","userId": "95165424@N08","secret": "798bba2fdc","title": "Fleur rose","loc": {"type": "Point","coordinates": [103.847046,1.292757]}} 
{"id": "8665097335","server": "8264","farm": "9","userId": "95165424@N08","secret": "9ea501c48c","title": "Greenwashing2","loc": {"type": "Point","coordinates": [103.847,1.292929]}} 
{"id": "8666205644","server": "8266","farm": "9","userId": "95165424@N08","secret": "b86389d3cb","title": "Gravure2","loc": {"type": "Point","coordinates": [103.847084,1.2925]}} 
{"id": "8666204918","server": "8247","farm": "9","userId": "95165424@N08","secret": "f918b3f3d4","title": "Gravure1","loc": {"type": "Point","coordinates": [103.84698,1.291942]}} 
{"id": "8666157656","server": "8239","farm": "9","userId": "95165424@N08","secret": "5dd72e327b","title": "Raffles Park","loc": {"type": "Point","coordinates": [103.84814,1.29147]}} 
{"id": "8666155706","server": "8252","farm": "9","userId": "95165424@N08","secret": "dcd058ae8f","title": "Volets 2","loc": {"type": "Point","coordinates": [103.84829,1.290698]}} 
{"id": "8665450840","server": "8256","farm": "9","userId": "28137664@N03","secret": "b31a9e396c","title": "Fort Canning, Singapore","loc": {"type": "Point","coordinates": [103.84488,1.292779]}} 
{"id": "8664349297","server": "8255","farm": "9","userId": "28137664@N03","secret": "67bc6a5671","title": "Fort Canning, Singapore","loc": {"type": "Point","coordinates": [103.84488,1.292779]}} 
{"id": "8661782805","server": "8258","farm": "9","userId": "46577167@N00","secret": "81d082371a","title": "Bond Terrace","loc": {"type": "Point","coordinates": [103.847664,1.293]}} 
{"id": "8654726688","server": "8250","farm": "9","userId": "43866013@N00","secret": "acf70c1672","title": "uh oh (part 2)... #postyogaweareintroublenow #cakes!","loc": {"type": "Point","coordinates": [103.84601,1.291812]}} 
{"id": "8653449713","server": "8104","farm": "9","userId": "43866013@N00","secret": "e877025b88","title": "uh oh... #postyogabinge","loc": {"type": "Point","coordinates": [103.84601,1.291812]}} 
{"id": "8649810977","server": "8107","farm": "9","userId": "57895727@N05","secret": "42149c030d","title": "BlueWingedPitta 13MAR2013x01","loc": {"type": "Point","coordinates": [103.84672,1.292993]}} 
{"id": "8649495680","server": "8401","farm": "9","userId": "94936408@N03","secret": "ba5bfe38e3","title": "Dining in the Evening","loc": {"type": "Point","coordinates": [103.84389,1.290784]}} 
{"id": "8648556060","server": "8106","farm": "9","userId": "74006149@N07","secret": "f726429236","title": "How kiasu can your stout be? #singapore #lol","loc": {"type": "Point","coordinates": [103.84494,1.291449]}} 
{"id": "8647415809","server": "8125","farm": "9","userId": "74006149@N07","secret": "352c5208e1","title": "upload","loc": {"type": "Point","coordinates": [103.84489,1.292188]}} 
{"id": "8647368895","server": "8382","farm": "9","userId": "74006149@N07","secret": "6296a17657","title": "How many bowls of udon I had this month Lol!","loc": {"type": "Point","coordinates": [103.845085,1.291384]}} 
{"id": "8644016093","server": "8539","farm": "9","userId": "92982109@N00","secret": "20d3edbe5a","title": "Black Pig layerd tonkatsu #foodspotting - would've like to have bigger serving as it was quite yummy","loc": {"type": "Point","coordinates": [103.84489,1.292188]}} 
{"id": "8645115160","server": "8115","farm": "9","userId": "92982109@N00","secret": "28def2d790","title": "Pont neuf #foodspotting - crunchy base and yummy inside.","loc": {"type": "Point","coordinates": [103.84489,1.292188]}} 
{"id": "8645093104","server": "8379","farm": "9","userId": "99381909@N00","secret": "79698c1d87","title": "So Yums.","loc": {"type": "Point","coordinates": [103.84489,1.292188]}} 
{"id": "8643775012","server": "8403","farm": "9","userId": "53207432@N00","secret": "6439e52320","title": "L1033653","loc": {"type": "Point","coordinates": [103.84366,1.291663]}} 
{"id": "8635103550","server": "8117","farm": "9","userId": "57895727@N05","secret": "4113e05939","title": "LargeTailedNightjar 06apr2013x02","loc": {"type": "Point","coordinates": [103.84672,1.292993]}} 
{"id": "8629781853","server": "8123","farm": "9","userId": "92993390@N00","secret": "507df158a6","title": "Looking up at the rain from a taxi stand.","loc": {"type": "Point","coordinates": [103.844925,1.291773]}} 
{"id": "8629115979","server": "8266","farm": "9","userId": "58287577@N00","secret": "3ccc52f2aa","title": "Clarke Quay, Singapore","loc": {"type": "Point","coordinates": [103.84467,1.290709]}} 
{"id": "8630200044","server": "8115","farm": "9","userId": "58287577@N00","secret": "e002b78eba","title": "One Altitude Bar, Singapore","loc": {"type": "Point","coordinates": [103.84467,1.290709]}} 
{"id": "8629123395","server": "8245","farm": "9","userId": "58287577@N00","secret": "53bd4e2323","title": "Clarke Quay, Singapore","loc": {"type": "Point","coordinates": [103.84467,1.290709]}} 
{"id": "8630203156","server": "8263","farm": "9","userId": "58287577@N00","secret": "8dd6d29c40","title": "Rooftop view, Singapore","loc": {"type": "Point","coordinates": [103.84467,1.290709]}} 
{"id": "8629101643","server": "8102","farm": "9","userId": "58287577@N00","secret": "50760161c4","title": "Rooftop view, Singapore","loc": {"type": "Point","coordinates": [103.84467,1.290709]}} 
{"id": "8630243642","server": "8401","farm": "9","userId": "58287577@N00","secret": "6e5e6a049a","title": "Clarke Quay, Singapore","loc": {"type": "Point","coordinates": [103.84467,1.290709]}} 
{"id": "8629126121","server": "8240","farm": "9","userId": "58287577@N00","secret": "6cd775de80","title": "Clarke Quay, Singapore","loc": {"type": "Point","coordinates": [103.84467,1.290709]}} 
{"id": "8629129143","server": "8392","farm": "9","userId": "58287577@N00","secret": "0bf0267c19","title": "Clarke Quay, Singapore","loc": {"type": "Point","coordinates": [103.84467,1.290709]}} 
{"id": "8629104371","server": "8260","farm": "9","userId": "58287577@N00","secret": "85d12c190d","title": "Raffles Place, Singapore","loc": {"type": "Point","coordinates": [103.84467,1.290709]}} 
{"id": "8630221026","server": "8105","farm": "9","userId": "58287577@N00","secret": "4040715a2a","title": "Clarke Quay, Singapore","loc": {"type": "Point","coordinates": [103.84467,1.290709]}} 
{"id": "8629138993","server": "8109","farm": "9","userId": "58287577@N00","secret": "8505ebbc21","title": "Clarke Quay, Singapore","loc": {"type": "Point","coordinates": [103.84467,1.290709]}} 
{"id": "8630196280","server": "8382","farm": "9","userId": "58287577@N00","secret": "c8c2194f43","title": "Rooftop view, Singapore","loc": {"type": "Point","coordinates": [103.84467,1.290709]}} 
{"id": "8630217656","server": "8399","farm": "9","userId": "58287577@N00","secret": "65e96f8d29","title": "The Fullerton Hotel, Singapore","loc": {"type": "Point","coordinates": [103.84467,1.290709]}} 
{"id": "8629098447","server": "8532","farm": "9","userId": "58287577@N00","secret": "ba36493708","title": "Rooftop view, Singapore","loc": {"type": "Point","coordinates": [103.84467,1.290709]}} 
{"id": "8630226922","server": "8384","farm": "9","userId": "58287577@N00","secret": "e0ef0f0225","title": "Clarke Quay, Singapore","loc": {"type": "Point","coordinates": [103.84467,1.290709]}} 
{"id": "8630214786","server": "8109","farm": "9","userId": "58287577@N00","secret": "4487f4e327","title": "Fat Bird","loc": {"type": "Point","coordinates": [103.84467,1.290709]}} 
{"id": "8627187473","server": "8116","farm": "9","userId": "57895727@N05","secret": "28eba05d1f","title": "ChinesePondHeron 06APR2013x01","loc": {"type": "Point","coordinates": [103.84672,1.292993]}} 
{"id": "8623904626","server": "8256","farm": "9","userId": "57629484@N03","secret": "b7c5fe10cf","title": "Can't believe he's going to be 3 next month - they grow up too quick :(","loc": {"type": "Point","coordinates": [103.84479,1.291234]}} 
{"id": "8622740775","server": "8388","farm": "9","userId": "57629484@N03","secret": "32593e240d","title": "Seriously needed a caffeine boost this morning after a sleepless night due to one of my two monkeys keeping mum and dad up  :(","loc": {"type": "Point","coordinates": [103.845215,1.291648]}} 
{"id": "8618323806","server": "8541","farm": "9","userId": "57895727@N05","secret": "e2cbbfe091","title": "GreaterRackettailedDrongo16mar2013x03","loc": {"type": "Point","coordinates": [103.84672,1.292993]}} 
{"id": "8617213917","server": "8397","farm": "9","userId": "57895727@N05","secret": "9568ff5793","title": "GreaterRackettailedDrongo16mar2013x02","loc": {"type": "Point","coordinates": [103.84672,1.292993]}} 
{"id": "8608217045","server": "8383","farm": "9","userId": "57895727@N05","secret": "3b2dbcae61","title": "PiedImperialPigeon 20mar2013x01","loc": {"type": "Point","coordinates": [103.84672,1.292993]}} 
{"id": "8605517407","server": "8533","farm": "9","userId": "67602555@N00","secret": "eb58424ddd","title": "March_Singapore - 15","loc": {"type": "Point","coordinates": [103.84533,1.293]}} 
{"id": "8606623100","server": "8261","farm": "9","userId": "67602555@N00","secret": "8d09a4d1ea","title": "March_Singapore - 18","loc": {"type": "Point","coordinates": [103.84717,1.293]}} 
{"id": "8601887281","server": "8387","farm": "9","userId": "77915868@N06","secret": "ae0de473e9","title": "IMG_0036","loc": {"type": "Point","coordinates": [103.844666,1.2905]}} 
{"id": "8601891261","server": "8104","farm": "9","userId": "77915868@N06","secret": "e4b7a20c9b","title": "IMG_0037","loc": {"type": "Point","coordinates": [103.844666,1.2905]}} 
{"id": "8602990892","server": "8117","farm": "9","userId": "77915868@N06","secret": "e427be4f49","title": "IMG_0039","loc": {"type": "Point","coordinates": [103.844666,1.2905]}} 
{"id": "8598586856","server": "8089","farm": "9","userId": "11008075@N00","secret": "04be548e6d","title": "Nightcap after a night of more drinks and karaoke","loc": {"type": "Point","coordinates": [103.84547,1.290419]}} 
{"id": "8594250544","server": "8368","farm": "9","userId": "9454157@N08","secret": "55cfa20110","title": "Speaking about #lenovo Rod Strother, at #loyalty13 #iamlenovo","loc": {"type": "Point","coordinates": [103.84507,1.291377]}} 
{"id": "8590336362","server": "8108","farm": "9","userId": "63022225@N04","secret": "417bd1013e","title": "IMG_0222","loc": {"type": "Point","coordinates": [103.84571,1.290569]}} 
{"id": "8584329195","server": "8520","farm": "9","userId": "7310714@N06","secret": "a417c3b97a","title": "","loc": {"type": "Point","coordinates": [103.84533,1.293166]}} 
{"id": "8585430700","server": "8089","farm": "9","userId": "7310714@N06","secret": "f18b82e9ca","title": "","loc": {"type": "Point","coordinates": [103.84533,1.293166]}} 
{"id": "8583589102","server": "8092","farm": "9","userId": "7151283@N05","secret": "1bc5fc1803","title": "IMG_3019","loc": {"type": "Point","coordinates": [103.84717,1.2905]}} 
{"id": "8583588802","server": "8092","farm": "9","userId": "7151283@N05","secret": "6cc3274b75","title": "IMG_3021","loc": {"type": "Point","coordinates": [103.84717,1.2905]}} 
{"id": "8580057454","server": "8090","farm": "9","userId": "57895727@N05","secret": "cca9e6d3e8","title": "BlackCappedKingfisher 03FEB2013x01","loc": {"type": "Point","coordinates": [103.84672,1.292993]}} 
{"id": "8580057326","server": "8092","farm": "9","userId": "57895727@N05","secret": "87fd16669d","title": "BlackCappedKingfisher 03FEB2013x02","loc": {"type": "Point","coordinates": [103.84672,1.292993]}} 
{"id": "8576360271","server": "8515","farm": "9","userId": "57895727@N05","secret": "f5f71a415b","title": "PurpleThroatedSunbird 16Mar2013x01","loc": {"type": "Point","coordinates": [103.84672,1.292993]}} 
{"id": "8576599652","server": "8242","farm": "9","userId": "91456356@N03","secret": "bf185fac2b","title": "German pasta with bacon. Looks like Chinese 'carrot cake' though. #food #germany #singapore #paulaner #dinner","loc": {"type": "Point","coordinates": [103.84561,1.290727]}} 
{"id": "8574264939","server": "8227","farm": "9","userId": "57895727@N05","secret": "69e11263fc","title": "CommonFlameback16MAR2013x01","loc": {"type": "Point","coordinates": [103.84672,1.292993]}} 
{"id": "8563435965","server": "8376","farm": "9","userId": "14276849@N04","secret": "00c2f7cdc7","title": "2nd wedding dinner with @cammiteo","loc": {"type": "Point","coordinates": [103.844986,1.291239]}} 
{"id": "8561955937","server": "8244","farm": "9","userId": "68248749@N07","secret": "6ecd2844c7","title": "Gillian","loc": {"type": "Point","coordinates": [103.84286,1.292264]}} 
{"id": "8549700432","server": "8102","farm": "9","userId": "61108263@N00","secret": "39c7e7dd28","title": "bridge","loc": {"type": "Point","coordinates": [103.84405,1.290988]}} 
{"id": "8547365404","server": "8365","farm": "9","userId": "57895727@N05","secret": "e6dd787358","title": "WhiteBreastedWaterhen 07FEB2013x02","loc": {"type": "Point","coordinates": [103.84672,1.292993]}} 
{"id": "8547367718","server": "8102","farm": "9","userId": "57895727@N05","secret": "4cbec80498","title": "WhiteBreastedWaterhen 07FEB2013x03","loc": {"type": "Point","coordinates": [103.84672,1.292993]}} 
{"id": "8543024775","server": "8092","farm": "9","userId": "69379954@N08","secret": "d3459631d6","title": "Mango","loc": {"type": "Point","coordinates": [103.84526,1.292662]}} 
{"id": "8543627116","server": "8227","farm": "9","userId": "61108263@N00","secret": "c4a673c8bd","title": "View from Fort Canning Park","loc": {"type": "Point","coordinates": [103.847534,1.291856]}} 
{"id": "8543626800","server": "8088","farm": "9","userId": "61108263@N00","secret": "1890ab0df7","title": "Liang Court","loc": {"type": "Point","coordinates": [103.844894,1.291277]}} 
{"id": "8543106688","server": "8107","farm": "9","userId": "90349384@N06","secret": "1b69c379d0","title": "Last night","loc": {"type": "Point","coordinates": [103.845116,1.291205]}} 
{"id": "8538962385","server": "8227","farm": "9","userId": "61108263@N00","secret": "773c50711b","title": "Protected Place","loc": {"type": "Point","coordinates": [103.847534,1.291856]}} 
{"id": "8538964053","server": "8096","farm": "9","userId": "61108263@N00","secret": "f900e54519","title": "Boys Noize","loc": {"type": "Point","coordinates": [103.8467,1.290762]}} 
{"id": "8540069758","server": "8511","farm": "9","userId": "61108263@N00","secret": "f923f2245f","title": "Work in Progress","loc": {"type": "Point","coordinates": [103.84405,1.290988]}} 
{"id": "8539978006","server": "8388","farm": "9","userId": "61108263@N00","secret": "d4cfc762fc","title": "Booze is pricey in Singapore","loc": {"type": "Point","coordinates": [103.844444,1.291642]}} 
{"id": "8538872149","server": "8234","farm": "9","userId": "61108263@N00","secret": "a8b01aa9fe","title": "that's a menu, not a display case","loc": {"type": "Point","coordinates": [103.844894,1.291277]}} 
{"id": "8538872367","server": "8104","farm": "9","userId": "61108263@N00","secret": "e4ec70dff6","title": "roast duck shop","loc": {"type": "Point","coordinates": [103.844894,1.291277]}} 
{"id": "8538871635","server": "8506","farm": "9","userId": "61108263@N00","secret": "11f59142c3","title": "Ryoshi Sushi Ikeikemaru","loc": {"type": "Point","coordinates": [103.844894,1.291277]}} 
{"id": "8538871841","server": "8105","farm": "9","userId": "61108263@N00","secret": "ce97961ee3","title": "Counting plates at Ryoshi Sushi Ikeikemaru","loc": {"type": "Point","coordinates": [103.844894,1.291277]}} 
{"id": "8538871457","server": "8251","farm": "9","userId": "61108263@N00","secret": "ae8a0392c6","title": "Ryoshi Sushi Ikeikemaru @ Liang Court","loc": {"type": "Point","coordinates": [103.844894,1.291277]}} 
{"id": "8539816888","server": "8507","farm": "9","userId": "61108263@N00","secret": "36b3ee2ffb","title": "Relief sculpture","loc": {"type": "Point","coordinates": [103.847534,1.291856]}} 
{"id": "8538711623","server": "8225","farm": "9","userId": "61108263@N00","secret": "8655a8e9d3","title": "Fort gate","loc": {"type": "Point","coordinates": [103.847534,1.291856]}} 
{"id": "8538715269","server": "8508","farm": "9","userId": "61108263@N00","secret": "6fa8bd119b","title": "Fort Canning Centre sign","loc": {"type": "Point","coordinates": [103.847534,1.291856]}} 
{"id": "8539817642","server": "8098","farm": "9","userId": "61108263@N00","secret": "5911855a44","title": "path","loc": {"type": "Point","coordinates": [103.847534,1.291856]}} 
{"id": "8539817274","server": "8374","farm": "9","userId": "61108263@N00","secret": "87c32c5a12","title": "heritage tree","loc": {"type": "Point","coordinates": [103.847534,1.291856]}} 
{"id": "8538710409","server": "8369","farm": "9","userId": "61108263@N00","secret": "2e5197bd79","title": "flower","loc": {"type": "Point","coordinates": [103.847534,1.291856]}} 
{"id": "8538711861","server": "8385","farm": "9","userId": "61108263@N00","secret": "ed3e4d6a0b","title": "Waiting out the downpour","loc": {"type": "Point","coordinates": [103.847534,1.291856]}} 
{"id": "8539818708","server": "8239","farm": "9","userId": "61108263@N00","secret": "4f4a1881e1","title": "tall tree","loc": {"type": "Point","coordinates": [103.847534,1.291856]}} 
{"id": "8538710841","server": "8231","farm": "9","userId": "61108263@N00","secret": "76d446e49b","title": "Cannon","loc": {"type": "Point","coordinates": [103.847534,1.291856]}} 
{"id": "8539808492","server": "8510","farm": "9","userId": "61108263@N00","secret": "7994ce6582","title": "South Entrance","loc": {"type": "Point","coordinates": [103.847534,1.291856]}} 
{"id": "8538701423","server": "8509","farm": "9","userId": "61108263@N00","secret": "b8fb8ca51e","title": "garden","loc": {"type": "Point","coordinates": [103.847534,1.291856]}} 
{"id": "8503726482","server": "8226","farm": "9","userId": "51295433@N03","secret": "436c1206c9","title": "First of Firsts","loc": {"type": "Point","coordinates": [103.84747,1.292071]}} 
{"id": "8497149965","server": "8387","farm": "9","userId": "62375235@N00","secret": "e53fba59d0","title": "sakura shrimp sushi $4","loc": {"type": "Point","coordinates": [103.844986,1.291513]}} 
{"id": "8474838007","server": "8383","farm": "9","userId": "42525965@N05","secret": "735b760cb4","title": "SG2013","loc": {"type": "Point","coordinates": [103.84483,1.290612]}} 
{"id": "8446986288","server": "8475","farm": "9","userId": "8240248@N08","secret": "6cb2393628","title": "Old Hill Street Police Station","loc": {"type": "Point","coordinates": [103.84819,1.290419]}} 
{"id": "8432885560","server": "8376","farm": "9","userId": "45372933@N08","secret": "eaa3080d3e","title": "F1000024","loc": {"type": "Point","coordinates": [103.84787,1.290473]}} 
{"id": "8426114745","server": "8098","farm": "9","userId": "75976259@N00","secret": "40c526d160","title": "The House on the Hill","loc": {"type": "Point","coordinates": [103.84744,1.291964]}} 
{"id": "8426109293","server": "8233","farm": "9","userId": "75976259@N00","secret": "031f336914","title": "The House on the Hill","loc": {"type": "Point","coordinates": [103.84748,1.291899]}} 
{"id": "8401285771","server": "8499","farm": "9","userId": "75976259@N00","secret": "0c52f5599c","title": "Transitory","loc": {"type": "Point","coordinates": [103.84388,1.290441]}} 
{"id": "8399159230","server": "8369","farm": "9","userId": "71752988@N08","secret": "a21ecd06b3","title": "FU........K.......IT! ... LUKAS GRATIA LUKAS AS IN ARS GRATIA ARTIS, LUKAS POUR LUKAS...LUKE BRACEY POUR LUKE BRACEY!...FU.........K!...IT!...OBAMA, JOE! BIDEN IN DC TAG!...SONNNNS4!!!!....TAG 20 JANEIRO 2013 1145UHR","loc": {"type": "Point","coordinates": [103.845,1.29087]}} 
{"id": "8385944863","server": "8046","farm": "9","userId": "74332088@N00","secret": "6747b44ee9","title": "Green door 5","loc": {"type": "Point","coordinates": [103.847534,1.290398]}} 
{"id": "8375871881","server": "8092","farm": "9","userId": "57895727@N05","secret": "fda4037c51","title": "GreatBilledHeron 01JAN2012x01","loc": {"type": "Point","coordinates": [103.84672,1.292993]}} 
{"id": "8365044536","server": "8367","farm": "9","userId": "84779688@N02","secret": "95ab84461a","title": "Chivas Drinker","loc": {"type": "Point","coordinates": [103.84423,1.2925]}} 
{"id": "8346058207","server": "8214","farm": "9","userId": "34865466@N05","secret": "c0270b8d15","title": "Kimchi rice","loc": {"type": "Point","coordinates": [103.845665,1.291]}} 
{"id": "8346003185","server": "8498","farm": "9","userId": "34865466@N05","secret": "4d59e545f2","title": "Pork belly","loc": {"type": "Point","coordinates": [103.84563,1.290923]}} 
{"id": "8345982325","server": "8499","farm": "9","userId": "34865466@N05","secret": "fd3af544b5","title": "Food was fantastic, a bit pricy and the lighting wasn't fantastic","loc": {"type": "Point","coordinates": [103.84563,1.290923]}} 
{"id": "8347047896","server": "8499","farm": "9","userId": "34865466@N05","secret": "f712227e14","title": "","loc": {"type": "Point","coordinates": [103.84563,1.290923]}} 
{"id": "8347006860","server": "8359","farm": "9","userId": "34865466@N05","secret": "eea54905ca","title": "Appetizers","loc": {"type": "Point","coordinates": [103.84563,1.290923]}} 
{"id": "8345920691","server": "8498","farm": "9","userId": "34865466@N05","secret": "1f9c8dd664","title": "Boss BarBBQ","loc": {"type": "Point","coordinates": [103.84563,1.290923]}} 
{"id": "8324814743","server": "8215","farm": "9","userId": "41298448@N08","secret": "f1cf7ff05b","title": "street snap @ Clarke Quay","loc": {"type": "Point","coordinates": [103.84419,1.291772]}} 
{"id": "8312729242","server": "8504","farm": "9","userId": "41298448@N08","secret": "760df894f7","title": "a snap @ Clarke Quay","loc": {"type": "Point","coordinates": [103.84419,1.291772]}} 
{"id": "8533043856","server": "8530","farm": "9","userId": "57895727@N05","secret": "6988096e61","title": "GoldenBelliedGerygone 17FEB2013x01","loc": {"type": "Point","coordinates": [103.84672,1.292993]}} 
{"id": "8531214120","server": "8389","farm": "9","userId": "51489026@N02","secret": "d2327b9435","title": "Alone in the sun","loc": {"type": "Point","coordinates": [103.84499,1.291863]}} 
{"id": "8523440846","server": "8374","farm": "9","userId": "7311038@N03","secret": "587d29b9a3","title": "View from Fort Canning in Singapore","loc": {"type": "Point","coordinates": [103.84681,1.291964]}} 
{"id": "8522325097","server": "8110","farm": "9","userId": "7311038@N03","secret": "5aefe8fa23","title": "View on CDB From Fort Canning","loc": {"type": "Point","coordinates": [103.84681,1.291964]}} 
{"id": "8521406082","server": "8101","farm": "9","userId": "92593934@N04","secret": "f82660002b","title": "#Tampopo standard must have dropped, else it's just disappointing. #sgfood","loc": {"type": "Point","coordinates": [103.845085,1.291278]}} 
{"id": "8517688804","server": "8366","farm": "9","userId": "92410572@N07","secret": "1e0422fe48","title": "Singapur 02/13-44","loc": {"type": "Point","coordinates": [103.84556,1.290908]}} 
{"id": "8516193914","server": "8511","farm": "9","userId": "24522494@N00","secret": "d98892cefb","title": "022413 - pump room for drinks ps (1)","loc": {"type": "Point","coordinates": [103.84562,1.290625]}} 
{"id": "8515079897","server": "8091","farm": "9","userId": "24522494@N00","secret": "090b983eaa","title": "022413 - pump room for drinks ps (2)","loc": {"type": "Point","coordinates": [103.845345,1.290372]}} 
{"id": "8516195924","server": "8506","farm": "9","userId": "24522494@N00","secret": "7551f2d637","title": "022413 - pump room for drinks ps (3)","loc": {"type": "Point","coordinates": [103.84542,1.290427]}} 
{"id": "8514745571","server": "8505","farm": "9","userId": "91937661@N05","secret": "964202c987","title": "Let's play... handcuffs! Whose kid like to play with this?","loc": {"type": "Point","coordinates": [103.84517,1.292666]}} 
{"id": "8511489171","server": "8367","farm": "9","userId": "57895727@N05","secret": "3bd4451075","title": "CommonKingfisher 03FEB2013x01","loc": {"type": "Point","coordinates": [103.84672,1.292993]}} 
{"id": "8500440656","server": "8250","farm": "9","userId": "22836751@N04","secret": "bf9dbccfb3","title": "Colours @ Clarke Quay","loc": {"type": "Point","coordinates": [103.84552,1.290612]}} 
{"id": "8498653515","server": "8511","farm": "9","userId": "57895727@N05","secret": "0cbdabb6b6","title": "ScarletBackedFlowerpecker(M) 12mar2012x02","loc": {"type": "Point","coordinates": [103.84672,1.292993]}} 
{"id": "8499758074","server": "8238","farm": "9","userId": "57895727@N05","secret": "263d2dff5f","title": "ScarletBackedFlowerpecker(F) 12mar2012x01","loc": {"type": "Point","coordinates": [103.84672,1.292993]}} 
{"id": "8498653329","server": "8377","farm": "9","userId": "57895727@N05","secret": "77414f7186","title": "ScarletBackedFlowerpecker(M) 12mar2012x03","loc": {"type": "Point","coordinates": [103.84672,1.292993]}} 
{"id": "8499757670","server": "8380","farm": "9","userId": "57895727@N05","secret": "d4754c9ba0","title": "ScarletBackedFlowerpecker(F) 12mar2012x03","loc": {"type": "Point","coordinates": [103.84672,1.292993]}} 
{"id": "8495833333","server": "8242","farm": "9","userId": "57895727@N05","secret": "218dff7227","title": "CrimsonSunbird 15FEB2013x01","loc": {"type": "Point","coordinates": [103.84672,1.292993]}} 
{"id": "8492529222","server": "8368","farm": "9","userId": "57895727@N05","secret": "8fdbd27edc","title": "WhiteShoulderedStarling 12Feb2013x01","loc": {"type": "Point","coordinates": [103.84672,1.292993]}} 
{"id": "8487612223","server": "8527","farm": "9","userId": "92391615@N06","secret": "384ab315f6","title": "20 Century Singapore! lol","loc": {"type": "Point","coordinates": [103.84529,1.29344]}} 
{"id": "8485023890","server": "8243","farm": "9","userId": "57895727@N05","secret": "339a646206","title": "DaurianRedstart(F) 16FEB2013x01","loc": {"type": "Point","coordinates": [103.84672,1.292993]}} 
{"id": "8484989464","server": "8228","farm": "9","userId": "57895727@N05","secret": "d4b57d4b6c","title": "DaurianRedstart(F) 16FEB2013x03","loc": {"type": "Point","coordinates": [103.84672,1.292993]}} 
{"id": "8484990052","server": "8105","farm": "9","userId": "57895727@N05","secret": "1875679e9c","title": "DaurianRedstart(F) 16FEB2013x02","loc": {"type": "Point","coordinates": [103.84672,1.292993]}} 
{"id": "8482240084","server": "8227","farm": "9","userId": "57895727@N05","secret": "6b615ef00e","title": "Laced Woodpecker(F) 04feb2013x03","loc": {"type": "Point","coordinates": [103.84672,1.292993]}} 
{"id": "8480641109","server": "8236","farm": "9","userId": "57629484@N03","secret": "120145a3af","title": "Making a shake.","loc": {"type": "Point","coordinates": [103.84479,1.291234]}} 
{"id": "8480436087","server": "8390","farm": "9","userId": "67851013@N02","secret": "763147667b","title": "#Afternoon #brew 16/02/13.","loc": {"type": "Point","coordinates": [103.84588,1.29201]}} 
{"id": "8475786335","server": "8371","farm": "9","userId": "83518170@N07","secret": "fd4b1697ed","title": "SAM_1726.jpg","loc": {"type": "Point","coordinates": [103.84531,1.290441]}} 
{"id": "8476880480","server": "8513","farm": "9","userId": "83518170@N07","secret": "a7721c7cd9","title": "SAM_1732.jpg","loc": {"type": "Point","coordinates": [103.84531,1.290441]}} 
{"id": "8475782573","server": "8102","farm": "9","userId": "83518170@N07","secret": "702234637c","title": "SAM_1721.jpg","loc": {"type": "Point","coordinates": [103.84531,1.290441]}} 
{"id": "8476870724","server": "8225","farm": "9","userId": "83518170@N07","secret": "edf57399a9","title": "SAM_1719.jpg","loc": {"type": "Point","coordinates": [103.84531,1.290441]}} 
{"id": "8476868060","server": "8370","farm": "9","userId": "83518170@N07","secret": "ffd3d15d07","title": "SAM_1710.jpg","loc": {"type": "Point","coordinates": [103.84531,1.290441]}} 
{"id": "8475784651","server": "8226","farm": "9","userId": "83518170@N07","secret": "46fa457966","title": "SAM_1724.jpg","loc": {"type": "Point","coordinates": [103.84531,1.290441]}} 
{"id": "8475789467","server": "8530","farm": "9","userId": "83518170@N07","secret": "c946f8d4d3","title": "SAM_1731.jpg","loc": {"type": "Point","coordinates": [103.84531,1.290441]}} 
{"id": "8475787783","server": "8513","farm": "9","userId": "83518170@N07","secret": "edbceb9499","title": "SAM_1728.jpg","loc": {"type": "Point","coordinates": [103.84531,1.290441]}} 
{"id": "8475780083","server": "8086","farm": "9","userId": "83518170@N07","secret": "9fe2dd2a5a","title": "SAM_1711.jpg","loc": {"type": "Point","coordinates": [103.84531,1.290441]}} 
{"id": "8474446299","server": "8519","farm": "9","userId": "36919220@N00","secret": "d5b3a3629a","title": "Lohey-ing","loc": {"type": "Point","coordinates": [103.84421,1.291096]}} 
{"id": "8471648967","server": "8366","farm": "9","userId": "57895727@N05","secret": "b1b27284b4","title": "CollaredKingFisher 05Feb2013x02","loc": {"type": "Point","coordinates": [103.84672,1.292993]}} 
{"id": "8472586904","server": "8109","farm": "9","userId": "19454593@N00","secret": "2a265d3470","title": "Fort Canning Lighthouse","loc": {"type": "Point","coordinates": [103.8476,1.291988]}} 
{"id": "8462228110","server": "8247","farm": "9","userId": "37357556@N00","secret": "2107c653b2","title": "Crossing","loc": {"type": "Point","coordinates": [103.84346,1.293187]}} 
{"id": "8457792856","server": "8388","farm": "9","userId": "57629484@N03","secret": "2abd29fc9a","title": "The Race is on ;)","loc": {"type": "Point","coordinates": [103.84479,1.291234]}} 
{"id": "8455864888","server": "8522","farm": "9","userId": "29270353@N04","secret": "b92abb91c1","title": "P1020790","loc": {"type": "Point","coordinates": [103.84701,1.291219]}} 
{"id": "8455870020","server": "8510","farm": "9","userId": "29270353@N04","secret": "8b9107ef0f","title": "P1020786","loc": {"type": "Point","coordinates": [103.847435,1.291736]}} 
{"id": "8455867704","server": "8229","farm": "9","userId": "29270353@N04","secret": "e6d05fe428","title": "P1020788","loc": {"type": "Point","coordinates": [103.84727,1.291411]}} 
{"id": "8455862214","server": "8231","farm": "9","userId": "29270353@N04","secret": "87f77f29a5","title": "P1020792","loc": {"type": "Point","coordinates": [103.8473,1.290947]}} 
{"id": "8455866240","server": "8386","farm": "9","userId": "29270353@N04","secret": "804862a0e1","title": "P1020789","loc": {"type": "Point","coordinates": [103.84727,1.291411]}} 
{"id": "8454769757","server": "8379","farm": "9","userId": "29270353@N04","secret": "0b9c34cebb","title": "P1020791","loc": {"type": "Point","coordinates": [103.8473,1.290947]}} 
{"id": "8454774743","server": "8231","farm": "9","userId": "29270353@N04","secret": "0dcc566d62","title": "P1020787","loc": {"type": "Point","coordinates": [103.84708,1.291547]}} 
{"id": "8455871458","server": "8092","farm": "9","userId": "29270353@N04","secret": "7943128167","title": "P1020785","loc": {"type": "Point","coordinates": [103.847435,1.291736]}} 
{"id": "8454280573","server": "8111","farm": "9","userId": "57895727@N05","secret": "86e1fbda9c","title": "SlatyBreastedRail 04FEB2013x01","loc": {"type": "Point","coordinates": [103.84672,1.292993]}} 
{"id": "8455324630","server": "8519","farm": "9","userId": "57895727@N05","secret": "aec269db94","title": "SlatyBreastedRail 04FEB2013x02","loc": {"type": "Point","coordinates": [103.84672,1.292993]}} 
{"id": "8452685418","server": "8229","farm": "9","userId": "57895727@N05","secret": "160cfcc5d7","title": "CommonSandpiper 04FEB2013x01","loc": {"type": "Point","coordinates": [103.84672,1.292993]}} 
{"id": "8447049205","server": "8507","farm": "9","userId": "57895727@N05","secret": "e5814e5f5a","title": "CommonBuzzard 05JAN2013x01","loc": {"type": "Point","coordinates": [103.84672,1.292993]}} 
{"id": "8445138990","server": "8353","farm": "9","userId": "57895727@N05","secret": "0511330659","title": "GreaterPaintedSnipe(M) 04feb2013x03","loc": {"type": "Point","coordinates": [103.84672,1.292993]}} 
{"id": "8444052877","server": "8072","farm": "9","userId": "57895727@N05","secret": "cd9338b7e7","title": "GreaterPaintedSnipe(M) 04feb2013x02","loc": {"type": "Point","coordinates": [103.84672,1.292993]}} 
{"id": "8443394147","server": "8468","farm": "9","userId": "29270353@N04","secret": "e9f80cdd76","title": "P1020790","loc": {"type": "Point","coordinates": [103.84701,1.291219]}} 
{"id": "8444491326","server": "8371","farm": "9","userId": "29270353@N04","secret": "4bf18fa2d8","title": "P1020786","loc": {"type": "Point","coordinates": [103.847435,1.291736]}} 
{"id": "8444488506","server": "8218","farm": "9","userId": "29270353@N04","secret": "0ebe05cc85","title": "P1020788","loc": {"type": "Point","coordinates": [103.84727,1.291411]}} 
{"id": "8444493068","server": "8363","farm": "9","userId": "29270353@N04","secret": "de0375cf95","title": "P1020785","loc": {"type": "Point","coordinates": [103.847435,1.291736]}} 
{"id": "8444489822","server": "8376","farm": "9","userId": "29270353@N04","secret": "b51215da7e","title": "P1020787","loc": {"type": "Point","coordinates": [103.84708,1.291547]}} 
{"id": "8443392463","server": "8230","farm": "9","userId": "29270353@N04","secret": "7b2858f072","title": "P1020791","loc": {"type": "Point","coordinates": [103.8473,1.290947]}} 
{"id": "8443395871","server": "8072","farm": "9","userId": "29270353@N04","secret": "958f050117","title": "P1020789","loc": {"type": "Point","coordinates": [103.84727,1.291411]}} 
{"id": "8439303671","server": "8091","farm": "9","userId": "36055891@N08","secret": "633db35741","title": "Hahaha the pigs are so cute!  #shakeys #singapore #liangcourt #clarkequay #pizza #pinoy #italian #pizza #pasta","loc": {"type": "Point","coordinates": [103.845,1.291964]}} 
{"id": "8438734792","server": "8364","farm": "9","userId": "74855524@N00","secret": "3e236e101f","title": "","loc": {"type": "Point","coordinates": [103.848,1.2925]}} 
{"id": "8437648055","server": "8368","farm": "9","userId": "74855524@N00","secret": "737822b898","title": "","loc": {"type": "Point","coordinates": [103.84817,1.293]}} 
{"id": "8437369913","server": "8518","farm": "9","userId": "51073972@N02","secret": "b6d844300b","title": "It is designed to hold up the roof at Clarke Quay, so this structure has not escaped being draped in lights and 'blossoms' for Singapore's Spring Festival.    33/365","loc": {"type": "Point","coordinates": [103.8457,1.2907]}} 
{"id": "8437308760","server": "8498","farm": "9","userId": "57629484@N03","secret": "b2787fdfbc","title": "I'm a pirate ;)","loc": {"type": "Point","coordinates": [103.84479,1.291234]}} 
{"id": "8433119312","server": "8094","farm": "9","userId": "68248749@N07","secret": "de67464dd9","title": "Keep Calm & Keep on Smiling","loc": {"type": "Point","coordinates": [103.84551,1.290494]}} 
{"id": "8432849456","server": "8046","farm": "9","userId": "67851013@N02","secret": "701faae663","title": "#Concrete #jungle 19/01/13.","loc": {"type": "Point","coordinates": [103.84818,1.290618]}} 
{"id": "8431764811","server": "8359","farm": "9","userId": "67851013@N02","secret": "61518b946b","title": "#Kindness is more important than #wisdom - Theodore Isaac Rubin","loc": {"type": "Point","coordinates": [103.84818,1.290618]}} 
{"id": "8428256785","server": "8238","farm": "9","userId": "82417989@N04","secret": "39df092208","title": "#FortCanningPark is near the city center of #Singapore. Check out more on www.AnotherTraveler.com","loc": {"type": "Point","coordinates": [103.8458,1.293438]}} 
{"id": "8426259627","server": "8515","farm": "9","userId": "71956827@N05","secret": "4934df0625","title": "","loc": {"type": "Point","coordinates": [103.844,1.291166]}} 
{"id": "8424138271","server": "8469","farm": "9","userId": "92665304@N05","secret": "ecdda1fc37","title": "Ministry of Information","loc": {"type": "Point","coordinates": [103.84831,1.290677]}} 
{"id": "8424110985","server": "8076","farm": "9","userId": "92665304@N05","secret": "f0cc343573","title": "Night Skyline from Fort Canning","loc": {"type": "Point","coordinates": [103.84668,1.292479]}} 
{"id": "8425199818","server": "8353","farm": "9","userId": "92665304@N05","secret": "a6ed1c6f36","title": "Clarke Quay","loc": {"type": "Point","coordinates": [103.84505,1.290441]}} 
{"id": "8424109443","server": "8225","farm": "9","userId": "92665304@N05","secret": "872a182f2d","title": "I don't remember Clarke Quay being that blury","loc": {"type": "Point","coordinates": [103.84464,1.290634]}} 
{"id": "8425201356","server": "8233","farm": "9","userId": "92665304@N05","secret": "ccd77be1d7","title": "Clarke Quay from Fort Canning","loc": {"type": "Point","coordinates": [103.84661,1.292157]}} 
{"id": "8410738735","server": "8232","farm": "9","userId": "40527973@N00","secret": "f4e17b6347","title": "IMG_0409","loc": {"type": "Point","coordinates": [103.84533,1.2905]}} 
{"id": "8411698402","server": "8501","farm": "9","userId": "62635641@N00","secret": "ab506d7c29","title": "Clarke Quay, Singapore","loc": {"type": "Point","coordinates": [103.845,1.2905]}} 
{"id": "8401442019","server": "8496","farm": "9","userId": "62635641@N00","secret": "610da425b4","title": "Clarke Quay Singapore","loc": {"type": "Point","coordinates": [103.845,1.290666]}} 
{"id": "8398403572","server": "8196","farm": "9","userId": "62635641@N00","secret": "3da3fa781e","title": "Clarke Quay, Singapore","loc": {"type": "Point","coordinates": [103.84483,1.290666]}} 
{"id": "8394955370","server": "8351","farm": "9","userId": "8583503@N07","secret": "8a6b2fb697","title": "So cute. There's actually a TV corner for kids to watch Doraemon here.","loc": {"type": "Point","coordinates": [103.8449,1.29195]}} 
{"id": "8393863895","server": "8082","farm": "9","userId": "57895727@N05","secret": "a6d7c1967e","title": "01032013 ChangiBeachBroadwalk","loc": {"type": "Point","coordinates": [103.84672,1.292993]}} 
{"id": "8393865437","server": "8351","farm": "9","userId": "57895727@N05","secret": "0332316d78","title": "01042013 ChangiBeach01","loc": {"type": "Point","coordinates": [103.84672,1.292993]}} 
{"id": "8387232197","server": "8325","farm": "9","userId": "45555233@N07","secret": "731d7efa74","title": "Singapore River Cruise","loc": {"type": "Point","coordinates": [103.84332,1.291027]}} 
{"id": "8382348203","server": "8072","farm": "9","userId": "51489026@N02","secret": "29b24cd371","title": "A hole into the water","loc": {"type": "Point","coordinates": [103.84503,1.291629]}} 
{"id": "8375981173","server": "8331","farm": "9","userId": "57895727@N05","secret": "d07300f332","title": "Osprey 01JAN2013x02","loc": {"type": "Point","coordinates": [103.84672,1.292993]}} 
{"id": "8365026718","server": "8213","farm": "9","userId": "84779688@N02","secret": "5b278f6ac4","title": "Chivas Lady","loc": {"type": "Point","coordinates": [103.84423,1.2925]}} 
{"id": "8362506757","server": "8183","farm": "9","userId": "57895727@N05","secret": "e7c88f1c63","title": "LesserCoucal 30DEC2012x01","loc": {"type": "Point","coordinates": [103.84672,1.292993]}} 
{"id": "8363574316","server": "8086","farm": "9","userId": "57895727@N05","secret": "bf65fa2574","title": "LesserCoucal 31DEC2012x01","loc": {"type": "Point","coordinates": [103.84672,1.292993]}} 
{"id": "8359071769","server": "8359","farm": "9","userId": "57895727@N05","secret": "a71071bdfe","title": "BlueTailedBeeEater 07nov2012x01","loc": {"type": "Point","coordinates": [103.84672,1.292993]}} 
{"id": "8352893973","server": "8357","farm": "9","userId": "41298448@N08","secret": "52cffc104b","title": "Clarke Quay at night","loc": {"type": "Point","coordinates": [103.84419,1.291772]}} 
{"id": "8349734238","server": "8327","farm": "9","userId": "24989432@N06","secret": "31ac324305","title": "Lame party, but free booze =P","loc": {"type": "Point","coordinates": [103.845505,1.290504]}} 
