{"id": "8545186918","server": "8229","farm": "9","userId": "91153975@N05","secret": "a70e742cfb","title": "Siloso Beach","loc": {"type": "Point","coordinates": [103.81698,1.251247]}} 
{"id": "8403083029","server": "8082","farm": "9","userId": "25802865@N08","secret": "01e76e58c5","title": "Sand Bar","loc": {"type": "Point","coordinates": [103.816734,1.251855]}} 
{"id": "8324917796","server": "8363","farm": "9","userId": "75976259@N00","secret": "20b9228c07","title": "Let's build......another Monorail!","loc": {"type": "Point","coordinates": [103.817825,1.251183]}} 
{"id": "8185240519","server": "8349","farm": "9","userId": "32625786@N04","secret": "b0637f1dc1","title": "My Angel","loc": {"type": "Point","coordinates": [103.81697,1.251411]}} 
{"id": "8184643406","server": "8482","farm": "9","userId": "7488656@N06","secret": "3c07ee33f7","title": "a maioria dos chineses e indianos entram no mar de roupa, cara haha","loc": {"type": "Point","coordinates": [103.81772,1.251601]}} 
{"id": "8100438383","server": "8473","farm": "9","userId": "51294514@N06","secret": "daedae52d5","title": "Sentosa Beach #androidography #panoplanet","loc": {"type": "Point","coordinates": [103.81772,1.251601]}} 
{"id": "9375856011","server": "5453","farm": "6","userId": "98896805@N02","secret": "d25ce5d0f2","title": "DSCN0126.JPG","loc": {"type": "Point","coordinates": [103.817764,1.251269]}} 
{"id": "9375842233","server": "5473","farm": "6","userId": "98896805@N02","secret": "03078942a7","title": "DSCN0123.JPG","loc": {"type": "Point","coordinates": [103.817635,1.251352]}} 
{"id": "9375837511","server": "2812","farm": "3","userId": "98896805@N02","secret": "de95ec01f0","title": "DSCN0122.JPG","loc": {"type": "Point","coordinates": [103.81771,1.251405]}} 
{"id": "9378634582","server": "7300","farm": "8","userId": "98896805@N02","secret": "02f69d2b41","title": "DSCN0125.JPG","loc": {"type": "Point","coordinates": [103.817764,1.251269]}} 
{"id": "9378629916","server": "3717","farm": "4","userId": "98896805@N02","secret": "1c1bd08d0c","title": "DSCN0124.JPG","loc": {"type": "Point","coordinates": [103.81761,1.251288]}} 
{"id": "9375763313","server": "5466","farm": "6","userId": "98896805@N02","secret": "50cdceb4a4","title": "DSCN0107.JPG","loc": {"type": "Point","coordinates": [103.81621,1.251838]}} 
{"id": "9375757359","server": "2840","farm": "3","userId": "98896805@N02","secret": "2c7cdced53","title": "DSCN0106.JPG","loc": {"type": "Point","coordinates": [103.81622,1.251822]}} 
{"id": "9341375045","server": "2892","farm": "3","userId": "98896805@N02","secret": "76d261c26d","title": "DSCN0126.JPG","loc": {"type": "Point","coordinates": [103.817764,1.251269]}} 
{"id": "9289975411","server": "3731","farm": "4","userId": "23436061@N00","secret": "d38cdef6bb","title": "So that's where I parked my #peacock #fowl #bird #blue #regal","loc": {"type": "Point","coordinates": [103.817635,1.251602]}} 
{"id": "9283147998","server": "3720","farm": "4","userId": "56390995@N07","secret": "ff53989ef7","title": "哈哈！Sp is a FINE city!一语双关！","loc": {"type": "Point","coordinates": [103.817635,1.251602]}} 
{"id": "9226588955","server": "3695","farm": "4","userId": "91670890@N04","secret": "7c59c86956","title": "Masp photoshoot....","loc": {"type": "Point","coordinates": [103.817635,1.251603]}} 
{"id": "9229367018","server": "2861","farm": "3","userId": "91670890@N04","secret": "b1a8637052","title": "Masp photoshoot....","loc": {"type": "Point","coordinates": [103.817635,1.251603]}} 
{"id": "9214325851","server": "3750","farm": "4","userId": "97705734@N02","secret": "35f13e5f32","title": "IMAG1119","loc": {"type": "Point","coordinates": [103.81736,1.250958]}} 
{"id": "9148420490","server": "3813","farm": "4","userId": "96136457@N05","secret": "c4ba5e98fd","title": "P1010585.JPG","loc": {"type": "Point","coordinates": [103.8172,1.2514]}} 
{"id": "9143419367","server": "7372","farm": "8","userId": "60061298@N00","secret": "610897be5e","title": "Santosa - Segway - 4","loc": {"type": "Point","coordinates": [103.818,1.250833]}} 
{"id": "9145641254","server": "3804","farm": "4","userId": "60061298@N00","secret": "2296276ec2","title": "Santosa - Segway - 2","loc": {"type": "Point","coordinates": [103.818,1.250833]}} 
{"id": "9143421213","server": "5443","farm": "6","userId": "60061298@N00","secret": "6ae4aef0a6","title": "Santosa - Segway - 5","loc": {"type": "Point","coordinates": [103.818,1.250833]}} 
{"id": "9145643192","server": "5536","farm": "6","userId": "60061298@N00","secret": "314d57c140","title": "Santosa - Segway - 3","loc": {"type": "Point","coordinates": [103.818,1.250833]}} 
{"id": "9145639520","server": "3676","farm": "4","userId": "60061298@N00","secret": "ee39344709","title": "Santosa - Segway - 1","loc": {"type": "Point","coordinates": [103.817665,1.251]}} 
{"id": "9143423097","server": "7292","farm": "8","userId": "60061298@N00","secret": "f818afecb2","title": "Santosa - Segway - 6","loc": {"type": "Point","coordinates": [103.818,1.250667]}} 
{"id": "9107666560","server": "3716","farm": "4","userId": "91765621@N04","secret": "7b2d39d9af","title": "","loc": {"type": "Point","coordinates": [103.817635,1.251603]}} 
{"id": "9037161474","server": "5349","farm": "6","userId": "7131703@N03","secret": "6e8b88d165","title": "IMG_2969","loc": {"type": "Point","coordinates": [103.8175,1.250833]}} 
{"id": "9034932633","server": "3825","farm": "4","userId": "7131703@N03","secret": "704948cc07","title": "IMG_2970","loc": {"type": "Point","coordinates": [103.8175,1.250833]}} 
{"id": "8929595643","server": "3824","farm": "4","userId": "78367044@N03","secret": "53b82f7db2","title": "Perfect Morning! Saw a goose by the beach! #sentosa #greygoose #alcoholism #lifestyle #beach #chillout","loc": {"type": "Point","coordinates": [103.817635,1.251602]}} 
{"id": "8900805175","server": "3697","farm": "4","userId": "25897810@N00","secret": "cd212c8b3b","title": "Of the many highlights from my first day in Singapore, I'll go with this one: flying in the world's largest indoor skydiving center.","loc": {"type": "Point","coordinates": [103.81773,1.251861]}} 
{"id": "8750493711","server": "2875","farm": "3","userId": "39138472@N08","secret": "be4b72774c","title": "IMG_0909","loc": {"type": "Point","coordinates": [103.81758,1.251419]}} 
{"id": "8751593558","server": "7285","farm": "8","userId": "39138472@N08","secret": "9525054597","title": "IMG_0908","loc": {"type": "Point","coordinates": [103.81758,1.251419]}} 
{"id": "8674344637","server": "8116","farm": "9","userId": "94573077@N08","secret": "11027774e3","title": "","loc": {"type": "Point","coordinates": [103.81783,1.2515]}} 
{"id": "8674346263","server": "8536","farm": "9","userId": "94573077@N08","secret": "6263e1d176","title": "","loc": {"type": "Point","coordinates": [103.81783,1.251666]}} 
{"id": "8675450084","server": "8384","farm": "9","userId": "94573077@N08","secret": "61bda2f2fa","title": "","loc": {"type": "Point","coordinates": [103.81783,1.251833]}} 
{"id": "8626595549","server": "8119","farm": "9","userId": "48889054224@N01","secret": "4af91b16b6","title": "Learning aerodynamics in theory first. #kaicanfly","loc": {"type": "Point","coordinates": [103.81773,1.251861]}} 
{"id": "8626563975","server": "8245","farm": "9","userId": "48889054224@N01","secret": "b20c3f0d94","title": "Wishing they'd lower the age requirement. #kaicanfly","loc": {"type": "Point","coordinates": [103.81773,1.251861]}} 
{"id": "8600387672","server": "8518","farm": "9","userId": "62872187@N05","secret": "13b5fa8ec0","title": "_DSC8733","loc": {"type": "Point","coordinates": [103.81642,1.251354]}} 
{"id": "8582977340","server": "8091","farm": "9","userId": "28137664@N03","secret": "73066ac086","title": "Sentosa Oceanarium","loc": {"type": "Point","coordinates": [103.817474,1.251741]}} 
{"id": "8563539073","server": "8097","farm": "9","userId": "60026216@N00","secret": "948f0aed40","title": "#Skyride time! #Sentosa #Luge","loc": {"type": "Point","coordinates": [103.81781,1.251376]}} 
{"id": "8550007642","server": "8372","farm": "9","userId": "14276849@N04","secret": "43b96bd1d4","title": "@cammiteo waiting for the next flypass of the Breitling Jet Team","loc": {"type": "Point","coordinates": [103.81773,1.251861]}} 
{"id": "8541509008","server": "8383","farm": "9","userId": "14276849@N04","secret": "c810514240","title": "@cammiteo it's heavy! Haha","loc": {"type": "Point","coordinates": [103.81773,1.251861]}} 
{"id": "8478015271","server": "8244","farm": "9","userId": "64807967@N03","secret": "34a84dcff6","title": "An orchid in the rain","loc": {"type": "Point","coordinates": [103.816895,1.251011]}} 
{"id": "8457274795","server": "8227","farm": "9","userId": "92391615@N06","secret": "39983ea507","title": "upload","loc": {"type": "Point","coordinates": [103.81767,1.251515]}} 
{"id": "8458242132","server": "8225","farm": "9","userId": "92391615@N06","secret": "a182472ce5","title": "upload","loc": {"type": "Point","coordinates": [103.81767,1.251515]}} 
{"id": "8458246606","server": "8527","farm": "9","userId": "92391615@N06","secret": "6be8753644","title": "upload","loc": {"type": "Point","coordinates": [103.81767,1.251515]}} 
{"id": "8394154742","server": "8328","farm": "9","userId": "25802865@N08","secret": "76f72e04d0","title": "Sentos Flowers","loc": {"type": "Point","coordinates": [103.81704,1.251369]}} 
{"id": "8351752667","server": "8326","farm": "9","userId": "86606207@N08","secret": "99e7a29fa5","title": "DSC_1267","loc": {"type": "Point","coordinates": [103.81774,1.251055]}} 
{"id": "8351788589","server": "8187","farm": "9","userId": "86606207@N08","secret": "240c051499","title": "假睡美人","loc": {"type": "Point","coordinates": [103.817604,1.251525]}} 
{"id": "8352853026","server": "8225","farm": "9","userId": "86606207@N08","secret": "6216647fce","title": "睡美人醒了","loc": {"type": "Point","coordinates": [103.817604,1.251525]}} 
{"id": "8351774365","server": "8096","farm": "9","userId": "86606207@N08","secret": "7f30f0cc57","title": "DSC_1282","loc": {"type": "Point","coordinates": [103.817604,1.251525]}} 
{"id": "8351778167","server": "8333","farm": "9","userId": "86606207@N08","secret": "1a6fcfba20","title": "DSC_1284","loc": {"type": "Point","coordinates": [103.817604,1.251525]}} 
{"id": "8351746495","server": "8049","farm": "9","userId": "86606207@N08","secret": "6da902e848","title": "DSC_1265","loc": {"type": "Point","coordinates": [103.81773,1.251075]}} 
{"id": "8352846840","server": "8183","farm": "9","userId": "86606207@N08","secret": "d39f030093","title": "睡美人","loc": {"type": "Point","coordinates": [103.817604,1.251525]}} 
{"id": "8351761815","server": "8376","farm": "9","userId": "86606207@N08","secret": "295d5cdf0d","title": "DSC_1274","loc": {"type": "Point","coordinates": [103.81776,1.251041]}} 
{"id": "8351763613","server": "8377","farm": "9","userId": "86606207@N08","secret": "71fa74f772","title": "导游 in action again","loc": {"type": "Point","coordinates": [103.81784,1.250827]}} 
{"id": "8351749617","server": "8184","farm": "9","userId": "86606207@N08","secret": "5d04f9fbb1","title": "DSC_1266","loc": {"type": "Point","coordinates": [103.81773,1.251072]}} 
{"id": "8351770305","server": "8092","farm": "9","userId": "86606207@N08","secret": "f3ee57e3c7","title": "DSC_1280","loc": {"type": "Point","coordinates": [103.817604,1.251525]}} 
{"id": "8351794003","server": "8187","farm": "9","userId": "86606207@N08","secret": "20a0913291","title": "皇上出巡","loc": {"type": "Point","coordinates": [103.817474,1.251805]}} 
{"id": "8351758633","server": "8086","farm": "9","userId": "86606207@N08","secret": "3248b289d9","title": "DSC_1273","loc": {"type": "Point","coordinates": [103.817764,1.251027]}} 
{"id": "8351782425","server": "8472","farm": "9","userId": "86606207@N08","secret": "41539aa38d","title": "DSC_1285","loc": {"type": "Point","coordinates": [103.817604,1.251525]}} 
{"id": "8352859388","server": "8499","farm": "9","userId": "86606207@N08","secret": "e0ed6844f0","title": "DSC_1297","loc": {"type": "Point","coordinates": [103.81772,1.251461]}} 
{"id": "8352170047","server": "8232","farm": "9","userId": "86606207@N08","secret": "dd166d4497","title": "DSC_1712","loc": {"type": "Point","coordinates": [103.81769,1.251325]}} 
{"id": "8351766075","server": "8093","farm": "9","userId": "86606207@N08","secret": "9f84049e05","title": "funny","loc": {"type": "Point","coordinates": [103.81785,1.250836]}} 
{"id": "8317497525","server": "8223","farm": "9","userId": "75438529@N06","secret": "19bc3c9569","title": "Sunset at Siloso Beach","loc": {"type": "Point","coordinates": [103.81719,1.25144]}} 
{"id": "8317017821","server": "8213","farm": "9","userId": "7488656@N06","secret": "4522329bc5","title": "Indoor Skydiving, louco pacaralho!","loc": {"type": "Point","coordinates": [103.81773,1.251861]}} 
{"id": "8315310782","server": "8359","farm": "9","userId": "7488656@N06","secret": "a1aaf536d7","title": "entardecer em Sentosa","loc": {"type": "Point","coordinates": [103.81767,1.251515]}} 
{"id": "8302021801","server": "8494","farm": "9","userId": "79539131@N00","secret": "b73aa79653","title": "Play Mobil","loc": {"type": "Point","coordinates": [103.81767,1.251515]}} 
{"id": "8284600289","server": "8502","farm": "9","userId": "17801286@N05","secret": "7b8a88ef5c","title": "","loc": {"type": "Point","coordinates": [103.81633,1.251833]}} 
{"id": "8279666380","server": "8219","farm": "9","userId": "7681231@N02","secret": "34a6643bb3","title": "sandwiches","loc": {"type": "Point","coordinates": [103.81783,1.2515]}} 
{"id": "8279666602","server": "8220","farm": "9","userId": "7681231@N02","secret": "8bef2e3e89","title": "coffee menu in Singapore","loc": {"type": "Point","coordinates": [103.817665,1.2515]}} 
{"id": "8279664976","server": "8487","farm": "9","userId": "7681231@N02","secret": "6fd15b0228","title": "Tastes of Asia restaurant","loc": {"type": "Point","coordinates": [103.8175,1.2515]}} 
{"id": "8279666152","server": "8072","farm": "9","userId": "7681231@N02","secret": "93b09f3177","title": "Cup noodles","loc": {"type": "Point","coordinates": [103.81783,1.2515]}} 
{"id": "8278607449","server": "8084","farm": "9","userId": "7681231@N02","secret": "a79bfe9cdf","title": "7-11","loc": {"type": "Point","coordinates": [103.81783,1.2515]}} 
{"id": "8279665222","server": "8215","farm": "9","userId": "7681231@N02","secret": "73ea9f7be2","title": "restaurant menu","loc": {"type": "Point","coordinates": [103.8175,1.2515]}} 
{"id": "8274226684","server": "8503","farm": "9","userId": "48889054224@N01","secret": "96412ff7da","title": "This is the indoor stuff. #iflyworldchamps","loc": {"type": "Point","coordinates": [103.81773,1.251861]}} 
{"id": "8273012649","server": "8059","farm": "9","userId": "48889054224@N01","secret": "dfcd5a9d7f","title": "Good day to jump out of a helicopter","loc": {"type": "Point","coordinates": [103.81773,1.251861]}} 
{"id": "8253673526","server": "8060","farm": "9","userId": "76587677@N06","secret": "ba2740e128","title": "DSC08127","loc": {"type": "Point","coordinates": [103.81781,1.251462]}} 
{"id": "8246167288","server": "8489","farm": "9","userId": "80839252@N00","secret": "96d458f090","title": "IMG_9309.jpg","loc": {"type": "Point","coordinates": [103.817535,1.251258]}} 
{"id": "8245101369","server": "8343","farm": "9","userId": "80839252@N00","secret": "2e902722cb","title": "IMG_9349.jpg","loc": {"type": "Point","coordinates": [103.81747,1.251263]}} 
{"id": "8246169932","server": "8058","farm": "9","userId": "80839252@N00","secret": "42db6d37cc","title": "IMG_9386.jpg","loc": {"type": "Point","coordinates": [103.8175,1.251266]}} 
{"id": "8246169262","server": "8349","farm": "9","userId": "80839252@N00","secret": "9b340d401a","title": "IMG_9357.jpg","loc": {"type": "Point","coordinates": [103.81746,1.251263]}} 
{"id": "8100467040","server": "8196","farm": "9","userId": "51294514@N06","secret": "32c5f21367","title": "Unknown Insect #androidography #macro #insects","loc": {"type": "Point","coordinates": [103.81772,1.251601]}} 
