{"id": "8534363712","server": "8382","farm": "9","userId": "10807622@N00","secret": "8dbc5af6f4","title": "","loc": {"type": "Point","coordinates": [103.8094,1.256975]}} 
{"id": "8489796344","server": "8235","farm": "9","userId": "22742839@N00","secret": "22939712fa","title": "The Smile and the Frown","loc": {"type": "Point","coordinates": [103.80979,1.257747]}} 
{"id": "8418483599","server": "8511","farm": "9","userId": "45998941@N08","secret": "451ddb7ed3","title": "Barnacles garden party by the sea!","loc": {"type": "Point","coordinates": [103.809364,1.256565]}} 
{"id": "8651249968","server": "8250","farm": "9","userId": "93514812@N03","secret": "e6f88f1aee","title": "Sunset","loc": {"type": "Point","coordinates": [103.80953,1.257125]}} 
{"id": "8651255114","server": "8266","farm": "9","userId": "93514812@N03","secret": "40b8c2c402","title": "Rasa Shangri-La Resort","loc": {"type": "Point","coordinates": [103.809555,1.257297]}} 
{"id": "8651258290","server": "8101","farm": "9","userId": "93514812@N03","secret": "48c4fa50bd","title": "Balcony","loc": {"type": "Point","coordinates": [103.80966,1.257232]}} 
{"id": "8650196325","server": "8100","farm": "9","userId": "93514812@N03","secret": "0921b0f1d7","title": "Ball of Fire","loc": {"type": "Point","coordinates": [103.80947,1.257511]}} 
{"id": "8650175127","server": "8124","farm": "9","userId": "93514812@N03","secret": "4e78e3d899","title": "Last light","loc": {"type": "Point","coordinates": [103.80952,1.257425]}} 
{"id": "8651281170","server": "8391","farm": "9","userId": "93514812@N03","secret": "74f944dee3","title": "Falling Sun","loc": {"type": "Point","coordinates": [103.80966,1.257318]}} 
{"id": "8651285666","server": "8403","farm": "9","userId": "93514812@N03","secret": "4094e10b04","title": "Panaroma","loc": {"type": "Point","coordinates": [103.80953,1.257211]}} 
{"id": "8195984548","server": "8481","farm": "9","userId": "53436035@N04","secret": "53c98cd7e2","title": "P1000041.jpg","loc": {"type": "Point","coordinates": [103.809555,1.256846]}} 
