{"id": "9368572017","server": "3793","farm": "4","userId": "30639068@N07","secret": "ccae52f210","title": "Happy Birthday Chandni!","loc": {"type": "Point","coordinates": [103.81272,1.264098]}} 
{"id": "8420687736","server": "8225","farm": "9","userId": "62158995@N08","secret": "631334bf71","title": "Privé, Marina at Keppel Bay","loc": {"type": "Point","coordinates": [103.81275,1.264115]}} 
{"id": "9413135650","server": "7362","farm": "8","userId": "25076731@N05","secret": "6a11179ff8","title": "Yachts at Marina at Keppel Bay with Keppel Bay Bridge in the background","loc": {"type": "Point","coordinates": [103.81422,1.264033]}} 
{"id": "9413135164","server": "3766","farm": "4","userId": "25076731@N05","secret": "1a5bfed4ed","title": "Keppel Bay Bridge","loc": {"type": "Point","coordinates": [103.81426,1.264044]}} 
{"id": "9256041978","server": "3716","farm": "4","userId": "24989432@N06","secret": "811ed2f9e5","title": "Lighter than air Rum, Coconut & Pineapple Soufflé","loc": {"type": "Point","coordinates": [103.81272,1.264098]}} 
{"id": "9253096275","server": "7346","farm": "8","userId": "24989432@N06","secret": "032f151da9","title": "Love me Tender, love me sweet 1824","loc": {"type": "Point","coordinates": [103.81272,1.264098]}} 
{"id": "9218969105","server": "7291","farm": "8","userId": "13394179@N06","secret": "ec38a6cf23","title": "IMAG0771","loc": {"type": "Point","coordinates": [103.81294,1.262972]}} 
{"id": "8627519620","server": "8111","farm": "9","userId": "62158995@N08","secret": "3a58bb0ee1","title": "Three chocolate cupcake","loc": {"type": "Point","coordinates": [103.81275,1.2641]}} 
{"id": "8584048755","server": "8509","farm": "9","userId": "89975165@N07","secret": "0ec88b991c","title": "Privé's Ultimate Breakkie.","loc": {"type": "Point","coordinates": [103.81275,1.2641]}} 
{"id": "8557529165","server": "8524","farm": "9","userId": "87744193@N05","secret": "6ffef62dca","title": "Singapore - Keppel Bay Marina","loc": {"type": "Point","coordinates": [103.81512,1.26311]}} 
{"id": "8437988622","server": "8508","farm": "9","userId": "62158995@N08","secret": "ccbb175fae","title": "upload","loc": {"type": "Point","coordinates": [103.81275,1.264115]}} 
{"id": "8436774953","server": "8511","farm": "9","userId": "62158995@N08","secret": "1fac303241","title": "Awesome view (Marina at Keppel Bay)","loc": {"type": "Point","coordinates": [103.81275,1.264115]}} 
{"id": "8382368702","server": "8351","farm": "9","userId": "25802865@N08","secret": "51e2f3335c","title": "Keppel Marina","loc": {"type": "Point","coordinates": [103.81426,1.263411]}} 
{"id": "8352509114","server": "8354","farm": "9","userId": "82417989@N04","secret": "8a12d57691","title": "Glad to be back home! #Singapore","loc": {"type": "Point","coordinates": [103.81275,1.264115]}} 
{"id": "8330529959","server": "8501","farm": "9","userId": "34865466@N05","secret": "1696f0591f","title": "A step of faith","loc": {"type": "Point","coordinates": [103.815,1.263833]}} 
{"id": "8291592054","server": "8498","farm": "9","userId": "17144160@N00","secret": "38d3b2fb16","title": "Наутилус. Анфас.","loc": {"type": "Point","coordinates": [103.81497,1.263019]}} 
{"id": "8208627984","server": "8345","farm": "9","userId": "10179767@N00","secret": "701c842f02","title": "Stuttgart One Expo ~ Singapore","loc": {"type": "Point","coordinates": [103.812645,1.263926]}} 
{"id": "8174680482","server": "8487","farm": "9","userId": "25866952@N07","secret": "249c7e6ffd","title": "Đậu Đậu","loc": {"type": "Point","coordinates": [103.813,1.264001]}} 
{"id": "8174229689","server": "8339","farm": "9","userId": "32748795@N00","secret": "f537b35c94","title": "Say cheese!","loc": {"type": "Point","coordinates": [103.8127,1.26384]}} 
