{"id": "8459781465","server": "8371","farm": "9","userId": "7689141@N02","secret": "32cb826df0","title": "Instagram: behbehani","loc": {"type": "Point","coordinates": [103.82237,1.252255]}} 
{"id": "8216652936","server": "8207","farm": "9","userId": "24141292@N02","secret": "ba217c5b91","title": "In 'Ancient Egypt'","loc": {"type": "Point","coordinates": [103.823395,1.253307]}} 
{"id": "8216658008","server": "8344","farm": "9","userId": "24141292@N02","secret": "9ff935a320","title": "More Anubis Figures","loc": {"type": "Point","coordinates": [103.823395,1.253307]}} 
{"id": "8216666476","server": "8483","farm": "9","userId": "24141292@N02","secret": "5aa00bb395","title": "Anubis Guardians","loc": {"type": "Point","coordinates": [103.823395,1.253307]}} 
{"id": "8213529878","server": "8337","farm": "9","userId": "24141292@N02","secret": "0674940dd5","title": "Paying Homage to Anubis","loc": {"type": "Point","coordinates": [103.82231,1.253242]}} 
{"id": "8166914500","server": "7140","farm": "8","userId": "23268776@N03","secret": "4cf813308e","title": "Blakang Mati Barracks Block C - Singapore - 1904","loc": {"type": "Point","coordinates": [103.82117,1.25262]}} 
{"id": "9226777557","server": "2852","farm": "3","userId": "14385475@N05","secret": "a2327cce7a","title": "IMG_8810","loc": {"type": "Point","coordinates": [103.82283,1.252666]}} 
{"id": "9226776867","server": "7404","farm": "8","userId": "14385475@N05","secret": "e3f0469029","title": "IMG_8764","loc": {"type": "Point","coordinates": [103.82283,1.252666]}} 
{"id": "9163151913","server": "7387","farm": "8","userId": "55531333@N08","secret": "cc0f7282ff","title": "film50-05","loc": {"type": "Point","coordinates": [103.82211,1.25229]}} 
{"id": "9165393238","server": "5521","farm": "6","userId": "55531333@N08","secret": "c4301e4961","title": "film51-30","loc": {"type": "Point","coordinates": [103.82211,1.25229]}} 
{"id": "9163170563","server": "7379","farm": "8","userId": "55531333@N08","secret": "c75dc45144","title": "film51-34","loc": {"type": "Point","coordinates": [103.82211,1.25229]}} 
{"id": "9165374280","server": "3814","farm": "4","userId": "55531333@N08","secret": "9708d7894f","title": "film50-03","loc": {"type": "Point","coordinates": [103.82211,1.25229]}} 
{"id": "9163171489","server": "5485","farm": "6","userId": "55531333@N08","secret": "b22eb8cf64","title": "film51-36","loc": {"type": "Point","coordinates": [103.82211,1.25229]}} 
{"id": "8923583016","server": "5340","farm": "6","userId": "27193031@N05","secret": "4a664e41d3","title": "IMG_0551","loc": {"type": "Point","coordinates": [103.8223,1.252384]}} 
{"id": "8483369903","server": "8509","farm": "9","userId": "39346727@N08","secret": "ae057fcafc","title": "upload","loc": {"type": "Point","coordinates": [103.82209,1.251951]}} 
{"id": "8484459046","server": "8244","farm": "9","userId": "39346727@N08","secret": "2648701a0d","title": "upload","loc": {"type": "Point","coordinates": [103.82209,1.251951]}} 
{"id": "8298772405","server": "8084","farm": "9","userId": "79558371@N06","secret": "2b1b561f13","title": "","loc": {"type": "Point","coordinates": [103.82136,1.252127]}} 
{"id": "8246159858","server": "8066","farm": "9","userId": "80839252@N00","secret": "42ef9389ca","title": "IMG_9248.jpg","loc": {"type": "Point","coordinates": [103.821846,1.252775]}} 
{"id": "8215556691","server": "8207","farm": "9","userId": "24141292@N02","secret": "bc4a2a184a","title": "Anubis","loc": {"type": "Point","coordinates": [103.82231,1.253242]}} 
{"id": "8216647170","server": "8207","farm": "9","userId": "24141292@N02","secret": "9c8ae13993","title": "Entrance to 'The Mummy' Ride","loc": {"type": "Point","coordinates": [103.823395,1.253307]}} 
{"id": "8216658328","server": "8063","farm": "9","userId": "24141292@N02","secret": "185ebd69fd","title": "Chip off the old Block","loc": {"type": "Point","coordinates": [103.82231,1.253242]}} 
{"id": "8215576613","server": "8343","farm": "9","userId": "24141292@N02","secret": "625e4e8e18","title": "Khnum","loc": {"type": "Point","coordinates": [103.823395,1.253307]}} 
{"id": "8215565677","server": "8344","farm": "9","userId": "24141292@N02","secret": "fecef0ff67","title": "Amongst Papyrus Columns","loc": {"type": "Point","coordinates": [103.823395,1.253307]}} 
{"id": "8215564439","server": "8070","farm": "9","userId": "24141292@N02","secret": "3c8786c48a","title": "Supportive Anubises","loc": {"type": "Point","coordinates": [103.823395,1.253307]}} 
{"id": "8216652218","server": "8206","farm": "9","userId": "24141292@N02","secret": "886fb9a585","title": "Jackal-Headed Giants","loc": {"type": "Point","coordinates": [103.823395,1.253307]}} 
{"id": "8212442957","server": "8340","farm": "9","userId": "24141292@N02","secret": "214c9ef056","title": "Egyptian Warriors & Queen","loc": {"type": "Point","coordinates": [103.823395,1.253307]}} 
{"id": "8166861507","server": "7106","farm": "8","userId": "23268776@N03","secret": "c7e5e1b5f7","title": "Royal Artillery Guardhouse - Singapore - 1902","loc": {"type": "Point","coordinates": [103.8228,1.252277]}} 
