{"id": "9387942201","server": "3811","farm": "4","userId": "23791372@N07","secret": "fd51a6db4f","title": "","loc": {"type": "Point","coordinates": [103.8235,1.258833]}} 
{"id": "9377705194","server": "5470","farm": "6","userId": "98873354@N03","secret": "4d494af317","title": "Sentosa Express","loc": {"type": "Point","coordinates": [103.82359,1.259206]}} 
{"id": "9185679876","server": "3754","farm": "4","userId": "98262972@N04","secret": "5c5ff30c75","title": "Crane Dance","loc": {"type": "Point","coordinates": [103.8211,1.258133]}} 
{"id": "9150461848","server": "5550","farm": "6","userId": "73071628@N00","secret": "8ac64d267c","title": "Cranes are Dancing","loc": {"type": "Point","coordinates": [103.82119,1.258176]}} 
{"id": "9034935561","server": "7373","farm": "8","userId": "7131703@N03","secret": "f62c1c8856","title": "IMG_2976","loc": {"type": "Point","coordinates": [103.821335,1.258166]}} 
{"id": "8963941411","server": "2888","farm": "3","userId": "95808975@N08","secret": "65b28d81e5","title": "IMG_1233","loc": {"type": "Point","coordinates": [103.821,1.259166]}} 
{"id": "8965135174","server": "7284","farm": "8","userId": "95808975@N08","secret": "16bf0ed2bb","title": "IMG_1246","loc": {"type": "Point","coordinates": [103.82117,1.259333]}} 
{"id": "8965135564","server": "7351","farm": "8","userId": "95808975@N08","secret": "0c3d8614f4","title": "IMG_1238","loc": {"type": "Point","coordinates": [103.821,1.259166]}} 
{"id": "8963941557","server": "3728","farm": "4","userId": "95808975@N08","secret": "069feb6cf4","title": "IMG_1230","loc": {"type": "Point","coordinates": [103.821,1.259166]}} 
{"id": "8963939703","server": "3739","farm": "4","userId": "95808975@N08","secret": "6db1c8fdf0","title": "IMG_1267","loc": {"type": "Point","coordinates": [103.821335,1.2595]}} 
{"id": "8963941725","server": "5469","farm": "6","userId": "95808975@N08","secret": "476414e79f","title": "IMG_1228","loc": {"type": "Point","coordinates": [103.821,1.259166]}} 
{"id": "8965134318","server": "3808","farm": "4","userId": "95808975@N08","secret": "2eae405895","title": "IMG_1261","loc": {"type": "Point","coordinates": [103.821335,1.2595]}} 
{"id": "8965134666","server": "5444","farm": "6","userId": "95808975@N08","secret": "3a4c7a8d6b","title": "IMG_1252","loc": {"type": "Point","coordinates": [103.82117,1.259333]}} 
{"id": "8963941315","server": "3807","farm": "4","userId": "95808975@N08","secret": "ae966629d6","title": "IMG_1235","loc": {"type": "Point","coordinates": [103.821,1.259166]}} 
{"id": "8965134598","server": "7329","farm": "8","userId": "95808975@N08","secret": "342602e904","title": "IMG_1254","loc": {"type": "Point","coordinates": [103.82117,1.259333]}} 
{"id": "8965134032","server": "8413","farm": "9","userId": "95808975@N08","secret": "cee12be658","title": "IMG_1268","loc": {"type": "Point","coordinates": [103.821335,1.2595]}} 
{"id": "8965135064","server": "7456","farm": "8","userId": "95808975@N08","secret": "ac05e097dd","title": "IMG_1247","loc": {"type": "Point","coordinates": [103.82117,1.259333]}} 
{"id": "8965134268","server": "8404","farm": "9","userId": "95808975@N08","secret": "e78d866cf8","title": "IMG_1262","loc": {"type": "Point","coordinates": [103.821335,1.2595]}} 
{"id": "8965134888","server": "3721","farm": "4","userId": "95808975@N08","secret": "22c592f31b","title": "IMG_1249","loc": {"type": "Point","coordinates": [103.82117,1.259333]}} 
{"id": "8965134238","server": "5464","farm": "6","userId": "95808975@N08","secret": "c00c802fa9","title": "IMG_1263","loc": {"type": "Point","coordinates": [103.821335,1.2595]}} 
{"id": "8965135992","server": "8544","farm": "9","userId": "95808975@N08","secret": "d56717f02d","title": "IMG_1231","loc": {"type": "Point","coordinates": [103.821,1.259166]}} 
{"id": "8965135468","server": "3798","farm": "4","userId": "95808975@N08","secret": "8ba15570a2","title": "IMG_1241","loc": {"type": "Point","coordinates": [103.821,1.259166]}} 
{"id": "8963939361","server": "7307","farm": "8","userId": "95808975@N08","secret": "f0bc2a6966","title": "IMG_1275","loc": {"type": "Point","coordinates": [103.821335,1.2595]}} 
{"id": "8965134488","server": "8116","farm": "9","userId": "95808975@N08","secret": "4c6a41c5cc","title": "IMG_1258","loc": {"type": "Point","coordinates": [103.82117,1.259333]}} 
{"id": "8965136194","server": "8137","farm": "9","userId": "95808975@N08","secret": "9775473dba","title": "IMG_1225","loc": {"type": "Point","coordinates": [103.821,1.259166]}} 
{"id": "8965134646","server": "7375","farm": "8","userId": "95808975@N08","secret": "a86b5fb7a0","title": "IMG_1253","loc": {"type": "Point","coordinates": [103.82117,1.259333]}} 
{"id": "8965134596","server": "5335","farm": "6","userId": "95808975@N08","secret": "d5dd2be89e","title": "IMG_1255","loc": {"type": "Point","coordinates": [103.82117,1.259333]}} 
{"id": "8963940105","server": "8545","farm": "9","userId": "95808975@N08","secret": "9b542e6195","title": "IMG_1256","loc": {"type": "Point","coordinates": [103.82117,1.259333]}} 
{"id": "8963940053","server": "7382","farm": "8","userId": "95808975@N08","secret": "017d6afd2f","title": "IMG_1257","loc": {"type": "Point","coordinates": [103.82117,1.259333]}} 
{"id": "8963939527","server": "7350","farm": "8","userId": "95808975@N08","secret": "a2a0fac0c5","title": "IMG_1270","loc": {"type": "Point","coordinates": [103.821335,1.2595]}} 
{"id": "8963941487","server": "2857","farm": "3","userId": "95808975@N08","secret": "85ec53d838","title": "IMG_1232","loc": {"type": "Point","coordinates": [103.821,1.259166]}} 
{"id": "8963941207","server": "3825","farm": "4","userId": "95808975@N08","secret": "180c07eb7d","title": "IMG_1237","loc": {"type": "Point","coordinates": [103.821,1.259166]}} 
{"id": "8963940821","server": "8411","farm": "9","userId": "95808975@N08","secret": "16bd28a26b","title": "IMG_1245","loc": {"type": "Point","coordinates": [103.82117,1.259333]}} 
{"id": "8965135294","server": "2890","farm": "3","userId": "95808975@N08","secret": "5f8cfdc6c0","title": "IMG_1244","loc": {"type": "Point","coordinates": [103.82117,1.259333]}} 
{"id": "8963939495","server": "7285","farm": "8","userId": "95808975@N08","secret": "62e021288d","title": "IMG_1271","loc": {"type": "Point","coordinates": [103.821335,1.2595]}} 
{"id": "8965134382","server": "7412","farm": "8","userId": "95808975@N08","secret": "2d01f5995f","title": "IMG_1259","loc": {"type": "Point","coordinates": [103.82117,1.259333]}} 
{"id": "8965134194","server": "7435","farm": "8","userId": "95808975@N08","secret": "76c6800bab","title": "IMG_1264","loc": {"type": "Point","coordinates": [103.821335,1.2595]}} 
{"id": "8965134062","server": "3729","farm": "4","userId": "95808975@N08","secret": "7d5a5d2a40","title": "IMG_1266","loc": {"type": "Point","coordinates": [103.821335,1.2595]}} 
{"id": "8965134848","server": "3772","farm": "4","userId": "95808975@N08","secret": "8dfbc5b5c6","title": "IMG_1250","loc": {"type": "Point","coordinates": [103.82117,1.259333]}} 
{"id": "8965136004","server": "7353","farm": "8","userId": "95808975@N08","secret": "21e6d8c222","title": "IMG_1229","loc": {"type": "Point","coordinates": [103.821,1.259166]}} 
{"id": "8963940939","server": "7442","farm": "8","userId": "95808975@N08","secret": "6a1f1d5775","title": "IMG_1242","loc": {"type": "Point","coordinates": [103.821,1.259166]}} 
{"id": "8965133784","server": "3736","farm": "4","userId": "95808975@N08","secret": "eb0b9c06a0","title": "IMG_1273","loc": {"type": "Point","coordinates": [103.821335,1.2595]}} 
{"id": "8965133702","server": "5454","farm": "6","userId": "95808975@N08","secret": "11909f56df","title": "IMG_1274","loc": {"type": "Point","coordinates": [103.821335,1.2595]}} 
{"id": "8965136230","server": "5462","farm": "6","userId": "95808975@N08","secret": "6e44b6d9c5","title": "IMG_1226","loc": {"type": "Point","coordinates": [103.821,1.259166]}} 
{"id": "8963941015","server": "2827","farm": "3","userId": "95808975@N08","secret": "75f9c05fe3","title": "IMG_1240","loc": {"type": "Point","coordinates": [103.821,1.259166]}} 
{"id": "8965134730","server": "7287","farm": "8","userId": "95808975@N08","secret": "1a121d7823","title": "IMG_1251","loc": {"type": "Point","coordinates": [103.82117,1.259333]}} 
{"id": "8965133974","server": "7321","farm": "8","userId": "95808975@N08","secret": "e2a49d0e90","title": "IMG_1269","loc": {"type": "Point","coordinates": [103.821335,1.2595]}} 
{"id": "8965135764","server": "8539","farm": "9","userId": "95808975@N08","secret": "370cd10523","title": "IMG_1234","loc": {"type": "Point","coordinates": [103.821,1.259166]}} 
{"id": "8965134348","server": "8257","farm": "9","userId": "95808975@N08","secret": "8bef7fd0c3","title": "IMG_1260","loc": {"type": "Point","coordinates": [103.821335,1.2595]}} 
{"id": "8965134880","server": "8262","farm": "9","userId": "95808975@N08","secret": "60a0751428","title": "IMG_1248","loc": {"type": "Point","coordinates": [103.82117,1.259333]}} 
{"id": "8963941819","server": "3768","farm": "4","userId": "95808975@N08","secret": "6c9dc627a2","title": "IMG_1227","loc": {"type": "Point","coordinates": [103.821,1.259166]}} 
{"id": "8963941267","server": "3737","farm": "4","userId": "95808975@N08","secret": "b9aa6ca16c","title": "IMG_1236","loc": {"type": "Point","coordinates": [103.821,1.259166]}} 
{"id": "8963939753","server": "8260","farm": "9","userId": "95808975@N08","secret": "9771e963ce","title": "IMG_1265","loc": {"type": "Point","coordinates": [103.821335,1.2595]}} 
{"id": "8965135278","server": "8399","farm": "9","userId": "95808975@N08","secret": "24733b4b54","title": "IMG_1243","loc": {"type": "Point","coordinates": [103.82117,1.259333]}} 
{"id": "8626144483","server": "8405","farm": "9","userId": "32342207@N04","secret": "e8dd896df9","title": "DSC_3850","loc": {"type": "Point","coordinates": [103.82328,1.258605]}} 
{"id": "8627255972","server": "8263","farm": "9","userId": "32342207@N04","secret": "1722953139","title": "DSC_4036","loc": {"type": "Point","coordinates": [103.82322,1.258788]}} 
{"id": "8592698332","server": "8505","farm": "9","userId": "34811143@N00","secret": "1433aedd8b","title": "S.E.A. Aquarium - Resorts World Sentosa","loc": {"type": "Point","coordinates": [103.82361,1.258333]}} 
{"id": "8591597553","server": "8373","farm": "9","userId": "34811143@N00","secret": "998fe909f1","title": "S.E.A. Aquarium - Resorts World Sentosa","loc": {"type": "Point","coordinates": [103.82361,1.258333]}} 
{"id": "8551738528","server": "8232","farm": "9","userId": "23307377@N06","secret": "17811e018c","title": "D7A_5277","loc": {"type": "Point","coordinates": [103.82148,1.258037]}} 
{"id": "8550636099","server": "8247","farm": "9","userId": "23307377@N06","secret": "b6c21938de","title": "Manta Ray","loc": {"type": "Point","coordinates": [103.82148,1.258037]}} 
{"id": "8550640205","server": "8380","farm": "9","userId": "23307377@N06","secret": "a5ea0ca99b","title": "School of Yellowstripe Scad","loc": {"type": "Point","coordinates": [103.82148,1.258037]}} 
{"id": "8551739422","server": "8241","farm": "9","userId": "23307377@N06","secret": "58ded68a2d","title": "D7A_5236","loc": {"type": "Point","coordinates": [103.82148,1.258037]}} 
{"id": "8551738756","server": "8225","farm": "9","userId": "23307377@N06","secret": "d655a73492","title": "D7A_5301","loc": {"type": "Point","coordinates": [103.82148,1.258037]}} 
{"id": "8551736772","server": "8510","farm": "9","userId": "23307377@N06","secret": "b4dca2b59a","title": "Potato Cod","loc": {"type": "Point","coordinates": [103.82148,1.258037]}} 
{"id": "8550640051","server": "8392","farm": "9","userId": "23307377@N06","secret": "6e6ae1a407","title": "Epaulette Shark","loc": {"type": "Point","coordinates": [103.82148,1.258037]}} 
{"id": "8551738482","server": "8527","farm": "9","userId": "23307377@N06","secret": "646cc1ced1","title": "D7A_5291","loc": {"type": "Point","coordinates": [103.82148,1.258037]}} 
{"id": "8551740010","server": "8531","farm": "9","userId": "23307377@N06","secret": "c561220e03","title": "Nautilus","loc": {"type": "Point","coordinates": [103.82148,1.258037]}} 
{"id": "8551740276","server": "8389","farm": "9","userId": "23307377@N06","secret": "3927fb8df9","title": "D7A_5158","loc": {"type": "Point","coordinates": [103.82148,1.258037]}} 
{"id": "8550640771","server": "8098","farm": "9","userId": "23307377@N06","secret": "ed81e521e7","title": "D7A_5076","loc": {"type": "Point","coordinates": [103.82148,1.258037]}} 
{"id": "8550639465","server": "8096","farm": "9","userId": "23307377@N06","secret": "bae148e533","title": "D7A_5119","loc": {"type": "Point","coordinates": [103.82148,1.258037]}} 
{"id": "8550638351","server": "8232","farm": "9","userId": "23307377@N06","secret": "e7e44f0d6e","title": "Nautilus","loc": {"type": "Point","coordinates": [103.82148,1.258037]}} 
{"id": "8550636745","server": "8507","farm": "9","userId": "23307377@N06","secret": "d787d46814","title": "D7A_5417","loc": {"type": "Point","coordinates": [103.82148,1.258037]}} 
{"id": "8551739434","server": "8387","farm": "9","userId": "23307377@N06","secret": "07ce0b5ba3","title": "D7A_5266","loc": {"type": "Point","coordinates": [103.82148,1.258037]}} 
{"id": "8551740210","server": "8237","farm": "9","userId": "23307377@N06","secret": "dce6a7e64a","title": "Alaskan King Crab","loc": {"type": "Point","coordinates": [103.82148,1.258037]}} 
{"id": "8551738968","server": "8516","farm": "9","userId": "23307377@N06","secret": "33526ab46c","title": "D7A_5258","loc": {"type": "Point","coordinates": [103.82148,1.258037]}} 
{"id": "8550636903","server": "8380","farm": "9","userId": "23307377@N06","secret": "9640626f03","title": "D7A_5305","loc": {"type": "Point","coordinates": [103.82148,1.258037]}} 
{"id": "8551740866","server": "8387","farm": "9","userId": "23307377@N06","secret": "bfd084fcf1","title": "Golden Head Sleeper Goby?","loc": {"type": "Point","coordinates": [103.82148,1.258037]}} 
{"id": "8551736730","server": "8238","farm": "9","userId": "23307377@N06","secret": "e4cf332b2b","title": "D7A_5401","loc": {"type": "Point","coordinates": [103.82148,1.258037]}} 
{"id": "8550637165","server": "8525","farm": "9","userId": "23307377@N06","secret": "42084884e1","title": "D7A_5298","loc": {"type": "Point","coordinates": [103.82148,1.258037]}} 
{"id": "8551736944","server": "8372","farm": "9","userId": "23307377@N06","secret": "ee47d0fd07","title": "D7A_5399","loc": {"type": "Point","coordinates": [103.82148,1.258037]}} 
{"id": "8500972802","server": "8506","farm": "9","userId": "9716888@N03","secret": "91e83b3211","title": "IMG_9469","loc": {"type": "Point","coordinates": [103.82117,1.258333]}} 
{"id": "8480477811","server": "8528","farm": "9","userId": "19454593@N00","secret": "f9abfdb18a","title": "IMG_0841_F","loc": {"type": "Point","coordinates": [103.82347,1.259044]}} 
{"id": "8481569074","server": "8226","farm": "9","userId": "19454593@N00","secret": "5e2c803917","title": "IMG_0838_F","loc": {"type": "Point","coordinates": [103.82328,1.258308]}} 
{"id": "8474175164","server": "8091","farm": "9","userId": "19454593@N00","secret": "3dd1b245fd","title": "IMG_0736_F","loc": {"type": "Point","coordinates": [103.821236,1.258363]}} 
{"id": "8471360463","server": "8369","farm": "9","userId": "19454593@N00","secret": "1b9e01e23e","title": "IMG_0735_F","loc": {"type": "Point","coordinates": [103.82114,1.258494]}} 
{"id": "8398125099","server": "8222","farm": "9","userId": "92376062@N02","secret": "dec3488cd3","title": "IMG_0625","loc": {"type": "Point","coordinates": [103.823,1.259166]}} 
{"id": "8398127579","server": "8097","farm": "9","userId": "92376062@N02","secret": "a8be713dc7","title": "IMG_0633","loc": {"type": "Point","coordinates": [103.823166,1.259333]}} 
{"id": "8398121713","server": "8086","farm": "9","userId": "92376062@N02","secret": "beec42a97d","title": "IMG_0613","loc": {"type": "Point","coordinates": [103.822,1.258333]}} 
{"id": "8399206948","server": "8096","farm": "9","userId": "92376062@N02","secret": "8f6467aa1f","title": "IMG_0614","loc": {"type": "Point","coordinates": [103.822,1.258333]}} 
{"id": "8398118417","server": "8499","farm": "9","userId": "92376062@N02","secret": "0ae8e05f12","title": "IMG_0600","loc": {"type": "Point","coordinates": [103.822,1.258333]}} 
{"id": "8399208862","server": "8354","farm": "9","userId": "92376062@N02","secret": "7e943a521b","title": "IMG_0620","loc": {"type": "Point","coordinates": [103.823,1.259166]}} 
{"id": "8399210964","server": "8092","farm": "9","userId": "92376062@N02","secret": "a225f47270","title": "IMG_0626","loc": {"type": "Point","coordinates": [103.823,1.259166]}} 
{"id": "8398124861","server": "8193","farm": "9","userId": "92376062@N02","secret": "3b69cd2373","title": "IMG_0624","loc": {"type": "Point","coordinates": [103.823,1.259166]}} 
{"id": "8398121219","server": "8356","farm": "9","userId": "92376062@N02","secret": "bc1a3a7f61","title": "IMG_0612","loc": {"type": "Point","coordinates": [103.822,1.258333]}} 
{"id": "8399203002","server": "8363","farm": "9","userId": "92376062@N02","secret": "c20e40be01","title": "IMG_0599","loc": {"type": "Point","coordinates": [103.822,1.258333]}} 
{"id": "8399202770","server": "8515","farm": "9","userId": "92376062@N02","secret": "a88497f8e5","title": "IMG_0598","loc": {"type": "Point","coordinates": [103.822,1.258333]}} 
{"id": "8398117165","server": "8376","farm": "9","userId": "92376062@N02","secret": "dd38f2edc2","title": "IMG_0597","loc": {"type": "Point","coordinates": [103.822,1.258333]}} 
{"id": "8311609142","server": "8082","farm": "9","userId": "91501450@N04","secret": "531bdcd9de","title": "","loc": {"type": "Point","coordinates": [103.8215,1.258166]}} 
