{"id": "9112037877","server": "5442","farm": "6","userId": "97882047@N07","secret": "6258c19414","title": "","loc": {"type": "Point","coordinates": [103.82866,1.2487]}} 
{"id": "8662520340","server": "8262","farm": "9","userId": "95063136@N03","secret": "e35220b5a7","title": "Hard Rock Hotel Bar","loc": {"type": "Point","coordinates": [103.82866,1.2487]}} 
{"id": "8650206275","server": "8400","farm": "9","userId": "93514812@N03","secret": "ce1fd9f5bd","title": "Marine Life","loc": {"type": "Point","coordinates": [103.82866,1.2487]}} 
{"id": "8650212201","server": "8111","farm": "9","userId": "93514812@N03","secret": "6784ffb345","title": "Tiger","loc": {"type": "Point","coordinates": [103.82883,1.248587]}} 
{"id": "8620753669","server": "8380","farm": "9","userId": "21063213@N08","secret": "0e78fb8c90","title": "Mayura Nrityam - Peacock Dance","loc": {"type": "Point","coordinates": [103.82866,1.2487]}} 
{"id": "8400050294","server": "8186","farm": "9","userId": "33650137@N05","secret": "022f2f8b66","title": "singapore - Sentosa Monorail on Sentosa Island c2001 JL","loc": {"type": "Point","coordinates": [103.82866,1.2487]}} 
{"id": "8348200967","server": "8375","farm": "9","userId": "16102830@N05","secret": "3817051dda","title": "1206_JuneRandoms_HR_007","loc": {"type": "Point","coordinates": [103.82733,1.248]}} 
{"id": "8348200083","server": "8464","farm": "9","userId": "16102830@N05","secret": "b5d680b0fb","title": "1206_JuneRandoms_HR_011","loc": {"type": "Point","coordinates": [103.8275,1.248]}} 
{"id": "8348199379","server": "8194","farm": "9","userId": "16102830@N05","secret": "6d7d9117f0","title": "1206_JuneRandoms_HR_013","loc": {"type": "Point","coordinates": [103.82733,1.248]}} 
{"id": "8349255498","server": "8074","farm": "9","userId": "16102830@N05","secret": "2d6106c9d1","title": "1206_JuneRandoms_HR_020","loc": {"type": "Point","coordinates": [103.827835,1.248166]}} 
{"id": "8349256834","server": "8238","farm": "9","userId": "16102830@N05","secret": "c299bce67c","title": "1206_JuneRandoms_HR_015","loc": {"type": "Point","coordinates": [103.8275,1.248]}} 
{"id": "8348200229","server": "8355","farm": "9","userId": "16102830@N05","secret": "367084da29","title": "1206_JuneRandoms_HR_010","loc": {"type": "Point","coordinates": [103.8275,1.248]}} 
{"id": "8348196723","server": "8356","farm": "9","userId": "16102830@N05","secret": "34867e10b0","title": "1206_JuneRandoms_HR_022","loc": {"type": "Point","coordinates": [103.8275,1.248]}} 
{"id": "8349255188","server": "8082","farm": "9","userId": "16102830@N05","secret": "02977109da","title": "1206_JuneRandoms_HR_021","loc": {"type": "Point","coordinates": [103.8275,1.248]}} 
{"id": "8348196197","server": "8048","farm": "9","userId": "16102830@N05","secret": "3940f85c17","title": "1206_JuneRandoms_HR_023","loc": {"type": "Point","coordinates": [103.82767,1.248]}} 
{"id": "8348198721","server": "8476","farm": "9","userId": "16102830@N05","secret": "1440320026","title": "1206_JuneRandoms_HR_016","loc": {"type": "Point","coordinates": [103.8275,1.248]}} 
{"id": "8349256374","server": "8496","farm": "9","userId": "16102830@N05","secret": "e55e2027ba","title": "1206_JuneRandoms_HR_017","loc": {"type": "Point","coordinates": [103.82733,1.248]}} 
{"id": "8348200673","server": "8187","farm": "9","userId": "16102830@N05","secret": "d8ba48a0cf","title": "1206_JuneRandoms_HR_008","loc": {"type": "Point","coordinates": [103.82733,1.248]}} 
{"id": "8349255842","server": "8330","farm": "9","userId": "16102830@N05","secret": "5aae1aea4e","title": "1206_JuneRandoms_HR_019","loc": {"type": "Point","coordinates": [103.82733,1.248]}} 
{"id": "8349256076","server": "8215","farm": "9","userId": "16102830@N05","secret": "a9dc790d99","title": "1206_JuneRandoms_HR_018","loc": {"type": "Point","coordinates": [103.8275,1.248]}} 
{"id": "8349259616","server": "8473","farm": "9","userId": "16102830@N05","secret": "dceabe42ca","title": "1206_JuneRandoms_HR_004","loc": {"type": "Point","coordinates": [103.82767,1.248]}} 
{"id": "8349258332","server": "8367","farm": "9","userId": "16102830@N05","secret": "ed275b0a88","title": "1206_JuneRandoms_HR_009","loc": {"type": "Point","coordinates": [103.8275,1.248]}} 
{"id": "8348199151","server": "8513","farm": "9","userId": "16102830@N05","secret": "20e319aa12","title": "1206_JuneRandoms_HR_014","loc": {"type": "Point","coordinates": [103.8275,1.248]}} 
{"id": "8348201265","server": "8052","farm": "9","userId": "16102830@N05","secret": "17a08649a5","title": "1206_JuneRandoms_HR_006","loc": {"type": "Point","coordinates": [103.8275,1.248]}} 
{"id": "8253729877","server": "8493","farm": "9","userId": "64406447@N07","secret": "818a3f7049","title": "Ryan Higa","loc": {"type": "Point","coordinates": [103.82866,1.2487]}} 
{"id": "8237113247","server": "8343","farm": "9","userId": "38662956@N00","secret": "b9cb440553","title": "@desgo serenades us with a kiss... many kisses","loc": {"type": "Point","coordinates": [103.82755,1.248047]}} 
{"id": "8236792621","server": "8199","farm": "9","userId": "38662956@N00","secret": "375a92a5d6","title": "The gorgeous bride. Serene and the ever-suave groom, Desmond","loc": {"type": "Point","coordinates": [103.82755,1.248047]}} 
{"id": "8162709663","server": "7277","farm": "8","userId": "86534623@N08","secret": "77ceaebd68","title": "Sentosa Singapore","loc": {"type": "Point","coordinates": [103.82866,1.2487]}} 
{"id": "8123287253","server": "8476","farm": "9","userId": "89209561@N08","secret": "14070225f3","title": "Singapore","loc": {"type": "Point","coordinates": [103.82866,1.2487]}} 
