{"id": "9443343277","server": "3717","farm": "4","userId": "39952962@N00","secret": "e9722e308a","title": "S.E.A. Aquarium","loc": {"type": "Point","coordinates": [103.82052,1.258311]}} 
{"id": "9446120016","server": "5336","farm": "6","userId": "39952962@N00","secret": "54cb2beb70","title": "S.E.A. Aquarium","loc": {"type": "Point","coordinates": [103.82052,1.258311]}} 
{"id": "9446125888","server": "2812","farm": "3","userId": "39952962@N00","secret": "f14f0a3b4c","title": "S.E.A. Aquarium","loc": {"type": "Point","coordinates": [103.82052,1.258311]}} 
{"id": "9277521828","server": "5462","farm": "6","userId": "34404963@N00","secret": "d7d2703939","title": "Sentosa Acquarium","loc": {"type": "Point","coordinates": [103.8205,1.258333]}} 
{"id": "9274705839","server": "5547","farm": "6","userId": "34404963@N00","secret": "96438379b2","title": "Sentosa Acquarium","loc": {"type": "Point","coordinates": [103.820335,1.2585]}} 
{"id": "9277494682","server": "3795","farm": "4","userId": "34404963@N00","secret": "db1fecb76d","title": "Sentosa Acquarium","loc": {"type": "Point","coordinates": [103.820335,1.2585]}} 
{"id": "9277488786","server": "2869","farm": "3","userId": "34404963@N00","secret": "aba176e7d7","title": "Sentosa Acquarium","loc": {"type": "Point","coordinates": [103.820335,1.258666]}} 
{"id": "9274703787","server": "7387","farm": "8","userId": "34404963@N00","secret": "1b247762b7","title": "Sentosa Acquarium","loc": {"type": "Point","coordinates": [103.820335,1.2585]}} 
{"id": "9277498116","server": "7369","farm": "8","userId": "34404963@N00","secret": "42d1b2738a","title": "Sentosa Acquarium","loc": {"type": "Point","coordinates": [103.820335,1.2585]}} 
{"id": "9274704763","server": "5449","farm": "6","userId": "34404963@N00","secret": "bd60eefee5","title": "Sentosa Acquarium","loc": {"type": "Point","coordinates": [103.820335,1.2585]}} 
{"id": "9269629260","server": "3831","farm": "4","userId": "61587929@N06","secret": "a04aa2c3dc","title": "Acanthocephala sp. [Leaf-footed Bug].","loc": {"type": "Point","coordinates": [103.818565,1.25852]}} 
{"id": "9174900823","server": "5532","farm": "6","userId": "8659935@N03","secret": "52d8b503b4","title": "Ocean Restaurant by Cat Cora","loc": {"type": "Point","coordinates": [103.81972,1.259019]}} 
{"id": "9174888187","server": "7333","farm": "8","userId": "8659935@N03","secret": "f5681f9d0e","title": "Ocean Restaurant by Cat Cora","loc": {"type": "Point","coordinates": [103.8196,1.258819]}} 
{"id": "9177130274","server": "3721","farm": "4","userId": "8659935@N03","secret": "f5ab65d334","title": "Ocean Restaurant by Cat Cora","loc": {"type": "Point","coordinates": [103.81972,1.259019]}} 
{"id": "9174893483","server": "7400","farm": "8","userId": "8659935@N03","secret": "33c93cac64","title": "Ocean Restaurant by Cat Cora","loc": {"type": "Point","coordinates": [103.81972,1.259019]}} 
{"id": "9177160016","server": "7417","farm": "8","userId": "8659935@N03","secret": "c7e19241ed","title": "Ocean Restaurant by Cat Cora","loc": {"type": "Point","coordinates": [103.81972,1.259019]}} 
{"id": "9177145148","server": "3741","farm": "4","userId": "8659935@N03","secret": "8646e62ff5","title": "Ocean Restaurant by Cat Cora","loc": {"type": "Point","coordinates": [103.8196,1.258819]}} 
{"id": "9177147624","server": "2884","farm": "3","userId": "8659935@N03","secret": "9dfb99b7c8","title": "Ocean Restaurant by Cat Cora","loc": {"type": "Point","coordinates": [103.81972,1.259019]}} 
{"id": "9177132834","server": "2849","farm": "3","userId": "8659935@N03","secret": "4c73b55c2d","title": "Ocean Restaurant by Cat Cora","loc": {"type": "Point","coordinates": [103.81972,1.259019]}} 
{"id": "9177155164","server": "3725","farm": "4","userId": "8659935@N03","secret": "8418b99bf7","title": "Ocean Restaurant by Cat Cora","loc": {"type": "Point","coordinates": [103.81972,1.259019]}} 
{"id": "9177151972","server": "5512","farm": "6","userId": "8659935@N03","secret": "13831ce7f1","title": "Ocean Restaurant by Cat Cora","loc": {"type": "Point","coordinates": [103.81972,1.259019]}} 
{"id": "9174920315","server": "7336","farm": "8","userId": "8659935@N03","secret": "8f80996111","title": "Ocean Restaurant by Cat Cora","loc": {"type": "Point","coordinates": [103.8196,1.258819]}} 
{"id": "9177125868","server": "7314","farm": "8","userId": "8659935@N03","secret": "238038c0c7","title": "Ocean Restaurant by Cat Cora","loc": {"type": "Point","coordinates": [103.81961,1.258819]}} 
{"id": "9174896113","server": "3801","farm": "4","userId": "8659935@N03","secret": "e4456bc338","title": "Ocean Restaurant by Cat Cora","loc": {"type": "Point","coordinates": [103.81972,1.259019]}} 
{"id": "9174937825","server": "5449","farm": "6","userId": "8659935@N03","secret": "8acfdb9fff","title": "Ocean Restaurant by Cat Cora","loc": {"type": "Point","coordinates": [103.81972,1.259019]}} 
{"id": "9177137508","server": "5453","farm": "6","userId": "8659935@N03","secret": "da3c259b52","title": "Ocean Restaurant by Cat Cora","loc": {"type": "Point","coordinates": [103.8196,1.258819]}} 
{"id": "9174903901","server": "7441","farm": "8","userId": "8659935@N03","secret": "24a5fbc4a0","title": "Ocean Restaurant by Cat Cora","loc": {"type": "Point","coordinates": [103.81961,1.258819]}} 
{"id": "9177142168","server": "3759","farm": "4","userId": "8659935@N03","secret": "e88b52501c","title": "Ocean Restaurant by Cat Cora","loc": {"type": "Point","coordinates": [103.8196,1.258819]}} 
{"id": "9174885775","server": "3806","farm": "4","userId": "8659935@N03","secret": "c8c9919565","title": "Ocean Restaurant by Cat Cora","loc": {"type": "Point","coordinates": [103.8196,1.258819]}} 
{"id": "9177101808","server": "2807","farm": "3","userId": "8659935@N03","secret": "7726dfeb4c","title": "Ocean Restaurant by Cat Cora","loc": {"type": "Point","coordinates": [103.81972,1.259019]}} 
{"id": "9177103254","server": "5504","farm": "6","userId": "8659935@N03","secret": "2fc143c1aa","title": "Ocean Restaurant by Cat Cora","loc": {"type": "Point","coordinates": [103.81972,1.259019]}} 
{"id": "9174880515","server": "3709","farm": "4","userId": "8659935@N03","secret": "d78f53293f","title": "Ocean Restaurant by Cat Cora","loc": {"type": "Point","coordinates": [103.81972,1.259019]}} 
{"id": "8817562129","server": "2846","farm": "3","userId": "79102856@N00","secret": "798dc9205e","title": "Wedding/Honeymoon","loc": {"type": "Point","coordinates": [103.81983,1.259]}} 
{"id": "8703387053","server": "8548","farm": "9","userId": "28322281@N03","secret": "d9dd476a9b","title": "DSC_1333.jpg","loc": {"type": "Point","coordinates": [103.820816,1.258088]}} 
{"id": "8703386071","server": "8396","farm": "9","userId": "28322281@N03","secret": "32ed3128ee","title": "DSC_1332.jpg","loc": {"type": "Point","coordinates": [103.820816,1.258088]}} 
{"id": "8703384883","server": "8559","farm": "9","userId": "28322281@N03","secret": "6f7d9c7eac","title": "DSC_1334.jpg","loc": {"type": "Point","coordinates": [103.820816,1.258088]}} 
{"id": "8703385321","server": "8405","farm": "9","userId": "28322281@N03","secret": "4217c81939","title": "DSC_1331.jpg","loc": {"type": "Point","coordinates": [103.820816,1.258088]}} 
{"id": "8704505920","server": "8559","farm": "9","userId": "28322281@N03","secret": "fd793454ed","title": "DSC_1330.jpg","loc": {"type": "Point","coordinates": [103.820816,1.258088]}} 
{"id": "9443338921","server": "7310","farm": "8","userId": "39952962@N00","secret": "bd030f13ce","title": "Found the correct aquarium, and its huge viewing window","loc": {"type": "Point","coordinates": [103.82052,1.258311]}} 
{"id": "9446122230","server": "5506","farm": "6","userId": "39952962@N00","secret": "1542ac4df0","title": "Sitting in front of that aquarium was really relaxing, even if the ambient music loop was too short...","loc": {"type": "Point","coordinates": [103.82052,1.258311]}} 
{"id": "9414870666","server": "3789","farm": "4","userId": "94346589@N03","secret": "04ba6f760d","title": "#instaplace #instaplaceapp #instagood #photooftheday #instamood #picoftheday #instadaily #photo #instacool #instapic #picture #pic @instaplacemobi #place #earth #world  #singapore #SG #singapore #adventurecovewaterpark #food #foodporn #restaurant #art #st","loc": {"type": "Point","coordinates": [103.8195,1.258601]}} 
{"id": "9414873998","server": "7443","farm": "8","userId": "94346589@N03","secret": "ec462ca8ca","title": "#groupphoto","loc": {"type": "Point","coordinates": [103.8195,1.258601]}} 
{"id": "9375733679","server": "7324","farm": "8","userId": "98896805@N02","secret": "fbdeb726e4","title": "DSCN0098.JPG","loc": {"type": "Point","coordinates": [103.81813,1.259508]}} 
{"id": "9378521944","server": "7336","farm": "8","userId": "98896805@N02","secret": "f2b51ac696","title": "DSCN0099.JPG","loc": {"type": "Point","coordinates": [103.81813,1.259272]}} 
{"id": "9367682573","server": "5445","farm": "6","userId": "39952962@N00","secret": "365972cfb3","title": "The lobby of The Maritime Experiential Museum","loc": {"type": "Point","coordinates": [103.82052,1.258311]}} 
{"id": "9331918699","server": "7367","farm": "8","userId": "91963736@N02","secret": "0035d5a0e6","title": "upload","loc": {"type": "Point","coordinates": [103.81989,1.258995]}} 
{"id": "9252674261","server": "3687","farm": "4","userId": "12166501@N00","secret": "d57e795c62","title": "#instagram #instamood #instadaily #iphonephotooftheday","loc": {"type": "Point","coordinates": [103.81964,1.258466]}} 
{"id": "9177110366","server": "3785","farm": "4","userId": "8659935@N03","secret": "c9ac4a629d","title": "Ocean Restaurant by Cat Cora","loc": {"type": "Point","coordinates": [103.8196,1.258819]}} 
{"id": "9064791895","server": "7353","farm": "8","userId": "29049566@N07","secret": "4552196d70","title": "The Gang","loc": {"type": "Point","coordinates": [103.81964,1.258466]}} 
{"id": "9017983235","server": "3781","farm": "4","userId": "54530665@N08","secret": "ce81023550","title": "She do love me  #sg #singapore #love #fish #sea #aquarium #travel #bestoftheday #picoftheday #awesome #lovely #blue #me #kiss #followtofollow #ios #iphone #instagramers #water #nature","loc": {"type": "Point","coordinates": [103.8206,1.258211]}} 
{"id": "8993600981","server": "3667","farm": "4","userId": "25718534@N05","secret": "1240e37510","title": "wp82_130603_044","loc": {"type": "Point","coordinates": [103.81986,1.25868]}} 
{"id": "8963932261","server": "5335","farm": "6","userId": "95808975@N08","secret": "5b2c4a5490","title": "IMG_1192","loc": {"type": "Point","coordinates": [103.82066,1.259]}} 
{"id": "8965116882","server": "8547","farm": "9","userId": "95808975@N08","secret": "21d6976a6f","title": "IMG_1145","loc": {"type": "Point","coordinates": [103.82017,1.2585]}} 
{"id": "8965121108","server": "3669","farm": "4","userId": "95808975@N08","secret": "d7433b382e","title": "IMG_1155","loc": {"type": "Point","coordinates": [103.82017,1.2585]}} 
{"id": "8965127328","server": "8279","farm": "9","userId": "95808975@N08","secret": "caa9e53986","title": "IMG_1174","loc": {"type": "Point","coordinates": [103.820335,1.258666]}} 
{"id": "8963932873","server": "7340","farm": "8","userId": "95808975@N08","secret": "ec5ff8684d","title": "IMG_1181","loc": {"type": "Point","coordinates": [103.8205,1.258666]}} 
{"id": "8963926665","server": "5461","farm": "6","userId": "95808975@N08","secret": "91a19e71d7","title": "IMG_1160","loc": {"type": "Point","coordinates": [103.82017,1.2585]}} 
{"id": "8965126990","server": "7300","farm": "8","userId": "95808975@N08","secret": "bf81dfc852","title": "IMG_1180","loc": {"type": "Point","coordinates": [103.8205,1.258666]}} 
{"id": "8963942851","server": "2815","farm": "3","userId": "95808975@N08","secret": "46914cfbc5","title": "IMG_1217","loc": {"type": "Point","coordinates": [103.82083,1.259166]}} 
{"id": "8963942809","server": "5344","farm": "6","userId": "95808975@N08","secret": "b7703c0b43","title": "IMG_1218","loc": {"type": "Point","coordinates": [103.82083,1.259166]}} 
{"id": "8965120916","server": "7429","farm": "8","userId": "95808975@N08","secret": "1bbcc140f6","title": "IMG_1159","loc": {"type": "Point","coordinates": [103.82017,1.2585]}} 
{"id": "8963943107","server": "2892","farm": "3","userId": "95808975@N08","secret": "c8f44cfebe","title": "IMG_1213","loc": {"type": "Point","coordinates": [103.82083,1.259166]}} 
{"id": "8965126246","server": "3698","farm": "4","userId": "95808975@N08","secret": "c13a564ba2","title": "IMG_1193","loc": {"type": "Point","coordinates": [103.82066,1.259]}} 
{"id": "8963923231","server": "7356","farm": "8","userId": "95808975@N08","secret": "33196c1fb8","title": "IMG_1139","loc": {"type": "Point","coordinates": [103.820335,1.2585]}} 
{"id": "8965126584","server": "3823","farm": "4","userId": "95808975@N08","secret": "04ebeb5814","title": "IMG_1186","loc": {"type": "Point","coordinates": [103.82066,1.258833]}} 
{"id": "8963943029","server": "7316","farm": "8","userId": "95808975@N08","secret": "4320e89bfe","title": "IMG_1214","loc": {"type": "Point","coordinates": [103.82083,1.259166]}} 
{"id": "8963923199","server": "8411","farm": "9","userId": "95808975@N08","secret": "03f94412ba","title": "IMG_1138","loc": {"type": "Point","coordinates": [103.82017,1.2585]}} 
{"id": "8965125658","server": "2869","farm": "3","userId": "95808975@N08","secret": "dc94ec8efc","title": "IMG_1204","loc": {"type": "Point","coordinates": [103.82083,1.259]}} 
{"id": "8963943269","server": "3756","farm": "4","userId": "95808975@N08","secret": "6ec341f2a8","title": "IMG_1209","loc": {"type": "Point","coordinates": [103.82083,1.259166]}} 
{"id": "8963943161","server": "8263","farm": "9","userId": "95808975@N08","secret": "9d03065dd7","title": "IMG_1211","loc": {"type": "Point","coordinates": [103.82083,1.259166]}} 
{"id": "8965116430","server": "3812","farm": "4","userId": "95808975@N08","secret": "d9d6a1438e","title": "IMG_1149","loc": {"type": "Point","coordinates": [103.820335,1.2585]}} 
{"id": "8965126538","server": "3787","farm": "4","userId": "95808975@N08","secret": "53d6f78ba7","title": "IMG_1189","loc": {"type": "Point","coordinates": [103.82066,1.259]}} 
{"id": "8963943129","server": "8547","farm": "9","userId": "95808975@N08","secret": "70abf19b8a","title": "IMG_1212","loc": {"type": "Point","coordinates": [103.82083,1.259166]}} 
{"id": "8965126098","server": "7352","farm": "8","userId": "95808975@N08","secret": "1f7f6afdfa","title": "IMG_1195","loc": {"type": "Point","coordinates": [103.82066,1.259]}} 
{"id": "8963942543","server": "7417","farm": "8","userId": "95808975@N08","secret": "c1f93b4ce2","title": "IMG_1222","loc": {"type": "Point","coordinates": [103.82083,1.259166]}} 
{"id": "8963926555","server": "5466","farm": "6","userId": "95808975@N08","secret": "6ee520b90d","title": "IMG_1161","loc": {"type": "Point","coordinates": [103.82017,1.2585]}} 
{"id": "8965136270","server": "3781","farm": "4","userId": "95808975@N08","secret": "625f255d1f","title": "IMG_1224","loc": {"type": "Point","coordinates": [103.82083,1.259166]}} 
{"id": "8965121194","server": "2820","farm": "3","userId": "95808975@N08","secret": "fa6447476b","title": "IMG_1153","loc": {"type": "Point","coordinates": [103.82017,1.2585]}} 
{"id": "8965126606","server": "5335","farm": "6","userId": "95808975@N08","secret": "cd2c9fd44f","title": "IMG_1185","loc": {"type": "Point","coordinates": [103.8205,1.258833]}} 
{"id": "8963942747","server": "7458","farm": "8","userId": "95808975@N08","secret": "1611489faf","title": "IMG_1219","loc": {"type": "Point","coordinates": [103.82083,1.259166]}} 
{"id": "8963933501","server": "5451","farm": "6","userId": "95808975@N08","secret": "ac93b56ee8","title": "IMG_1173","loc": {"type": "Point","coordinates": [103.820335,1.258666]}} 
{"id": "8963931631","server": "7417","farm": "8","userId": "95808975@N08","secret": "2cd187fc31","title": "IMG_1203","loc": {"type": "Point","coordinates": [103.82083,1.259]}} 
{"id": "8965117192","server": "3714","farm": "4","userId": "95808975@N08","secret": "4372f57d06","title": "IMG_1142","loc": {"type": "Point","coordinates": [103.82017,1.2585]}} 
{"id": "8963922845","server": "5348","farm": "6","userId": "95808975@N08","secret": "da45b1855a","title": "IMG_1144","loc": {"type": "Point","coordinates": [103.820335,1.2585]}} 
{"id": "8963926755","server": "8117","farm": "9","userId": "95808975@N08","secret": "5c83bcc8ea","title": "IMG_1158","loc": {"type": "Point","coordinates": [103.82017,1.2585]}} 
{"id": "8965137282","server": "5445","farm": "6","userId": "95808975@N08","secret": "5e201a64c7","title": "IMG_1216","loc": {"type": "Point","coordinates": [103.82083,1.259166]}} 
{"id": "8965116564","server": "5347","farm": "6","userId": "95808975@N08","secret": "b29c707747","title": "IMG_1148","loc": {"type": "Point","coordinates": [103.82017,1.2585]}} 
{"id": "8965120982","server": "2849","farm": "3","userId": "95808975@N08","secret": "1f5d65a585","title": "IMG_1157","loc": {"type": "Point","coordinates": [103.82017,1.2585]}} 
{"id": "8965125884","server": "3694","farm": "4","userId": "95808975@N08","secret": "fe41c1bc1e","title": "IMG_1198","loc": {"type": "Point","coordinates": [103.82066,1.259]}} 
{"id": "8963931411","server": "7390","farm": "8","userId": "95808975@N08","secret": "72f750089a","title": "IMG_1206","loc": {"type": "Point","coordinates": [103.82083,1.259]}} 
{"id": "8963933047","server": "3814","farm": "4","userId": "95808975@N08","secret": "d67b8c238d","title": "IMG_1178","loc": {"type": "Point","coordinates": [103.8205,1.258666]}} 
{"id": "8965126844","server": "5347","farm": "6","userId": "95808975@N08","secret": "f742db9f7d","title": "IMG_1182","loc": {"type": "Point","coordinates": [103.8205,1.258666]}} 
{"id": "8963932305","server": "5335","farm": "6","userId": "95808975@N08","secret": "3363612fab","title": "IMG_1191","loc": {"type": "Point","coordinates": [103.82066,1.259]}} 
{"id": "8963922581","server": "7396","farm": "8","userId": "95808975@N08","secret": "8d4a599f86","title": "IMG_1146","loc": {"type": "Point","coordinates": [103.820335,1.2585]}} 
{"id": "8965127592","server": "8131","farm": "9","userId": "95808975@N08","secret": "b7a7c74ed3","title": "IMG_1170","loc": {"type": "Point","coordinates": [103.820335,1.258666]}} 
{"id": "8965136946","server": "2884","farm": "3","userId": "95808975@N08","secret": "d4a7456fe2","title": "IMG_1221","loc": {"type": "Point","coordinates": [103.82083,1.259166]}} 
{"id": "8965120986","server": "3684","farm": "4","userId": "95808975@N08","secret": "0fdaf21489","title": "IMG_1156","loc": {"type": "Point","coordinates": [103.82017,1.2585]}} 
{"id": "8963931897","server": "5344","farm": "6","userId": "95808975@N08","secret": "f0dcb2ec06","title": "IMG_1200","loc": {"type": "Point","coordinates": [103.82066,1.259]}} 
{"id": "8963927185","server": "5466","farm": "6","userId": "95808975@N08","secret": "51cc7e9b8f","title": "IMG_1154","loc": {"type": "Point","coordinates": [103.82017,1.2585]}} 
{"id": "8963933083","server": "3710","farm": "4","userId": "95808975@N08","secret": "698f13864d","title": "IMG_1177","loc": {"type": "Point","coordinates": [103.820335,1.258666]}} 
{"id": "8965116758","server": "7442","farm": "8","userId": "95808975@N08","secret": "ea72cb090d","title": "IMG_1147","loc": {"type": "Point","coordinates": [103.820335,1.2585]}} 
{"id": "8965126112","server": "3693","farm": "4","userId": "95808975@N08","secret": "a9f6610890","title": "IMG_1194","loc": {"type": "Point","coordinates": [103.82066,1.259]}} 
{"id": "8965117304","server": "5332","farm": "6","userId": "95808975@N08","secret": "3f979c6621","title": "IMG_1140","loc": {"type": "Point","coordinates": [103.820335,1.2585]}} 
{"id": "8965121232","server": "5445","farm": "6","userId": "95808975@N08","secret": "523d6996f4","title": "IMG_1152","loc": {"type": "Point","coordinates": [103.82017,1.2585]}} 
{"id": "8963922899","server": "8400","farm": "9","userId": "95808975@N08","secret": "2fd2ab8eb2","title": "IMG_1143","loc": {"type": "Point","coordinates": [103.820335,1.2585]}} 
{"id": "8965127462","server": "7306","farm": "8","userId": "95808975@N08","secret": "4543d51953","title": "IMG_1172","loc": {"type": "Point","coordinates": [103.820335,1.258666]}} 
{"id": "8965126338","server": "2893","farm": "3","userId": "95808975@N08","secret": "b59898686a","title": "IMG_1190","loc": {"type": "Point","coordinates": [103.82066,1.259]}} 
{"id": "8963931471","server": "8130","farm": "9","userId": "95808975@N08","secret": "b75ecba1fb","title": "IMG_1205","loc": {"type": "Point","coordinates": [103.82083,1.259]}} 
{"id": "8965117320","server": "7388","farm": "8","userId": "95808975@N08","secret": "4cb81d561b","title": "IMG_1141","loc": {"type": "Point","coordinates": [103.820335,1.2585]}} 
{"id": "8963931867","server": "2810","farm": "3","userId": "95808975@N08","secret": "97e7525d00","title": "IMG_1199","loc": {"type": "Point","coordinates": [103.82066,1.259]}} 
{"id": "8963932775","server": "2814","farm": "3","userId": "95808975@N08","secret": "f6178c2719","title": "IMG_1183","loc": {"type": "Point","coordinates": [103.8205,1.258666]}} 
{"id": "8963931923","server": "3749","farm": "4","userId": "95808975@N08","secret": "14447f27bb","title": "IMG_1197","loc": {"type": "Point","coordinates": [103.82066,1.259]}} 
{"id": "8963942683","server": "5346","farm": "6","userId": "95808975@N08","secret": "1abfd62867","title": "IMG_1220","loc": {"type": "Point","coordinates": [103.82083,1.259166]}} 
{"id": "8963931719","server": "3753","farm": "4","userId": "95808975@N08","secret": "d909c2426a","title": "IMG_1201","loc": {"type": "Point","coordinates": [103.82066,1.259]}} 
{"id": "8965125702","server": "3687","farm": "4","userId": "95808975@N08","secret": "a7ac0bd1d6","title": "IMG_1202","loc": {"type": "Point","coordinates": [103.82066,1.259]}} 
{"id": "8965127230","server": "2828","farm": "3","userId": "95808975@N08","secret": "3751d93d96","title": "IMG_1176","loc": {"type": "Point","coordinates": [103.820335,1.258666]}} 
{"id": "8965127136","server": "3801","farm": "4","userId": "95808975@N08","secret": "c23d9239d1","title": "IMG_1179","loc": {"type": "Point","coordinates": [103.8205,1.258666]}} 
{"id": "8963932501","server": "3828","farm": "4","userId": "95808975@N08","secret": "394a38f748","title": "IMG_1187","loc": {"type": "Point","coordinates": [103.82066,1.258833]}} 
{"id": "8965126068","server": "7362","farm": "8","userId": "95808975@N08","secret": "03da31dce9","title": "IMG_1196","loc": {"type": "Point","coordinates": [103.82066,1.259]}} 
{"id": "8965137624","server": "3754","farm": "4","userId": "95808975@N08","secret": "38ee615445","title": "IMG_1210","loc": {"type": "Point","coordinates": [103.82083,1.259166]}} 
{"id": "8963942977","server": "5349","farm": "6","userId": "95808975@N08","secret": "de9728fc4e","title": "IMG_1215","loc": {"type": "Point","coordinates": [103.82083,1.259166]}} 
{"id": "8965127520","server": "5469","farm": "6","userId": "95808975@N08","secret": "e8574f50ac","title": "IMG_1171","loc": {"type": "Point","coordinates": [103.820335,1.258666]}} 
{"id": "8963932499","server": "5454","farm": "6","userId": "95808975@N08","secret": "831530a917","title": "IMG_1188","loc": {"type": "Point","coordinates": [103.82066,1.259]}} 
{"id": "8965127358","server": "3799","farm": "4","userId": "95808975@N08","secret": "dfd2ea4ec2","title": "IMG_1175","loc": {"type": "Point","coordinates": [103.820335,1.258666]}} 
{"id": "8902661214","server": "7339","farm": "8","userId": "82695390@N00","secret": "f47c91f6e5","title": "Water Ballerina #jellyfish #aquarium","loc": {"type": "Point","coordinates": [103.8206,1.258211]}} 
{"id": "8865791440","server": "2841","farm": "3","userId": "32486306@N03","secret": "d719bdb2cc","title": "IMG_0430","loc": {"type": "Point","coordinates": [103.820335,1.2585]}} 
{"id": "8865182315","server": "2813","farm": "3","userId": "32486306@N03","secret": "4c28ef6362","title": "IMG_0429","loc": {"type": "Point","coordinates": [103.820335,1.2585]}} 
{"id": "8865180485","server": "8408","farm": "9","userId": "32486306@N03","secret": "0e6ae7479b","title": "IMG_0428","loc": {"type": "Point","coordinates": [103.820335,1.2585]}} 
{"id": "8831628060","server": "3743","farm": "4","userId": "79102856@N00","secret": "23cebd523a","title": "Wedding/Honeymoon","loc": {"type": "Point","coordinates": [103.820335,1.258333]}} 
{"id": "8831629198","server": "8263","farm": "9","userId": "79102856@N00","secret": "1504219486","title": "Wedding/Honeymoon","loc": {"type": "Point","coordinates": [103.82,1.258333]}} 
{"id": "8687882667","server": "7043","farm": "8","userId": "95256958@N04","secret": "8d62ceb197","title": "Sentosa","loc": {"type": "Point","coordinates": [103.82046,1.25852]}} 
{"id": "8668098276","server": "8534","farm": "9","userId": "99942665@N00","secret": "99ba0e43ba","title": "_DSC8328","loc": {"type": "Point","coordinates": [103.81857,1.258398]}} 
{"id": "8666995063","server": "8538","farm": "9","userId": "99942665@N00","secret": "d2383bf9f5","title": "_DSC8320","loc": {"type": "Point","coordinates": [103.81857,1.258398]}} 
{"id": "8666996977","server": "8528","farm": "9","userId": "99942665@N00","secret": "f9081651fc","title": "_DSC8336","loc": {"type": "Point","coordinates": [103.81857,1.258398]}} 
{"id": "8668097922","server": "8533","farm": "9","userId": "99942665@N00","secret": "ca04289c42","title": "_DSC8327","loc": {"type": "Point","coordinates": [103.81857,1.258398]}} 
{"id": "8668098808","server": "8542","farm": "9","userId": "99942665@N00","secret": "667cbaebdc","title": "_DSC8334","loc": {"type": "Point","coordinates": [103.81857,1.258398]}} 
{"id": "8668099616","server": "8536","farm": "9","userId": "99942665@N00","secret": "6c55f2a21f","title": "_DSC8342","loc": {"type": "Point","coordinates": [103.81857,1.258398]}} 
{"id": "8666998325","server": "8538","farm": "9","userId": "99942665@N00","secret": "132939f4ec","title": "_DSC8346","loc": {"type": "Point","coordinates": [103.81857,1.258398]}} 
{"id": "8665029234","server": "8251","farm": "9","userId": "7955447@N02","secret": "27811ef018","title": "#weather #instaweather #instaweatherpro  #sky #outdoors #nature  #instagood #photooftheday #instamood #picoftheday #instadaily #photo #instacool #instapic #picture #pic @instaweatherpro #place #earth #world #singapore #singapore #day #skypainters #sg","loc": {"type": "Point","coordinates": [103.81969,1.258416]}} 
{"id": "8626145591","server": "8264","farm": "9","userId": "32342207@N04","secret": "03fcef5f44","title": "DSC_4176","loc": {"type": "Point","coordinates": [103.81824,1.259394]}} 
{"id": "8599712054","server": "8105","farm": "9","userId": "13137527@N07","secret": "e51fabe511","title": "It's Marilyn","loc": {"type": "Point","coordinates": [103.820595,1.258391]}} 
{"id": "8598613867","server": "8251","farm": "9","userId": "13137527@N07","secret": "0f757820a3","title": "Universal Studios","loc": {"type": "Point","coordinates": [103.820595,1.258391]}} 
{"id": "8598616239","server": "8386","farm": "9","userId": "13137527@N07","secret": "0dca3bf0d9","title": "Charlie","loc": {"type": "Point","coordinates": [103.820595,1.258391]}} 
{"id": "8592703080","server": "8085","farm": "9","userId": "34811143@N00","secret": "49afa44f99","title": "S.E.A. Aquarium - Resorts World Sentosa","loc": {"type": "Point","coordinates": [103.819725,1.258055]}} 
{"id": "8591601039","server": "8524","farm": "9","userId": "34811143@N00","secret": "64fa850f0a","title": "S.E.A. Aquarium - Resorts World Sentosa","loc": {"type": "Point","coordinates": [103.82083,1.258055]}} 
{"id": "8591601609","server": "8525","farm": "9","userId": "34811143@N00","secret": "e47028d842","title": "S.E.A. Aquarium - Resorts World Sentosa","loc": {"type": "Point","coordinates": [103.82083,1.258055]}} 
{"id": "8591600427","server": "8368","farm": "9","userId": "34811143@N00","secret": "51166f9b73","title": "S.E.A. Aquarium - Resorts World Sentosa","loc": {"type": "Point","coordinates": [103.82083,1.258055]}} 
{"id": "8592705302","server": "8230","farm": "9","userId": "34811143@N00","secret": "8689921465","title": "S.E.A. Aquarium - Resorts World Sentosa","loc": {"type": "Point","coordinates": [103.819725,1.258055]}} 
{"id": "8592701704","server": "8085","farm": "9","userId": "34811143@N00","secret": "7f24abdef4","title": "S.E.A. Aquarium - Resorts World Sentosa","loc": {"type": "Point","coordinates": [103.82083,1.258055]}} 
{"id": "8592708650","server": "8505","farm": "9","userId": "34811143@N00","secret": "dd8b62dd5f","title": "S.E.A. Aquarium - Resorts World Sentosa","loc": {"type": "Point","coordinates": [103.819725,1.258055]}} 
{"id": "8591607307","server": "8235","farm": "9","userId": "34811143@N00","secret": "13aef05945","title": "S.E.A. Aquarium - Resorts World Sentosa","loc": {"type": "Point","coordinates": [103.819725,1.258055]}} 
{"id": "8591603779","server": "8089","farm": "9","userId": "34811143@N00","secret": "f0b77958b8","title": "S.E.A. Aquarium - Resorts World Sentosa","loc": {"type": "Point","coordinates": [103.819725,1.258055]}} 
{"id": "8591607667","server": "8087","farm": "9","userId": "34811143@N00","secret": "a048716b02","title": "S.E.A. Aquarium - Resorts World Sentosa","loc": {"type": "Point","coordinates": [103.819725,1.258055]}} 
{"id": "8591607029","server": "8237","farm": "9","userId": "34811143@N00","secret": "f7874cec91","title": "S.E.A. Aquarium - Resorts World Sentosa","loc": {"type": "Point","coordinates": [103.819725,1.258055]}} 
{"id": "8592700108","server": "8387","farm": "9","userId": "34811143@N00","secret": "a1e983d14c","title": "S.E.A. Aquarium - Resorts World Sentosa","loc": {"type": "Point","coordinates": [103.82056,1.258055]}} 
{"id": "8592701104","server": "8240","farm": "9","userId": "34811143@N00","secret": "177b3ac285","title": "S.E.A. Aquarium - Resorts World Sentosa","loc": {"type": "Point","coordinates": [103.82083,1.258055]}} 
{"id": "8592704790","server": "8227","farm": "9","userId": "34811143@N00","secret": "fb06b84d42","title": "S.E.A. Aquarium - Resorts World Sentosa","loc": {"type": "Point","coordinates": [103.819725,1.258055]}} 
{"id": "8592706698","server": "8095","farm": "9","userId": "34811143@N00","secret": "f5ceeb800e","title": "S.E.A. Aquarium - Resorts World Sentosa","loc": {"type": "Point","coordinates": [103.819725,1.258055]}} 
{"id": "8591603303","server": "8376","farm": "9","userId": "34811143@N00","secret": "85d1ae522a","title": "S.E.A. Aquarium - Resorts World Sentosa","loc": {"type": "Point","coordinates": [103.819725,1.258055]}} 
{"id": "8591602225","server": "8522","farm": "9","userId": "34811143@N00","secret": "920f38a88d","title": "S.E.A. Aquarium - Resorts World Sentosa","loc": {"type": "Point","coordinates": [103.819725,1.258055]}} 
{"id": "8591602823","server": "8087","farm": "9","userId": "34811143@N00","secret": "c7109163b9","title": "S.E.A. Aquarium - Resorts World Sentosa","loc": {"type": "Point","coordinates": [103.819725,1.258055]}} 
{"id": "8591606645","server": "8517","farm": "9","userId": "34811143@N00","secret": "db10a97eb1","title": "S.E.A. Aquarium - Resorts World Sentosa","loc": {"type": "Point","coordinates": [103.819725,1.258055]}} 
{"id": "8585974908","server": "8246","farm": "9","userId": "13137527@N07","secret": "8a0922e9a4","title": "Deluge","loc": {"type": "Point","coordinates": [103.820595,1.258391]}} 
{"id": "8584924467","server": "8237","farm": "9","userId": "13137527@N07","secret": "02b7e07148","title": "IMG_0199","loc": {"type": "Point","coordinates": [103.820595,1.258391]}} 
{"id": "8584921363","server": "8245","farm": "9","userId": "13137527@N07","secret": "b6ff025fe5","title": "IMG_0100","loc": {"type": "Point","coordinates": [103.820595,1.258391]}} 
{"id": "8584932259","server": "8392","farm": "9","userId": "13137527@N07","secret": "4c23572647","title": "What's my car doing here?","loc": {"type": "Point","coordinates": [103.820595,1.258391]}} 
{"id": "8585983170","server": "8392","farm": "9","userId": "13137527@N07","secret": "b480e13ff7","title": "IMG_0114","loc": {"type": "Point","coordinates": [103.820595,1.258391]}} 
{"id": "8585877674","server": "8227","farm": "9","userId": "13137527@N07","secret": "82230beb68","title": "IMG_0155","loc": {"type": "Point","coordinates": [103.820595,1.258391]}} 
{"id": "8585971950","server": "8368","farm": "9","userId": "13137527@N07","secret": "fdff232439","title": "The Bucket has Tipped","loc": {"type": "Point","coordinates": [103.820595,1.258391]}} 
{"id": "8585904326","server": "8370","farm": "9","userId": "13137527@N07","secret": "dd2cea0edb","title": "IMG_0143","loc": {"type": "Point","coordinates": [103.820595,1.258391]}} 
{"id": "8585977398","server": "8231","farm": "9","userId": "13137527@N07","secret": "fd92e1d8de","title": "IMG_0116","loc": {"type": "Point","coordinates": [103.820595,1.258391]}} 
{"id": "8585830880","server": "8519","farm": "9","userId": "13137527@N07","secret": "0d11d33f26","title": "IMG_0172","loc": {"type": "Point","coordinates": [103.820595,1.258391]}} 
{"id": "8584720405","server": "8518","farm": "9","userId": "13137527@N07","secret": "098ff8fe74","title": "IMG_0175","loc": {"type": "Point","coordinates": [103.820595,1.258391]}} 
{"id": "8584853597","server": "8244","farm": "9","userId": "13137527@N07","secret": "33a3cb6d5a","title": "IMG_0124","loc": {"type": "Point","coordinates": [103.820595,1.258391]}} 
{"id": "8585871612","server": "8110","farm": "9","userId": "13137527@N07","secret": "b7d72294e4","title": "IMG_0157","loc": {"type": "Point","coordinates": [103.820595,1.258391]}} 
{"id": "8584781261","server": "8094","farm": "9","userId": "13137527@N07","secret": "79e10ebf98","title": "IMG_0153","loc": {"type": "Point","coordinates": [103.820595,1.258391]}} 
{"id": "8584705547","server": "8387","farm": "9","userId": "13137527@N07","secret": "bd4b1e54ac","title": "IMG_0181","loc": {"type": "Point","coordinates": [103.820595,1.258391]}} 
{"id": "8585961026","server": "8086","farm": "9","userId": "13137527@N07","secret": "3b337b3fcb","title": "IMG_0122","loc": {"type": "Point","coordinates": [103.820595,1.258391]}} 
{"id": "8585850732","server": "8515","farm": "9","userId": "13137527@N07","secret": "37f862c1a3","title": "IMG_0165","loc": {"type": "Point","coordinates": [103.820595,1.258391]}} 
{"id": "8585990160","server": "8230","farm": "9","userId": "13137527@N07","secret": "2f3397f515","title": "IMG_0112","loc": {"type": "Point","coordinates": [103.820595,1.258391]}} 
{"id": "8585970022","server": "8249","farm": "9","userId": "13137527@N07","secret": "5e12b15e8d","title": "Big Bucket Splash","loc": {"type": "Point","coordinates": [103.820595,1.258391]}} 
{"id": "8584847133","server": "8111","farm": "9","userId": "13137527@N07","secret": "2382b7319a","title": "IMG_0126","loc": {"type": "Point","coordinates": [103.820595,1.258391]}} 
{"id": "8586016710","server": "8246","farm": "9","userId": "13137527@N07","secret": "f5317e5f2c","title": "IMG_0103","loc": {"type": "Point","coordinates": [103.820595,1.258391]}} 
{"id": "8584808117","server": "8226","farm": "9","userId": "13137527@N07","secret": "2e7fe521c1","title": "IMG_0141","loc": {"type": "Point","coordinates": [103.820595,1.258391]}} 
{"id": "8584703609","server": "8104","farm": "9","userId": "13137527@N07","secret": "8ae1656db5","title": "IMG_0182","loc": {"type": "Point","coordinates": [103.820595,1.258391]}} 
{"id": "8584830513","server": "8531","farm": "9","userId": "13137527@N07","secret": "8a7ede26b1","title": "IMG_0132","loc": {"type": "Point","coordinates": [103.820595,1.258391]}} 
{"id": "8585817240","server": "8092","farm": "9","userId": "13137527@N07","secret": "826e2ba501","title": "IMG_0177","loc": {"type": "Point","coordinates": [103.820595,1.258391]}} 
{"id": "8585907024","server": "8098","farm": "9","userId": "13137527@N07","secret": "d7fdd9f214","title": "IMG_0142","loc": {"type": "Point","coordinates": [103.820595,1.258391]}} 
{"id": "8584841445","server": "8238","farm": "9","userId": "13137527@N07","secret": "dd605a3ac4","title": "IMG_0128","loc": {"type": "Point","coordinates": [103.820595,1.258391]}} 
{"id": "8584788425","server": "8090","farm": "9","userId": "13137527@N07","secret": "5e27e9ebc9","title": "IMG_0150","loc": {"type": "Point","coordinates": [103.820595,1.258391]}} 
{"id": "8584797001","server": "8227","farm": "9","userId": "13137527@N07","secret": "c3f730fcae","title": "IMG_0146","loc": {"type": "Point","coordinates": [103.820595,1.258391]}} 
{"id": "8584709753","server": "8245","farm": "9","userId": "13137527@N07","secret": "cb11025891","title": "IMG_0180","loc": {"type": "Point","coordinates": [103.820595,1.258391]}} 
{"id": "8585986610","server": "8249","farm": "9","userId": "13137527@N07","secret": "c53d4d0ae8","title": "IMG_0113","loc": {"type": "Point","coordinates": [103.820595,1.258391]}} 
{"id": "8586040652","server": "8099","farm": "9","userId": "13137527@N07","secret": "9a37f9370e","title": "IMG_0194","loc": {"type": "Point","coordinates": [103.820595,1.258391]}} 
{"id": "8584857223","server": "8507","farm": "9","userId": "13137527@N07","secret": "9550282750","title": "IMG_0123","loc": {"type": "Point","coordinates": [103.820595,1.258391]}} 
{"id": "8584838293","server": "8388","farm": "9","userId": "13137527@N07","secret": "b5ae214afb","title": "IMG_0129","loc": {"type": "Point","coordinates": [103.820595,1.258391]}} 
{"id": "8584773883","server": "8529","farm": "9","userId": "13137527@N07","secret": "099cac9703","title": "IMG_0158","loc": {"type": "Point","coordinates": [103.820595,1.258391]}} 
