{"id": "8650558253","server": "8106","farm": "9","userId": "53207432@N00","secret": "18d830f3af","title": "L1033579","loc": {"type": "Point","coordinates": [103.813095,1.25565]}} 
{"id": "8538205293","server": "8247","farm": "9","userId": "7195567@N07","secret": "dd549c45d0","title": "Sentosa  2011","loc": {"type": "Point","coordinates": [103.812675,1.25538]}} 
{"id": "8537318498","server": "8247","farm": "9","userId": "16105436@N00","secret": "f29c3d1612","title": "2013-03-03_18.14.19","loc": {"type": "Point","coordinates": [103.813,1.255]}} 
{"id": "8283379755","server": "8483","farm": "9","userId": "75976259@N00","secret": "5c334831d4","title": "Let's build a Monorail!","loc": {"type": "Point","coordinates": [103.8129,1.256138]}} 
{"id": "8202244486","server": "8067","farm": "9","userId": "65778609@N03","secret": "082da2bf78","title": "Sentosa Chairlift","loc": {"type": "Point","coordinates": [103.814445,1.256482]}} 
{"id": "8742586742","server": "7284","farm": "8","userId": "28704898@N00","secret": "5ba99d75c7","title": "Save the monkeys!","loc": {"type": "Point","coordinates": [103.813034,1.255581]}} 
{"id": "8601707163","server": "8382","farm": "9","userId": "24773033@N02","secret": "a9bb4bd135","title": "Finally, Diana and Ana ate here!  #lifegroup #everynation #friends #encs","loc": {"type": "Point","coordinates": [103.814,1.255231]}} 
{"id": "8602723730","server": "8111","farm": "9","userId": "24773033@N02","secret": "732902b86b","title": "we will miss you, ching!","loc": {"type": "Point","coordinates": [103.814,1.255231]}} 
{"id": "8599475235","server": "8506","farm": "9","userId": "24773033@N02","secret": "740c05dfed","title": "Inside our room with the singles LG... #encs #lifegroup #friendship #ladies #gentlemen #farewell #love #God #Jesus","loc": {"type": "Point","coordinates": [103.814,1.255231]}} 
{"id": "8539313356","server": "8110","farm": "9","userId": "7195567@N07","secret": "e3fdd2cbd4","title": "Sentosa Singapore 2011","loc": {"type": "Point","coordinates": [103.812675,1.25538]}} 
{"id": "8536215189","server": "8369","farm": "9","userId": "16105436@N00","secret": "2a8829697f","title": "2013-03-03_18.11.27","loc": {"type": "Point","coordinates": [103.812836,1.255]}} 
{"id": "8536213177","server": "8238","farm": "9","userId": "16105436@N00","secret": "3fdc0752e1","title": "2013-03-03_18.11.20","loc": {"type": "Point","coordinates": [103.812836,1.255]}} 
{"id": "8499476225","server": "8232","farm": "9","userId": "36055891@N08","secret": "80a18898b7","title": "Confirmation Celebration! Hahahah #costasands #singapore #siloso #sentosa #beach #asia #iphoneology #martini #redhorse #pool #summer","loc": {"type": "Point","coordinates": [103.814,1.255231]}} 
{"id": "8481123917","server": "8105","farm": "9","userId": "55456309@N04","secret": "f79d4a2cc9","title": "Sentosa Singapore","loc": {"type": "Point","coordinates": [103.813416,1.255338]}} 
{"id": "8371824033","server": "8370","farm": "9","userId": "53925795@N03","secret": "51391e39f7","title": "","loc": {"type": "Point","coordinates": [103.812904,1.255044]}} 
{"id": "8201149877","server": "8345","farm": "9","userId": "65778609@N03","secret": "e282040e2b","title": "Sentosa Toboggan Run","loc": {"type": "Point","coordinates": [103.814445,1.256482]}} 
{"id": "8144534689","server": "8469","farm": "9","userId": "8284816@N05","secret": "d47a989f33","title": "","loc": {"type": "Point","coordinates": [103.81333,1.255]}} 
{"id": "8124695607","server": "8469","farm": "9","userId": "62634770@N04","secret": "27e8750d13","title": "FO4A2806","loc": {"type": "Point","coordinates": [103.81331,1.255409]}} 
