{"id": "9336290412","server": "3724","farm": "4","userId": "7906604@N02","secret": "a7207bf11a","title": "Full moon in the evening","loc": {"type": "Point","coordinates": [103.82572,1.260917]}} 
{"id": "9274100897","server": "7377","farm": "8","userId": "60026216@N00","secret": "504f960d62","title": "#Baby Indi with tante Mia.","loc": {"type": "Point","coordinates": [103.82333,1.260064]}} 
{"id": "8433425249","server": "8475","farm": "9","userId": "25802865@N08","secret": "95ee61645a","title": "Sentosa Broadwalk","loc": {"type": "Point","coordinates": [103.82365,1.262438]}} 
{"id": "8433426631","server": "8044","farm": "9","userId": "25802865@N08","secret": "6b1e5a0288","title": "Art Installation","loc": {"type": "Point","coordinates": [103.82382,1.262495]}} 
{"id": "8281294332","server": "8340","farm": "9","userId": "79717131@N05","secret": "28c8211c06","title": "Singapore 2012 - Sentosa","loc": {"type": "Point","coordinates": [103.823654,1.260441]}} 
{"id": "8281302270","server": "8342","farm": "9","userId": "79717131@N05","secret": "227176843d","title": "Singapore 2012","loc": {"type": "Point","coordinates": [103.823654,1.260441]}} 
{"id": "8281301954","server": "8501","farm": "9","userId": "79717131@N05","secret": "381785c84b","title": "Singapore 2012","loc": {"type": "Point","coordinates": [103.823654,1.260441]}} 
{"id": "8216143904","server": "8482","farm": "9","userId": "62872187@N05","secret": "1c5e71805f","title": "_DSC8435","loc": {"type": "Point","coordinates": [103.82383,1.262574]}} 
{"id": "9409225430","server": "5449","farm": "6","userId": "83208206@N06","secret": "12b1b3c27b","title": "Let's take each other","loc": {"type": "Point","coordinates": [103.82287,1.26113]}} 
{"id": "9357816734","server": "3814","farm": "4","userId": "45099369@N08","secret": "31b1e6e21a","title": "Singapore has her own fair share of beautiful coastline....","loc": {"type": "Point","coordinates": [103.82333,1.260064]}} 
{"id": "9302996744","server": "5477","farm": "6","userId": "51907839@N00","secret": "50b1b25930","title": "2012-02-07_20-52-12_431","loc": {"type": "Point","coordinates": [103.82333,1.262222]}} 
{"id": "9302994032","server": "3810","farm": "4","userId": "51907839@N00","secret": "26ae676d7c","title": "2012-02-07_20-42-45_958","loc": {"type": "Point","coordinates": [103.82361,1.2625]}} 
{"id": "9302994832","server": "7432","farm": "8","userId": "51907839@N00","secret": "dca845e070","title": "2012-02-07_20-47-45_711","loc": {"type": "Point","coordinates": [103.82333,1.2625]}} 
{"id": "9302995736","server": "3772","farm": "4","userId": "51907839@N00","secret": "9acf4118cf","title": "2012-02-07_20-47-57_520","loc": {"type": "Point","coordinates": [103.82333,1.2625]}} 
{"id": "9300212893","server": "2809","farm": "3","userId": "51907839@N00","secret": "8cec455615","title": "2012-02-07_20-55-45_882","loc": {"type": "Point","coordinates": [103.82306,1.2625]}} 
{"id": "9300207899","server": "7419","farm": "8","userId": "51907839@N00","secret": "8d1c86b3ef","title": "2012-02-07_20-42-03_137","loc": {"type": "Point","coordinates": [103.82333,1.2625]}} 
{"id": "9302991462","server": "7335","farm": "8","userId": "51907839@N00","secret": "2acf66ecb9","title": "2012-02-07_20-41-42_989","loc": {"type": "Point","coordinates": [103.82333,1.262222]}} 
{"id": "9274205591","server": "7398","farm": "8","userId": "60026216@N00","secret": "bca5a0bb86","title": "With #baby Indi. Photo courtesy of @mahaendra Gofar. :)","loc": {"type": "Point","coordinates": [103.82333,1.260064]}} 
{"id": "9274092687","server": "7431","farm": "8","userId": "60026216@N00","secret": "4ac545d10f","title": "TGIF Bazaars.","loc": {"type": "Point","coordinates": [103.82333,1.260064]}} 
{"id": "9255595786","server": "2851","farm": "3","userId": "67851013@N02","secret": "74e85745a0","title": "#Sun #wave and #me 10/07/13.","loc": {"type": "Point","coordinates": [103.82333,1.260064]}} 
