{"id": "9413892934","server": "3665","farm": "4","userId": "93109357@N05","secret": "f83c21e900","title": "#jurassicpark #universalsg #乐","loc": {"type": "Point","coordinates": [103.82391,1.253776]}} 
{"id": "9264471440","server": "7332","farm": "8","userId": "97705734@N02","secret": "8e3e0af312","title": "IMAG1140","loc": {"type": "Point","coordinates": [103.82381,1.254663]}} 
{"id": "9164337168","server": "3768","farm": "4","userId": "24131681@N00","secret": "7b5bbacb1d","title": "DSC00759","loc": {"type": "Point","coordinates": [103.823845,1.254005]}} 
{"id": "9164327344","server": "7370","farm": "8","userId": "24131681@N00","secret": "dc2264956f","title": "DSC00755","loc": {"type": "Point","coordinates": [103.82373,1.254844]}} 
{"id": "9153076128","server": "2847","farm": "3","userId": "30456413@N00","secret": "385b3e996a","title": "Singapore","loc": {"type": "Point","coordinates": [103.824,1.254666]}} 
{"id": "9150845489","server": "7351","farm": "8","userId": "30456413@N00","secret": "5e290b0cdf","title": "Singapore","loc": {"type": "Point","coordinates": [103.824,1.254666]}} 
{"id": "9153067600","server": "2813","farm": "3","userId": "30456413@N00","secret": "60930eddc0","title": "Singapore","loc": {"type": "Point","coordinates": [103.824,1.254666]}} 
{"id": "9150854247","server": "7407","farm": "8","userId": "30456413@N00","secret": "a20b36688a","title": "Singapore","loc": {"type": "Point","coordinates": [103.824,1.254666]}} 
{"id": "9150857031","server": "3827","farm": "4","userId": "30456413@N00","secret": "f906e3dda3","title": "Singapore","loc": {"type": "Point","coordinates": [103.824,1.254666]}} 
{"id": "9153073342","server": "7412","farm": "8","userId": "30456413@N00","secret": "d9beddf6d5","title": "Singapore","loc": {"type": "Point","coordinates": [103.824,1.254666]}} 
{"id": "9152996662","server": "2890","farm": "3","userId": "30456413@N00","secret": "e05ac7b44c","title": "Singapore","loc": {"type": "Point","coordinates": [103.82367,1.254833]}} 
{"id": "9045972183","server": "5535","farm": "6","userId": "30684698@N02","secret": "17c4ab13ca","title": "with Shrek","loc": {"type": "Point","coordinates": [103.82378,1.254768]}} 
{"id": "9048192250","server": "5473","farm": "6","userId": "30684698@N02","secret": "32f4b28c7e","title": "with Shrek","loc": {"type": "Point","coordinates": [103.82378,1.254768]}} 
{"id": "8996512581","server": "8403","farm": "9","userId": "54530665@N08","secret": "feed0cfe7d","title": "Time to see reality #weekend over  #sg #singapore #travel #jurassicpark #jurassic #picoftheday #followtofollow #bestoftheday #lovely #me #ios #iphone #instapic #universal #studios #universalstudios","loc": {"type": "Point","coordinates": [103.82391,1.253776]}} 
{"id": "8972015379","server": "5444","farm": "6","userId": "94460638@N08","secret": "3715212f80","title": "Fun of us","loc": {"type": "Point","coordinates": [103.82383,1.2545]}} 
{"id": "8966414311","server": "3733","farm": "4","userId": "94346589@N03","secret": "1b17c67216","title": "#instaplace #instaplaceapp #instagood #photooftheday #instamood #picoftheday #instadaily #photo #instacool #instapic #picture #pic @instaplacemobi #place #earth #world  #singapore #SG #sentosa #friars™ #food #foodporn #restaurant #street #love #loveit #da","loc": {"type": "Point","coordinates": [103.82378,1.254768]}} 
{"id": "8966357637","server": "7426","farm": "8","userId": "94346589@N03","secret": "067663c9fc","title": "#instaplace #instaplaceapp #instagood #photooftheday #instamood #picoftheday #instadaily #photo  #instacool #instapic #picture #pic @instaplacemobi #place #earth #world  #singapore #SG #sentosa #goldilocks@universalstudios #food #foodporn #restaurant #str","loc": {"type": "Point","coordinates": [103.82387,1.254699]}} 
{"id": "8967563090","server": "3689","farm": "4","userId": "94346589@N03","secret": "776a81ae8d","title": "(Made with #NoCrop) #dessert #ben&jerry #chocolatefudgebrownie","loc": {"type": "Point","coordinates": [103.824104,1.254622]}} 
{"id": "8965742101","server": "2874","farm": "3","userId": "94346589@N03","secret": "602e6b7136","title": "While #waiting","loc": {"type": "Point","coordinates": [103.823685,1.254894]}} 
{"id": "8898836315","server": "5445","farm": "6","userId": "94317876@N03","secret": "1ef1b4cb37","title": "IMAG0580","loc": {"type": "Point","coordinates": [103.82481,1.253744]}} 
{"id": "8898713121","server": "3703","farm": "4","userId": "94317876@N03","secret": "bffaefdccf","title": "IMAG0560","loc": {"type": "Point","coordinates": [103.823906,1.254555]}} 
{"id": "8899330580","server": "7409","farm": "8","userId": "94317876@N03","secret": "b7a50b723f","title": "IMAG0561","loc": {"type": "Point","coordinates": [103.82379,1.2549]}} 
{"id": "8831655118","server": "5465","farm": "6","userId": "79102856@N00","secret": "d193bd1bbd","title": "Wedding/Honeymoon","loc": {"type": "Point","coordinates": [103.82383,1.254833]}} 
{"id": "8817590051","server": "2876","farm": "3","userId": "79102856@N00","secret": "c3e399f3fc","title": "Wedding/Honeymoon","loc": {"type": "Point","coordinates": [103.82383,1.254666]}} 
{"id": "8825387332","server": "3704","farm": "4","userId": "45145143@N08","secret": "bba97bff4c","title": "1","loc": {"type": "Point","coordinates": [103.82371,1.25475]}} 
{"id": "8825262618","server": "7342","farm": "8","userId": "45145143@N08","secret": "b99e7d101b","title": "1","loc": {"type": "Point","coordinates": [103.824135,1.254183]}} 
{"id": "8814669931","server": "7297","farm": "8","userId": "45145143@N08","secret": "3c5958a384","title": "2","loc": {"type": "Point","coordinates": [103.82582,1.253402]}} 
{"id": "8731974182","server": "7330","farm": "8","userId": "99942665@N00","secret": "1cc19ba4b1","title": "P1180275","loc": {"type": "Point","coordinates": [103.82571,1.253522]}} 
{"id": "8730851515","server": "7294","farm": "8","userId": "99942665@N00","secret": "3ce91232c0","title": "P1180257","loc": {"type": "Point","coordinates": [103.82571,1.253522]}} 
{"id": "8731974848","server": "7378","farm": "8","userId": "99942665@N00","secret": "201bf3cd69","title": "P1180273","loc": {"type": "Point","coordinates": [103.82571,1.253522]}} 
{"id": "8730828069","server": "7441","farm": "8","userId": "8495712@N02","secret": "f31a71a0c3","title": "Landmark in the central lake, Universal Studio Singapore [4 May 2013]","loc": {"type": "Point","coordinates": [103.82372,1.254324]}} 
{"id": "8730834189","server": "7333","farm": "8","userId": "8495712@N02","secret": "dd4123d505","title": "Shot near Hollywood area, Universal studio Singapore [4 May 2013]","loc": {"type": "Point","coordinates": [103.82372,1.254324]}} 
{"id": "8730818667","server": "7364","farm": "8","userId": "8495712@N02","secret": "4b7b4f7f12","title": "Universal studio Singapore [4 May 2013]","loc": {"type": "Point","coordinates": [103.82372,1.254324]}} 
{"id": "8708889835","server": "8139","farm": "9","userId": "95461212@N02","secret": "6677b20efc","title": "","loc": {"type": "Point","coordinates": [103.824165,1.254833]}} 
{"id": "8705702465","server": "8404","farm": "9","userId": "36919220@N00","secret": "d0ec6e4fbe","title": "Pinocchio","loc": {"type": "Point","coordinates": [103.82373,1.254703]}} 
{"id": "8653516215","server": "8105","farm": "9","userId": "94712905@N05","secret": "68375b716d","title": "A Natural Fibonacci: 'It is funny on discovering how our nature works. Such as this nautilus shell, that look very simple, but actually followed a sequence called golden spiral, which contain a mathematic proportion in it. These proportion also often use","loc": {"type": "Point","coordinates": [103.82571,1.253521]}} 
{"id": "8627303697","server": "8542","farm": "9","userId": "66919430@N00","secret": "8e509ed1a7","title": "'A kid like me belongs in Universal Studios'","loc": {"type": "Point","coordinates": [103.823784,1.254927]}} 
{"id": "8628418122","server": "8405","farm": "9","userId": "66919430@N00","secret": "88abb85c43","title": "'Let's see, Ethan'","loc": {"type": "Point","coordinates": [103.823784,1.254927]}} 
{"id": "8627315705","server": "8240","farm": "9","userId": "66919430@N00","secret": "30a71777b5","title": "Feeding Yeh Yeh","loc": {"type": "Point","coordinates": [103.823784,1.254927]}} 
{"id": "8627307577","server": "8114","farm": "9","userId": "66919430@N00","secret": "9159209c36","title": "'3 times a year, I need to go at least 3 times a year'","loc": {"type": "Point","coordinates": [103.823784,1.254927]}} 
{"id": "8628414236","server": "8397","farm": "9","userId": "66919430@N00","secret": "7b6acbc6dc","title": "'What's the point of coming all the way here but not going to Universal Studios?'","loc": {"type": "Point","coordinates": [103.823784,1.254927]}} 
{"id": "8627312999","server": "8392","farm": "9","userId": "66919430@N00","secret": "d12c72ba6c","title": "Feasting on free samples","loc": {"type": "Point","coordinates": [103.823784,1.254927]}} 
{"id": "8628419614","server": "8529","farm": "9","userId": "66919430@N00","secret": "c6a572f620","title": "'Must….have…..popcorn'","loc": {"type": "Point","coordinates": [103.823784,1.254927]}} 
{"id": "8627288039","server": "8253","farm": "9","userId": "66919430@N00","secret": "e1afa6c116","title": "Bye-bye….my shift is over","loc": {"type": "Point","coordinates": [103.823784,1.254927]}} 
{"id": "8628408450","server": "8543","farm": "9","userId": "66919430@N00","secret": "7991be44f9","title": "'I've been a good boy all day, I deserve to go'","loc": {"type": "Point","coordinates": [103.823784,1.254927]}} 
{"id": "8628404888","server": "8527","farm": "9","userId": "66919430@N00","secret": "19ae80ed9d","title": "'I don't understand why I can't go to Universal Studios, Yeh Yeh'","loc": {"type": "Point","coordinates": [103.823784,1.254927]}} 
{"id": "8628403106","server": "8383","farm": "9","userId": "66919430@N00","secret": "e29ef93405","title": "DIssapointed that they couldn't go inside","loc": {"type": "Point","coordinates": [103.823784,1.254927]}} 
{"id": "8628393230","server": "8119","farm": "9","userId": "66919430@N00","secret": "4126b8e2a6","title": "She doesn't know Po's behind her","loc": {"type": "Point","coordinates": [103.823784,1.254927]}} 
{"id": "8628386888","server": "8380","farm": "9","userId": "66919430@N00","secret": "e96cf2022a","title": "Erin's forecast for the year","loc": {"type": "Point","coordinates": [103.823784,1.254927]}} 
{"id": "8627280957","server": "8391","farm": "9","userId": "66919430@N00","secret": "a041fe0e4a","title": "Ethan's not a big fan of the spinning globe","loc": {"type": "Point","coordinates": [103.823784,1.254927]}} 
{"id": "8627282983","server": "8394","farm": "9","userId": "66919430@N00","secret": "cc79646628","title": "Cherry blossoms…..fake","loc": {"type": "Point","coordinates": [103.823784,1.254927]}} 
{"id": "8628383862","server": "8242","farm": "9","userId": "66919430@N00","secret": "c363b8d844","title": "Nicely decorated, as always","loc": {"type": "Point","coordinates": [103.823784,1.254927]}} 
{"id": "8627289147","server": "8386","farm": "9","userId": "66919430@N00","secret": "0aa3d7330b","title": "'See yuh, kids'","loc": {"type": "Point","coordinates": [103.823784,1.254927]}} 
{"id": "8627286589","server": "8102","farm": "9","userId": "66919430@N00","secret": "ccb2afa9ed","title": "The Kungfu Panda","loc": {"type": "Point","coordinates": [103.823784,1.254927]}} 
{"id": "8627266209","server": "8115","farm": "9","userId": "66919430@N00","secret": "33e6ba47e7","title": "We're at Resorts World Sentosa to find some lunch","loc": {"type": "Point","coordinates": [103.823784,1.254927]}} 
{"id": "8614208340","server": "8117","farm": "9","userId": "24455170@N03","secret": "223e467519","title": "IMG_0757","loc": {"type": "Point","coordinates": [103.823975,1.254505]}} 
{"id": "8590676511","server": "8093","farm": "9","userId": "94377283@N03","secret": "0a54c62852","title": "DSC06040","loc": {"type": "Point","coordinates": [103.82404,1.25375]}} 
{"id": "8590676219","server": "8225","farm": "9","userId": "94377283@N03","secret": "5e23c7c1e1","title": "DSC06046","loc": {"type": "Point","coordinates": [103.82416,1.253666]}} 
{"id": "8560278243","server": "8377","farm": "9","userId": "88140054@N04","secret": "62cccb51a8","title": "USSSSS","loc": {"type": "Point","coordinates": [103.82367,1.254833]}} 
{"id": "8554547032","server": "8370","farm": "9","userId": "24455170@N03","secret": "e7f46417dd","title": "Парк был почти пустой, очередей на аттракционы вообще не было.. Всегда бы так..","loc": {"type": "Point","coordinates": [103.82375,1.254518]}} 
{"id": "8553414987","server": "8391","farm": "9","userId": "24455170@N03","secret": "852ed3f96d","title": "say hi!","loc": {"type": "Point","coordinates": [103.82375,1.254518]}} 
{"id": "8500332256","server": "8247","farm": "9","userId": "54048808@N00","secret": "9707b16e0b","title": "Skyelar and I having a moment.","loc": {"type": "Point","coordinates": [103.824165,1.253666]}} 
{"id": "8499032609","server": "8517","farm": "9","userId": "48784929@N03","secret": "765098bc2b","title": "Baby dinosaur. They are not entirely sure if it is real or not... #365/54","loc": {"type": "Point","coordinates": [103.82391,1.253776]}} 
{"id": "8498762169","server": "8530","farm": "9","userId": "87772066@N05","secret": "5211cf077e","title": "Singapore","loc": {"type": "Point","coordinates": [103.82492,1.253541]}} 
{"id": "8498762287","server": "8242","farm": "9","userId": "87772066@N05","secret": "60c3453beb","title": "Singapore","loc": {"type": "Point","coordinates": [103.82492,1.253541]}} 
{"id": "8461012384","server": "8095","farm": "9","userId": "86611549@N00","secret": "fa0f423751","title": "Universal Studios Singapore - Jurassic","loc": {"type": "Point","coordinates": [103.82373,1.254088]}} 
{"id": "8437407245","server": "8327","farm": "9","userId": "91955862@N08","secret": "66bd2c6275","title": "","loc": {"type": "Point","coordinates": [103.82375,1.254734]}} 
{"id": "8438487102","server": "8081","farm": "9","userId": "91955862@N08","secret": "db459e81d8","title": "","loc": {"type": "Point","coordinates": [103.82375,1.254734]}} 
{"id": "8430785930","server": "8374","farm": "9","userId": "74006149@N07","secret": "90becd9d0b","title": "Spinosaurus!!! Come to mommy #uss @hiiragishi","loc": {"type": "Point","coordinates": [103.82366,1.253769]}} 
{"id": "8407800129","server": "8232","farm": "9","userId": "74855524@N00","secret": "daa59456e5","title": "Gates to Jurassic Park","loc": {"type": "Point","coordinates": [103.82383,1.254]}} 
{"id": "8407803679","server": "8492","farm": "9","userId": "74855524@N00","secret": "8b52a6e4b9","title": "Far Far Away","loc": {"type": "Point","coordinates": [103.82383,1.2545]}} 
{"id": "8407802881","server": "8469","farm": "9","userId": "74855524@N00","secret": "c8c82e2184","title": "Jurassic Park","loc": {"type": "Point","coordinates": [103.82367,1.254166]}} 
{"id": "8407804355","server": "8213","farm": "9","userId": "74855524@N00","secret": "0d2a8fbbd2","title": "Far Far Away","loc": {"type": "Point","coordinates": [103.824,1.254666]}} 
{"id": "8374842185","server": "8497","farm": "9","userId": "54048808@N00","secret": "3f26ff8536","title": "Saw the Baby Triceratops","loc": {"type": "Point","coordinates": [103.82383,1.254]}} 
{"id": "8369718259","server": "8215","farm": "9","userId": "91977915@N04","secret": "704aaa0593","title": "Almost complete.. P3","loc": {"type": "Point","coordinates": [103.82373,1.254703]}} 
{"id": "8369694541","server": "8506","farm": "9","userId": "91977915@N04","secret": "8cb3ca9232","title": "The Castle","loc": {"type": "Point","coordinates": [103.82394,1.254708]}} 
{"id": "8350156968","server": "8087","farm": "9","userId": "16102830@N05","secret": "0f1b920b5a","title": "1210_OctoberRandoms_HR_103","loc": {"type": "Point","coordinates": [103.82383,1.254333]}} 
{"id": "8349095685","server": "8194","farm": "9","userId": "16102830@N05","secret": "7c89e6a82d","title": "1210_OctoberRandoms_HR_102","loc": {"type": "Point","coordinates": [103.82383,1.254]}} 
{"id": "8349094813","server": "8090","farm": "9","userId": "16102830@N05","secret": "be36843805","title": "1210_OctoberRandoms_HR_104","loc": {"type": "Point","coordinates": [103.82383,1.254333]}} 
{"id": "8305137517","server": "8219","farm": "9","userId": "93311688@N00","secret": "1da69e8bc9","title": "Waterworld","loc": {"type": "Point","coordinates": [103.82513,1.253498]}} 
{"id": "8246149626","server": "8489","farm": "9","userId": "80839252@N00","secret": "d62b8e61c6","title": "IMG_9152.jpg","loc": {"type": "Point","coordinates": [103.824066,1.254566]}} 
{"id": "8246147096","server": "8203","farm": "9","userId": "80839252@N00","secret": "047ed9c68e","title": "IMG_9108.jpg","loc": {"type": "Point","coordinates": [103.82383,1.253797]}} 
{"id": "8245083681","server": "8342","farm": "9","userId": "80839252@N00","secret": "1e79597a7c","title": "IMG_9158.jpg","loc": {"type": "Point","coordinates": [103.823944,1.254669]}} 
{"id": "8245080353","server": "8347","farm": "9","userId": "80839252@N00","secret": "0542064e17","title": "IMG_9127.jpg","loc": {"type": "Point","coordinates": [103.82383,1.253797]}} 
{"id": "8245082969","server": "8068","farm": "9","userId": "80839252@N00","secret": "dded9fc09e","title": "IMG_9156.jpg","loc": {"type": "Point","coordinates": [103.82399,1.254627]}} 
{"id": "8245084289","server": "8066","farm": "9","userId": "80839252@N00","secret": "262c25cbf0","title": "IMG_9160.jpg","loc": {"type": "Point","coordinates": [103.82389,1.254711]}} 
{"id": "8246146258","server": "8349","farm": "9","userId": "80839252@N00","secret": "644d2ce772","title": "IMG_9099.jpg","loc": {"type": "Point","coordinates": [103.82383,1.253797]}} 
{"id": "8245081753","server": "8479","farm": "9","userId": "80839252@N00","secret": "e1f477847a","title": "IMG_9139.jpg","loc": {"type": "Point","coordinates": [103.824066,1.254566]}} 
{"id": "8199909094","server": "8339","farm": "9","userId": "16102830@N05","secret": "ae90baba8e","title": "121014_Gloria23Birthday_HR_014","loc": {"type": "Point","coordinates": [103.82383,1.254333]}} 
{"id": "8198818607","server": "8338","farm": "9","userId": "16102830@N05","secret": "c8af44260b","title": "121014_Gloria23Birthday_HR_012","loc": {"type": "Point","coordinates": [103.82383,1.254]}} 
{"id": "8199909874","server": "8069","farm": "9","userId": "16102830@N05","secret": "74f279c5a6","title": "121014_Gloria23Birthday_HR_013","loc": {"type": "Point","coordinates": [103.82383,1.254333]}} 
{"id": "8161218322","server": "8346","farm": "9","userId": "99942665@N00","secret": "fd8267416d","title": "P1150613","loc": {"type": "Point","coordinates": [103.82571,1.253522]}} 
{"id": "8161219748","server": "8340","farm": "9","userId": "99942665@N00","secret": "6408499353","title": "P1150615","loc": {"type": "Point","coordinates": [103.82571,1.253522]}} 
{"id": "8161208852","server": "7128","farm": "8","userId": "99942665@N00","secret": "7f0266df2d","title": "P1150578","loc": {"type": "Point","coordinates": [103.82571,1.253522]}} 
{"id": "8161184379","server": "8199","farm": "9","userId": "99942665@N00","secret": "9d0002cfa1","title": "P1150611","loc": {"type": "Point","coordinates": [103.82571,1.253522]}} 
{"id": "8161208138","server": "8070","farm": "9","userId": "99942665@N00","secret": "e45876fefd","title": "P1150574","loc": {"type": "Point","coordinates": [103.82571,1.253522]}} 
{"id": "8161206354","server": "8482","farm": "9","userId": "99942665@N00","secret": "e0b83e4fbe","title": "P1150565","loc": {"type": "Point","coordinates": [103.82571,1.253522]}} 
{"id": "8161177143","server": "7115","farm": "8","userId": "99942665@N00","secret": "4a415336ba","title": "P1150579","loc": {"type": "Point","coordinates": [103.82571,1.253522]}} 
{"id": "8161181481","server": "7257","farm": "8","userId": "99942665@N00","secret": "eb24dc70f0","title": "P1150593","loc": {"type": "Point","coordinates": [103.82571,1.253522]}} 
{"id": "8161178763","server": "8209","farm": "9","userId": "99942665@N00","secret": "6f9c936206","title": "P1150586","loc": {"type": "Point","coordinates": [103.82571,1.253522]}} 
{"id": "8161179369","server": "8064","farm": "9","userId": "99942665@N00","secret": "e0cd448ffa","title": "P1150588","loc": {"type": "Point","coordinates": [103.82571,1.253522]}} 
{"id": "8161185063","server": "7255","farm": "8","userId": "99942665@N00","secret": "a4be77d64a","title": "P1150612","loc": {"type": "Point","coordinates": [103.82571,1.253522]}} 
{"id": "8161180681","server": "7248","farm": "8","userId": "99942665@N00","secret": "6ca464d743","title": "P1150592","loc": {"type": "Point","coordinates": [103.82571,1.253522]}} 
{"id": "8161207624","server": "8345","farm": "9","userId": "99942665@N00","secret": "1820057ba8","title": "P1150573","loc": {"type": "Point","coordinates": [103.82571,1.253522]}} 
{"id": "8161178115","server": "8068","farm": "9","userId": "99942665@N00","secret": "f4d386331a","title": "P1150584","loc": {"type": "Point","coordinates": [103.82571,1.253522]}} 
{"id": "8161174891","server": "7270","farm": "8","userId": "99942665@N00","secret": "1a92c1e8c9","title": "P1150568","loc": {"type": "Point","coordinates": [103.82571,1.253522]}} 
{"id": "8161214340","server": "7110","farm": "8","userId": "99942665@N00","secret": "13ef467a56","title": "P1150596","loc": {"type": "Point","coordinates": [103.82571,1.253522]}} 
{"id": "8161215132","server": "7273","farm": "8","userId": "99942665@N00","secret": "03fe666b2d","title": "P1150607","loc": {"type": "Point","coordinates": [103.82571,1.253522]}} 
{"id": "8161177495","server": "7112","farm": "8","userId": "99942665@N00","secret": "2da334fecf","title": "P1150583","loc": {"type": "Point","coordinates": [103.82571,1.253522]}} 
{"id": "8161183599","server": "7140","farm": "8","userId": "99942665@N00","secret": "c28b993522","title": "P1150609","loc": {"type": "Point","coordinates": [103.82571,1.253522]}} 
{"id": "8161220348","server": "7276","farm": "8","userId": "99942665@N00","secret": "c25ee806e1","title": "P1150621","loc": {"type": "Point","coordinates": [103.82571,1.253522]}} 
{"id": "8161187021","server": "8202","farm": "9","userId": "99942665@N00","secret": "c7b88ed5c6","title": "P1150614","loc": {"type": "Point","coordinates": [103.82571,1.253522]}} 
{"id": "8141686039","server": "8326","farm": "9","userId": "27699961@N00","secret": "be1d0221fa","title": "turkey bbq","loc": {"type": "Point","coordinates": [103.82383,1.254167]}} 
{"id": "8141715904","server": "8056","farm": "9","userId": "27699961@N00","secret": "748fccab96","title": "me at jurassic park","loc": {"type": "Point","coordinates": [103.82367,1.254]}} 
{"id": "8141714838","server": "8327","farm": "9","userId": "27699961@N00","secret": "4f21ebcbec","title": "me at waterworld","loc": {"type": "Point","coordinates": [103.824,1.254167]}} 
{"id": "8141711404","server": "8043","farm": "9","userId": "27699961@N00","secret": "6800f97080","title": "waterworld","loc": {"type": "Point","coordinates": [103.82533,1.253667]}} 
{"id": "8141717886","server": "8473","farm": "9","userId": "27699961@N00","secret": "7dbb8a465f","title": "me at far far away","loc": {"type": "Point","coordinates": [103.82367,1.254833]}} 
{"id": "8141681663","server": "8193","farm": "9","userId": "27699961@N00","secret": "d934a61897","title": "me after waterworld","loc": {"type": "Point","coordinates": [103.82484,1.253667]}} 
{"id": "8118892038","server": "8471","farm": "9","userId": "90001758@N00","secret": "9245a807dc","title": "hallooooweeeeen","loc": {"type": "Point","coordinates": [103.8249,1.253723]}} 
{"id": "8118898498","server": "8043","farm": "9","userId": "90001758@N00","secret": "943dba29f3","title": "boo!","loc": {"type": "Point","coordinates": [103.8249,1.253723]}} 
{"id": "8104512357","server": "8330","farm": "9","userId": "89889506@N00","secret": "a83a866001","title": "Shrek castle","loc": {"type": "Point","coordinates": [103.82369,1.254889]}} 
