{"id": "9403636263","server": "5491","farm": "6","userId": "54048808@N00","secret": "3b7ca80cbe","title": "Coming into the light.","loc": {"type": "Point","coordinates": [103.82117,1.256833]}} 
{"id": "8790469991","server": "7335","farm": "8","userId": "62395687@N02","secret": "84f27b337d","title": "The Maritime Experiential Museum, SG'13","loc": {"type": "Point","coordinates": [103.821365,1.257629]}} 
{"id": "8646524384","server": "8106","farm": "9","userId": "53207432@N00","secret": "af63f9b8e3","title": "L1033620","loc": {"type": "Point","coordinates": [103.82108,1.256566]}} 
{"id": "8581712421","server": "8511","farm": "9","userId": "42789083@N00","secret": "602e395075","title": "20130317-6D-100-2208","loc": {"type": "Point","coordinates": [103.82112,1.257777]}} 
{"id": "8481261508","server": "8508","farm": "9","userId": "10757800@N00","secret": "a8b208e646","title": "Character | Universal Studios Singapore","loc": {"type": "Point","coordinates": [103.822205,1.256932]}} 
{"id": "8369728893","server": "8078","farm": "9","userId": "10757800@N00","secret": "c00ee7164f","title": "Universal Studios Singapore | Sentosa, Singapore","loc": {"type": "Point","coordinates": [103.82088,1.256653]}} 
{"id": "9363957517","server": "2821","farm": "3","userId": "97247234@N00","secret": "0324af741f","title": "Universal Studios, Singapore","loc": {"type": "Point","coordinates": [103.821075,1.256619]}} 
{"id": "9286058134","server": "3665","farm": "4","userId": "66420192@N05","secret": "ba8ed845fa","title": "IMG_2278","loc": {"type": "Point","coordinates": [103.82117,1.256666]}} 
{"id": "9277486356","server": "2816","farm": "3","userId": "34404963@N00","secret": "597af76b57","title": "Sentosa Acquarium","loc": {"type": "Point","coordinates": [103.821,1.257333]}} 
{"id": "9277485474","server": "3803","farm": "4","userId": "34404963@N00","secret": "46f08377e1","title": "Sentosa Acquarium","loc": {"type": "Point","coordinates": [103.821,1.257333]}} 
{"id": "9271623435","server": "2859","farm": "3","userId": "24131681@N00","secret": "8226db61af","title": "DSC02146","loc": {"type": "Point","coordinates": [103.82128,1.256716]}} 
{"id": "9264585211","server": "7289","farm": "8","userId": "11434986@N04","secret": "16d7f7e6f7","title": "Here we go!!!!","loc": {"type": "Point","coordinates": [103.82319,1.257077]}} 
{"id": "9214689021","server": "2884","farm": "3","userId": "97705734@N02","secret": "a85f135c46","title": "IMAG1039","loc": {"type": "Point","coordinates": [103.821815,1.257997]}} 
{"id": "9165957915","server": "5456","farm": "6","userId": "98117121@N07","secret": "fd39b45603","title": "Universal Studio","loc": {"type": "Point","coordinates": [103.821335,1.256833]}} 
{"id": "9162197915","server": "3719","farm": "4","userId": "24131681@N00","secret": "eb04b2f099","title": "DSC00833","loc": {"type": "Point","coordinates": [103.821304,1.256702]}} 
{"id": "9153132686","server": "7457","farm": "8","userId": "30456413@N00","secret": "5d2787fe52","title": "Singapore","loc": {"type": "Point","coordinates": [103.82117,1.256666]}} 
{"id": "9153139254","server": "2845","farm": "3","userId": "30456413@N00","secret": "0549049cfc","title": "Singapore","loc": {"type": "Point","coordinates": [103.82166,1.257]}} 
{"id": "9153126430","server": "3746","farm": "4","userId": "30456413@N00","secret": "4d1b68210a","title": "Singapore","loc": {"type": "Point","coordinates": [103.8215,1.256833]}} 
{"id": "9150911175","server": "2811","farm": "3","userId": "30456413@N00","secret": "d9e4f7d59a","title": "Singapore","loc": {"type": "Point","coordinates": [103.821335,1.256666]}} 
{"id": "9150904593","server": "5349","farm": "6","userId": "30456413@N00","secret": "6a6d52097d","title": "Singapore","loc": {"type": "Point","coordinates": [103.821335,1.256666]}} 
{"id": "9153090322","server": "3755","farm": "4","userId": "30456413@N00","secret": "b240f516f5","title": "Singapore","loc": {"type": "Point","coordinates": [103.821335,1.2565]}} 
{"id": "9150858997","server": "2889","farm": "3","userId": "30456413@N00","secret": "a7f43e1807","title": "Singapore","loc": {"type": "Point","coordinates": [103.821335,1.2565]}} 
{"id": "9150898417","server": "7301","farm": "8","userId": "30456413@N00","secret": "d0067e5b94","title": "Singapore","loc": {"type": "Point","coordinates": [103.82117,1.256666]}} 
{"id": "9153086698","server": "3756","farm": "4","userId": "30456413@N00","secret": "b3510c7cc5","title": "Singapore","loc": {"type": "Point","coordinates": [103.821335,1.256833]}} 
{"id": "9150893603","server": "3766","farm": "4","userId": "30456413@N00","secret": "f009377289","title": "Universal studios Isabelle and Australia","loc": {"type": "Point","coordinates": [103.82117,1.256666]}} 
{"id": "9105421853","server": "7308","farm": "8","userId": "91765621@N04","secret": "d9a833ec77","title": "","loc": {"type": "Point","coordinates": [103.82305,1.25739]}} 
{"id": "9095753775","server": "3788","farm": "4","userId": "32056890@N07","secret": "3cf71761c8","title": "S.E.A Aquarium","loc": {"type": "Point","coordinates": [103.823555,1.256652]}} 
{"id": "9095755173","server": "3728","farm": "4","userId": "32056890@N07","secret": "bc59e92a1e","title": "S.E.A Aquarium","loc": {"type": "Point","coordinates": [103.823555,1.25663]}} 
{"id": "9097984370","server": "5517","farm": "6","userId": "32056890@N07","secret": "52401cfae5","title": "S.E.A Aquarium","loc": {"type": "Point","coordinates": [103.82353,1.256695]}} 
{"id": "9095756251","server": "5494","farm": "6","userId": "32056890@N07","secret": "6aa1f05f01","title": "S.E.A Aquarium","loc": {"type": "Point","coordinates": [103.82353,1.256716]}} 
{"id": "8975601370","server": "3698","farm": "4","userId": "19282426@N00","secret": "d7301059ba","title": "Clay pot rice","loc": {"type": "Point","coordinates": [103.82144,1.256882]}} 
{"id": "8968240127","server": "5443","farm": "6","userId": "50012334@N08","secret": "d8bba8619d","title": "It Was Fear Of Myself That Made Me Odd","loc": {"type": "Point","coordinates": [103.82165,1.257908]}} 
{"id": "8968239931","server": "5348","farm": "6","userId": "50012334@N08","secret": "5e77ef69e0","title": "We Are The End","loc": {"type": "Point","coordinates": [103.821754,1.257372]}} 
{"id": "8967324695","server": "2854","farm": "3","userId": "50012334@N08","secret": "13004a5f11","title": "Drunks, Lovers, Sinners & Saints","loc": {"type": "Point","coordinates": [103.82197,1.257651]}} 
{"id": "8967318189","server": "7359","farm": "8","userId": "50012334@N08","secret": "46cc410dca","title": "Mailbox Arson","loc": {"type": "Point","coordinates": [103.82217,1.257458]}} 
{"id": "8967311325","server": "7443","farm": "8","userId": "50012334@N08","secret": "a5cc0d3279","title": "Sharks & Danger","loc": {"type": "Point","coordinates": [103.82184,1.257458]}} 
{"id": "8968526076","server": "2860","farm": "3","userId": "50012334@N08","secret": "232f9a708e","title": "Keep it on Wax","loc": {"type": "Point","coordinates": [103.82193,1.257501]}} 
{"id": "8967350673","server": "3743","farm": "4","userId": "50012334@N08","secret": "b7f8f1c847","title": "Rough Hands","loc": {"type": "Point","coordinates": [103.821884,1.257694]}} 
{"id": "8924624566","server": "7437","farm": "8","userId": "83592540@N07","secret": "bf2973a033","title": "Mixed Photo in Singapore","loc": {"type": "Point","coordinates": [103.821335,1.2575]}} 
{"id": "8924635832","server": "8559","farm": "9","userId": "83592540@N07","secret": "b179fa7263","title": "Mixed Photo in Singapore","loc": {"type": "Point","coordinates": [103.821,1.256666]}} 
{"id": "8924001187","server": "8551","farm": "9","userId": "83592540@N07","secret": "88afc6e2cc","title": "Mixed Photo in Singapore","loc": {"type": "Point","coordinates": [103.82117,1.2565]}} 
{"id": "8924003123","server": "8544","farm": "9","userId": "83592540@N07","secret": "b98d35a431","title": "Mixed Photo in Singapore","loc": {"type": "Point","coordinates": [103.823166,1.257333]}} 
{"id": "8924013381","server": "5330","farm": "6","userId": "83592540@N07","secret": "14855ee666","title": "Mixed Photo in Singapore","loc": {"type": "Point","coordinates": [103.821335,1.2575]}} 
{"id": "8924724288","server": "7413","farm": "8","userId": "83592540@N07","secret": "2ebd707059","title": "Mixed Photo in Singapore","loc": {"type": "Point","coordinates": [103.821,1.2565]}} 
{"id": "8924624030","server": "2860","farm": "3","userId": "83592540@N07","secret": "126ed835b7","title": "Mixed Photo in Singapore","loc": {"type": "Point","coordinates": [103.82117,1.2565]}} 
{"id": "8924196927","server": "3825","farm": "4","userId": "83592540@N07","secret": "fd67268b29","title": "Mixed Photo in Singapore","loc": {"type": "Point","coordinates": [103.821335,1.2565]}} 
{"id": "8924001791","server": "2808","farm": "3","userId": "83592540@N07","secret": "abaaeb7862","title": "Mixed Photo in Singapore","loc": {"type": "Point","coordinates": [103.82117,1.2565]}} 
{"id": "8924031383","server": "5334","farm": "6","userId": "83592540@N07","secret": "573a4b1d4d","title": "Mixed Photo in Singapore","loc": {"type": "Point","coordinates": [103.821,1.2565]}} 
{"id": "8850886679","server": "7419","farm": "8","userId": "33938770@N05","secret": "b427b6a897","title": "HD Panorama, Universal Studios, Sentosa Island, Singapore","loc": {"type": "Point","coordinates": [103.82117,1.256833]}} 
{"id": "8851449850","server": "7450","farm": "8","userId": "33938770@N05","secret": "a399d29239","title": "Danny at Universal Studios, Sentosa Island, Singapore","loc": {"type": "Point","coordinates": [103.82117,1.256833]}} 
{"id": "8851466092","server": "2872","farm": "3","userId": "33938770@N05","secret": "8946fdf1de","title": "Universal Studios Sign, Sentosa Island, Singapore","loc": {"type": "Point","coordinates": [103.82117,1.256666]}} 
{"id": "8851432916","server": "8118","farm": "9","userId": "33938770@N05","secret": "0b68c4bf1a","title": "Sentosa Island Visitor Centre, Singapore","loc": {"type": "Point","coordinates": [103.823,1.257333]}} 
{"id": "8824279074","server": "5461","farm": "6","userId": "9565950@N08","secret": "d851c9d1fc","title": "P1200001","loc": {"type": "Point","coordinates": [103.82259,1.257125]}} 
{"id": "8754026254","server": "7450","farm": "8","userId": "8352372@N04","secret": "4b1e2da18a","title": "S.E.A. Aquarium was certainly better than we expected.","loc": {"type": "Point","coordinates": [103.820915,1.257744]}} 
{"id": "8752430097","server": "2840","farm": "3","userId": "8352372@N04","secret": "79e2af6153","title": "They weren't kidding when they said the fish tank is big.","loc": {"type": "Point","coordinates": [103.820915,1.257744]}} 
{"id": "8727042405","server": "7299","farm": "8","userId": "92593934@N04","secret": "9e38c8681e","title": "Unjustifiable reward after #RunLikeMad.","loc": {"type": "Point","coordinates": [103.822556,1.257127]}} 
{"id": "8709178355","server": "8115","farm": "9","userId": "25177633@N04","secret": "fa55a7078d","title": "เค้าว่าร้านนี้ดัง เลยเดินตามเค้ามา #singapore #seafood #republic","loc": {"type": "Point","coordinates": [103.82255,1.25769]}} 
{"id": "8674292796","server": "8120","farm": "9","userId": "46577167@N00","secret": "2ba127435f","title": "Universal Studios","loc": {"type": "Point","coordinates": [103.82117,1.256666]}} 
{"id": "8668093844","server": "8542","farm": "9","userId": "99942665@N00","secret": "e6a5c1019d","title": "_DSC8297","loc": {"type": "Point","coordinates": [103.82144,1.257994]}} 
{"id": "8668078764","server": "8531","farm": "9","userId": "99942665@N00","secret": "01af0a65dd","title": "_DSC8174","loc": {"type": "Point","coordinates": [103.82144,1.257994]}} 
{"id": "8668081314","server": "8528","farm": "9","userId": "99942665@N00","secret": "d971a689a9","title": "_DSC8194","loc": {"type": "Point","coordinates": [103.82144,1.257994]}} 
{"id": "8668077302","server": "8538","farm": "9","userId": "99942665@N00","secret": "d1c0f80269","title": "_DSC8163","loc": {"type": "Point","coordinates": [103.82144,1.257994]}} 
{"id": "8666976057","server": "8532","farm": "9","userId": "99942665@N00","secret": "61c951ff12","title": "_DSC8173","loc": {"type": "Point","coordinates": [103.82144,1.257994]}} 
{"id": "8668082436","server": "8538","farm": "9","userId": "99942665@N00","secret": "2c616b4397","title": "_DSC8202","loc": {"type": "Point","coordinates": [103.82144,1.257994]}} 
{"id": "8668088382","server": "8521","farm": "9","userId": "99942665@N00","secret": "d79eb6bb90","title": "_DSC8261","loc": {"type": "Point","coordinates": [103.82144,1.257994]}} 
{"id": "8668085980","server": "8531","farm": "9","userId": "99942665@N00","secret": "a7bc4f071c","title": "_DSC8239","loc": {"type": "Point","coordinates": [103.82144,1.257994]}} 
{"id": "8668093292","server": "8543","farm": "9","userId": "99942665@N00","secret": "5044bcb050","title": "_DSC8296","loc": {"type": "Point","coordinates": [103.82144,1.257994]}} 
{"id": "8668091066","server": "8538","farm": "9","userId": "99942665@N00","secret": "2837a4407c","title": "_DSC8287","loc": {"type": "Point","coordinates": [103.82144,1.257994]}} 
{"id": "8666979591","server": "8534","farm": "9","userId": "99942665@N00","secret": "eb8eb51362","title": "_DSC8196","loc": {"type": "Point","coordinates": [103.82144,1.257994]}} 
{"id": "8668084108","server": "8532","farm": "9","userId": "99942665@N00","secret": "37ced63b95","title": "_DSC8227","loc": {"type": "Point","coordinates": [103.82144,1.257994]}} 
{"id": "8666980403","server": "8546","farm": "9","userId": "99942665@N00","secret": "278f49bd02","title": "_DSC8205","loc": {"type": "Point","coordinates": [103.82144,1.257994]}} 
{"id": "8668092012","server": "8527","farm": "9","userId": "99942665@N00","secret": "e283a7f060","title": "_DSC8289","loc": {"type": "Point","coordinates": [103.82144,1.257994]}} 
{"id": "8666987261","server": "8529","farm": "9","userId": "99942665@N00","secret": "3352fb00e8","title": "_DSC8272","loc": {"type": "Point","coordinates": [103.82144,1.257994]}} 
{"id": "8668084690","server": "8531","farm": "9","userId": "99942665@N00","secret": "3723bc9149","title": "_DSC8234","loc": {"type": "Point","coordinates": [103.82144,1.257994]}} 
{"id": "8666983043","server": "8536","farm": "9","userId": "99942665@N00","secret": "4ea8216625","title": "_DSC8236","loc": {"type": "Point","coordinates": [103.82144,1.257994]}} 
{"id": "8666977247","server": "8520","farm": "9","userId": "99942665@N00","secret": "d125bea769","title": "_DSC8183","loc": {"type": "Point","coordinates": [103.82144,1.257994]}} 
{"id": "8668083656","server": "8543","farm": "9","userId": "99942665@N00","secret": "c04de1393d","title": "_DSC8211","loc": {"type": "Point","coordinates": [103.82144,1.257994]}} 
{"id": "8666989285","server": "8542","farm": "9","userId": "99942665@N00","secret": "8be37ce285","title": "_DSC8288","loc": {"type": "Point","coordinates": [103.82144,1.257994]}} 
{"id": "8666987891","server": "8541","farm": "9","userId": "99942665@N00","secret": "f5853d9b2e","title": "_DSC8273","loc": {"type": "Point","coordinates": [103.82144,1.257994]}} 
{"id": "8666975495","server": "8535","farm": "9","userId": "99942665@N00","secret": "145a7acd4a","title": "_DSC8170","loc": {"type": "Point","coordinates": [103.82144,1.257994]}} 
{"id": "8668080814","server": "8524","farm": "9","userId": "99942665@N00","secret": "85622e668d","title": "_DSC8190","loc": {"type": "Point","coordinates": [103.82144,1.257994]}} 
{"id": "8668086592","server": "8529","farm": "9","userId": "99942665@N00","secret": "903abf62cf","title": "_DSC8251","loc": {"type": "Point","coordinates": [103.82144,1.257994]}} 
{"id": "8666985665","server": "8528","farm": "9","userId": "99942665@N00","secret": "9435b46a1c","title": "_DSC8257","loc": {"type": "Point","coordinates": [103.82144,1.257994]}} 
{"id": "8668079892","server": "8522","farm": "9","userId": "99942665@N00","secret": "bbd53da6d6","title": "_DSC8184","loc": {"type": "Point","coordinates": [103.82144,1.257994]}} 
{"id": "8666976873","server": "8540","farm": "9","userId": "99942665@N00","secret": "a7679f5d30","title": "_DSC8180","loc": {"type": "Point","coordinates": [103.82144,1.257994]}} 
{"id": "8668088924","server": "8539","farm": "9","userId": "99942665@N00","secret": "9339dd2295","title": "_DSC8264","loc": {"type": "Point","coordinates": [103.82144,1.257994]}} 
{"id": "8668092790","server": "8528","farm": "9","userId": "99942665@N00","secret": "fd3478cc1f","title": "_DSC8295","loc": {"type": "Point","coordinates": [103.82144,1.257994]}} 
{"id": "8666985159","server": "8546","farm": "9","userId": "99942665@N00","secret": "ba12c9fe5d","title": "_DSC8253","loc": {"type": "Point","coordinates": [103.82144,1.257994]}} 
{"id": "8666988295","server": "8521","farm": "9","userId": "99942665@N00","secret": "0d1b7606c6","title": "_DSC8279","loc": {"type": "Point","coordinates": [103.82144,1.257994]}} 
{"id": "8666963423","server": "8537","farm": "9","userId": "99942665@N00","secret": "d92fd20e8d","title": "_DSC8040","loc": {"type": "Point","coordinates": [103.82144,1.257994]}} 
{"id": "8668073940","server": "8533","farm": "9","userId": "99942665@N00","secret": "e8ed48bbc8","title": "_DSC8144","loc": {"type": "Point","coordinates": [103.82144,1.257994]}} 
{"id": "8666958519","server": "8540","farm": "9","userId": "99942665@N00","secret": "38486c8999","title": "_DSC8010","loc": {"type": "Point","coordinates": [103.82144,1.257994]}} 
{"id": "8668076588","server": "8538","farm": "9","userId": "99942665@N00","secret": "226d0d0908","title": "_DSC8157","loc": {"type": "Point","coordinates": [103.82144,1.257994]}} 
{"id": "8668069076","server": "8541","farm": "9","userId": "99942665@N00","secret": "873a64fe8c","title": "_DSC8071","loc": {"type": "Point","coordinates": [103.82144,1.257994]}} 
{"id": "8668064278","server": "8528","farm": "9","userId": "99942665@N00","secret": "8266afd216","title": "_DSC8032","loc": {"type": "Point","coordinates": [103.82144,1.257994]}} 
{"id": "8666969395","server": "8521","farm": "9","userId": "99942665@N00","secret": "f3497699c4","title": "_DSC8118","loc": {"type": "Point","coordinates": [103.82144,1.257994]}} 
{"id": "8668070448","server": "8546","farm": "9","userId": "99942665@N00","secret": "420fa07b50","title": "_DSC8107","loc": {"type": "Point","coordinates": [103.82144,1.257994]}} 
{"id": "8668063076","server": "8532","farm": "9","userId": "99942665@N00","secret": "979f38071f","title": "_DSC8014","loc": {"type": "Point","coordinates": [103.82144,1.257994]}} 
{"id": "8668061518","server": "8529","farm": "9","userId": "99942665@N00","secret": "d1e2cd7d00","title": "_DSC8012","loc": {"type": "Point","coordinates": [103.82144,1.257994]}} 
{"id": "8666964175","server": "8540","farm": "9","userId": "99942665@N00","secret": "c154f968cd","title": "_DSC8043","loc": {"type": "Point","coordinates": [103.82144,1.257994]}} 
{"id": "8668073214","server": "8531","farm": "9","userId": "99942665@N00","secret": "ccb35286aa","title": "_DSC8131","loc": {"type": "Point","coordinates": [103.82144,1.257994]}} 
{"id": "8668073548","server": "8543","farm": "9","userId": "99942665@N00","secret": "3e4e5a4bcb","title": "_DSC8134","loc": {"type": "Point","coordinates": [103.82144,1.257994]}} 
{"id": "8668072476","server": "8540","farm": "9","userId": "99942665@N00","secret": "ffc51f090f","title": "_DSC8125","loc": {"type": "Point","coordinates": [103.82144,1.257994]}} 
{"id": "8668067944","server": "8522","farm": "9","userId": "99942665@N00","secret": "6ca9c7441e","title": "_DSC8053","loc": {"type": "Point","coordinates": [103.82144,1.257994]}} 
{"id": "8666966499","server": "8527","farm": "9","userId": "99942665@N00","secret": "77631eaf03","title": "_DSC8055","loc": {"type": "Point","coordinates": [103.82144,1.257994]}} 
{"id": "8668075482","server": "8543","farm": "9","userId": "99942665@N00","secret": "4550dd4bee","title": "_DSC8149","loc": {"type": "Point","coordinates": [103.82144,1.257994]}} 
{"id": "8668074298","server": "8546","farm": "9","userId": "99942665@N00","secret": "fe68f5fd3a","title": "_DSC8147","loc": {"type": "Point","coordinates": [103.82144,1.257994]}} 
{"id": "8668064924","server": "8545","farm": "9","userId": "99942665@N00","secret": "63d84c1fef","title": "_DSC8039","loc": {"type": "Point","coordinates": [103.82144,1.257994]}} 
{"id": "8668067470","server": "8523","farm": "9","userId": "99942665@N00","secret": "6988a2a58b","title": "_DSC8047","loc": {"type": "Point","coordinates": [103.82144,1.257994]}} 
{"id": "8668069648","server": "8544","farm": "9","userId": "99942665@N00","secret": "87591048e1","title": "_DSC8080","loc": {"type": "Point","coordinates": [103.82144,1.257994]}} 
{"id": "8666964885","server": "8541","farm": "9","userId": "99942665@N00","secret": "aebeba9668","title": "_DSC8045","loc": {"type": "Point","coordinates": [103.82144,1.257994]}} 
{"id": "8666972807","server": "8537","farm": "9","userId": "99942665@N00","secret": "f41fcefc90","title": "_DSC8148","loc": {"type": "Point","coordinates": [103.82144,1.257994]}} 
{"id": "8668072970","server": "8545","farm": "9","userId": "99942665@N00","secret": "a08c5f9273","title": "_DSC8126","loc": {"type": "Point","coordinates": [103.82144,1.257994]}} 
{"id": "8668071922","server": "8545","farm": "9","userId": "99942665@N00","secret": "038b5daa6b","title": "_DSC8119","loc": {"type": "Point","coordinates": [103.82144,1.257994]}} 
{"id": "8668070876","server": "8532","farm": "9","userId": "99942665@N00","secret": "23c5321821","title": "_DSC8117","loc": {"type": "Point","coordinates": [103.82144,1.257994]}} 
{"id": "8668063874","server": "8541","farm": "9","userId": "99942665@N00","secret": "1c7f40c31a","title": "_DSC8015","loc": {"type": "Point","coordinates": [103.82144,1.257994]}} 
{"id": "8668058006","server": "8532","farm": "9","userId": "99942665@N00","secret": "fc0640b7f8","title": "_DSC8000","loc": {"type": "Point","coordinates": [103.82144,1.257994]}} 
{"id": "8668055110","server": "8525","farm": "9","userId": "99942665@N00","secret": "20616a65e3","title": "_DSC7982","loc": {"type": "Point","coordinates": [103.82144,1.257994]}} 
{"id": "8668057118","server": "8527","farm": "9","userId": "99942665@N00","secret": "894025b97e","title": "_DSC7993","loc": {"type": "Point","coordinates": [103.82144,1.257994]}} 
{"id": "8666950491","server": "8541","farm": "9","userId": "99942665@N00","secret": "25680d0a04","title": "_DSC7975","loc": {"type": "Point","coordinates": [103.82144,1.257994]}} 
{"id": "8666954573","server": "8535","farm": "9","userId": "99942665@N00","secret": "0829f1ef30","title": "_DSC7986","loc": {"type": "Point","coordinates": [103.82144,1.257994]}} 
{"id": "8668053518","server": "8544","farm": "9","userId": "99942665@N00","secret": "08216deb86","title": "_DSC7977","loc": {"type": "Point","coordinates": [103.82144,1.257994]}} 
{"id": "8666956479","server": "8530","farm": "9","userId": "99942665@N00","secret": "5c482b04eb","title": "_DSC8002","loc": {"type": "Point","coordinates": [103.82144,1.257994]}} 
{"id": "8668059876","server": "8534","farm": "9","userId": "99942665@N00","secret": "30e2e9faaa","title": "_DSC8008","loc": {"type": "Point","coordinates": [103.82144,1.257994]}} 
{"id": "8666953969","server": "8545","farm": "9","userId": "99942665@N00","secret": "3893f34276","title": "_DSC7984","loc": {"type": "Point","coordinates": [103.82144,1.257994]}} 
{"id": "8666952295","server": "8542","farm": "9","userId": "99942665@N00","secret": "07b0749a03","title": "_DSC7979","loc": {"type": "Point","coordinates": [103.82144,1.257994]}} 
{"id": "8666957557","server": "8540","farm": "9","userId": "99942665@N00","secret": "4090b3a0c1","title": "_DSC8005","loc": {"type": "Point","coordinates": [103.82144,1.257994]}} 
{"id": "8656885608","server": "8113","farm": "9","userId": "98544088@N00","secret": "ac8c9007eb","title": "Day1_.35","loc": {"type": "Point","coordinates": [103.823,1.257666]}} 
{"id": "8631611514","server": "8383","farm": "9","userId": "42789083@N00","secret": "ff06e55817","title": "20130317-6D-100-2396-Edit","loc": {"type": "Point","coordinates": [103.82112,1.257777]}} 
{"id": "8627256170","server": "8522","farm": "9","userId": "32342207@N04","secret": "45168fa6e0","title": "DSC_3853","loc": {"type": "Point","coordinates": [103.82293,1.256902]}} 
{"id": "8626144681","server": "8243","farm": "9","userId": "32342207@N04","secret": "6219eb2b1b","title": "DSC_4027","loc": {"type": "Point","coordinates": [103.823326,1.257763]}} 
{"id": "8626144697","server": "8260","farm": "9","userId": "32342207@N04","secret": "5b878bd3f6","title": "DSC_4025","loc": {"type": "Point","coordinates": [103.82311,1.257555]}} 
{"id": "8591608731","server": "8230","farm": "9","userId": "34811143@N00","secret": "14d33b505e","title": "S.E.A. Aquarium - Resorts World Sentosa","loc": {"type": "Point","coordinates": [103.82139,1.256944]}} 
{"id": "8592708930","server": "8367","farm": "9","userId": "34811143@N00","secret": "ea105b8282","title": "S.E.A. Aquarium - Resorts World Sentosa","loc": {"type": "Point","coordinates": [103.82139,1.256944]}} 
{"id": "8591609127","server": "8109","farm": "9","userId": "34811143@N00","secret": "f5c7f2d57a","title": "S.E.A. Aquarium - Resorts World Sentosa","loc": {"type": "Point","coordinates": [103.82139,1.256944]}} 
{"id": "8591598267","server": "8227","farm": "9","userId": "34811143@N00","secret": "9236861bf6","title": "S.E.A. Aquarium - Resorts World Sentosa","loc": {"type": "Point","coordinates": [103.82361,1.257222]}} 
{"id": "8582813354","server": "8247","farm": "9","userId": "42789083@N00","secret": "3e9db87176","title": "20130317-6D-100-2203","loc": {"type": "Point","coordinates": [103.82112,1.257777]}} 
{"id": "8581712645","server": "8506","farm": "9","userId": "42789083@N00","secret": "0863795260","title": "20130317-6D-100-2229","loc": {"type": "Point","coordinates": [103.82112,1.257777]}} 
{"id": "8581712599","server": "8235","farm": "9","userId": "42789083@N00","secret": "10d5b85be5","title": "20130317-6D-100-2231","loc": {"type": "Point","coordinates": [103.82112,1.257777]}} 
{"id": "8578147873","server": "8367","farm": "9","userId": "93109357@N05","secret": "899c80a34b","title": "","loc": {"type": "Point","coordinates": [103.821,1.2565]}} 
{"id": "8548341311","server": "8090","farm": "9","userId": "55486190@N00","secret": "c0c94b769a","title": "First time to #Malaysian #Food #Street! I'll be back!!","loc": {"type": "Point","coordinates": [103.82153,1.256951]}} 
{"id": "8548429696","server": "8091","farm": "9","userId": "55486190@N00","secret": "0875810124","title": "S$5.00 Lunch: Steamed Chicken #Drumstick with #Chicken #RiceBalls","loc": {"type": "Point","coordinates": [103.82153,1.256951]}} 
{"id": "8544747274","server": "8377","farm": "9","userId": "10757800@N00","secret": "228444b44f","title": "Accelerator | Universal Studios Singapore","loc": {"type": "Point","coordinates": [103.82171,1.257361]}} 
{"id": "8544714874","server": "8245","farm": "9","userId": "10757800@N00","secret": "3301202e91","title": "Treasure Hunters | Universal Studios Singapore","loc": {"type": "Point","coordinates": [103.822075,1.257211]}} 
{"id": "8527285059","server": "8102","farm": "9","userId": "10757800@N00","secret": "3b36a324f4","title": "Sesame Street: Spaghetti Space Chase | Universal Studios Singapore","loc": {"type": "Point","coordinates": [103.82199,1.257147]}} 
{"id": "8524634216","server": "8241","farm": "9","userId": "10757800@N00","secret": "b6bb720342","title": "Sesame Street: Spaghetti Space Chase | Universal Studios Singapore","loc": {"type": "Point","coordinates": [103.821434,1.257468]}} 
{"id": "8493679483","server": "8511","farm": "9","userId": "35633423@N00","secret": "d2682bdf99","title": "Sentosa","loc": {"type": "Point","coordinates": [103.82175,1.257554]}} 
{"id": "8494682486","server": "8103","farm": "9","userId": "87232327@N04","secret": "094543a029","title": "S.E.A Aquarium","loc": {"type": "Point","coordinates": [103.82141,1.256572]}} 
{"id": "8481701508","server": "8516","farm": "9","userId": "10757800@N00","secret": "0b25cf4935","title": "Werewolf | Universal Studios Singapore","loc": {"type": "Point","coordinates": [103.82206,1.257254]}} 
{"id": "8481691822","server": "8518","farm": "9","userId": "36919220@N00","secret": "e91f485803","title": "Reklame","loc": {"type": "Point","coordinates": [103.82139,1.256856]}} 
{"id": "8480575339","server": "8248","farm": "9","userId": "36919220@N00","secret": "1330b0a6dc","title": "Romero Britto","loc": {"type": "Point","coordinates": [103.82264,1.25723]}} 
{"id": "8480572789","server": "8111","farm": "9","userId": "36919220@N00","secret": "13031507de","title": "Squeaki - Romero Britto","loc": {"type": "Point","coordinates": [103.82264,1.25723]}} 
{"id": "8481570846","server": "8369","farm": "9","userId": "19454593@N00","secret": "7ce8cc0ffa","title": "IMG_0831_F","loc": {"type": "Point","coordinates": [103.821526,1.25655]}} 
{"id": "8480479603","server": "8389","farm": "9","userId": "19454593@N00","secret": "745137282f","title": "IMG_0836_F","loc": {"type": "Point","coordinates": [103.82303,1.25728]}} 
{"id": "8479646921","server": "8227","farm": "9","userId": "10757800@N00","secret": "8b7d63e89e","title": "Sesame Street: Spaghetti Space Chase | Universal Studios Singapore","loc": {"type": "Point","coordinates": [103.82249,1.256889]}} 
{"id": "8479606809","server": "8098","farm": "9","userId": "10757800@N00","secret": "f7d9e5dc80","title": "Sesame Street: Spaghetti Space Chase | Universal Studios Singapore","loc": {"type": "Point","coordinates": [103.82171,1.257597]}} 
{"id": "8475718892","server": "8520","farm": "9","userId": "54048808@N00","secret": "ceca64cd53","title": "Flower Angel II","loc": {"type": "Point","coordinates": [103.82122,1.25661]}} 
{"id": "8471361209","server": "8522","farm": "9","userId": "19454593@N00","secret": "e4768d6bf1","title": "IMG_0729_F","loc": {"type": "Point","coordinates": [103.82093,1.257422]}} 
{"id": "8463763785","server": "8510","farm": "9","userId": "60026216@N00","secret": "f023ba57e5","title": "Which way you want to go? :)","loc": {"type": "Point","coordinates": [103.82139,1.256856]}} 
{"id": "8459912975","server": "8228","farm": "9","userId": "86611549@N00","secret": "ab765ecb3a","title": "Universal Studios Singapore - Glove","loc": {"type": "Point","coordinates": [103.82126,1.256677]}} 
{"id": "8459912853","server": "8086","farm": "9","userId": "86611549@N00","secret": "4f479b2897","title": "Universal Studios Singapore - Entrance","loc": {"type": "Point","coordinates": [103.82159,1.256525]}} 
{"id": "8437657721","server": "8468","farm": "9","userId": "74855524@N00","secret": "54bb26df45","title": "Universal Globe","loc": {"type": "Point","coordinates": [103.82117,1.256833]}} 
{"id": "8436411964","server": "8098","farm": "9","userId": "91901619@N05","secret": "268cfb0dda","title": "Butterfly at Santosa","loc": {"type": "Point","coordinates": [103.82235,1.257488]}} 
{"id": "8434467617","server": "8363","farm": "9","userId": "18673521@N00","secret": "96a5c5517c","title": "Curious visitor checking out the diners in the restaurant.","loc": {"type": "Point","coordinates": [103.82113,1.256967]}} 
{"id": "8407799281","server": "8364","farm": "9","userId": "74855524@N00","secret": "454f243481","title": "Universal Studios","loc": {"type": "Point","coordinates": [103.8215,1.256666]}} 
{"id": "8408909614","server": "8055","farm": "9","userId": "74855524@N00","secret": "10770abd6c","title": "Universal Studios","loc": {"type": "Point","coordinates": [103.821,1.256833]}} 
{"id": "8399196572","server": "8324","farm": "9","userId": "92376062@N02","secret": "b00b1db291","title": "IMG_0582","loc": {"type": "Point","coordinates": [103.8215,1.257833]}} 
{"id": "8398095377","server": "8222","farm": "9","userId": "92376062@N02","secret": "d63222b806","title": "IMG_0553","loc": {"type": "Point","coordinates": [103.8215,1.257833]}} 
{"id": "8398138061","server": "8094","farm": "9","userId": "92376062@N02","secret": "d241022cf3","title": "IMG_0656","loc": {"type": "Point","coordinates": [103.821,1.256666]}} 
{"id": "8399177348","server": "8044","farm": "9","userId": "92376062@N02","secret": "5b4f79032a","title": "IMG_0548","loc": {"type": "Point","coordinates": [103.82117,1.2575]}} 
{"id": "8398110513","server": "8354","farm": "9","userId": "92376062@N02","secret": "edaf04518c","title": "IMG_0580","loc": {"type": "Point","coordinates": [103.8215,1.257833]}} 
{"id": "8398092685","server": "8232","farm": "9","userId": "92376062@N02","secret": "76567b6b03","title": "IMG_0550","loc": {"type": "Point","coordinates": [103.8215,1.257833]}} 
{"id": "8398116257","server": "8098","farm": "9","userId": "92376062@N02","secret": "d70d55bf0b","title": "IMG_0592","loc": {"type": "Point","coordinates": [103.82166,1.258]}} 
{"id": "8399220722","server": "8222","farm": "9","userId": "92376062@N02","secret": "a7722a96b0","title": "IMG_0653","loc": {"type": "Point","coordinates": [103.8215,1.257833]}} 
{"id": "8398114867","server": "8212","farm": "9","userId": "92376062@N02","secret": "5a1a25a685","title": "IMG_0588","loc": {"type": "Point","coordinates": [103.82166,1.258]}} 
{"id": "8399178132","server": "8515","farm": "9","userId": "92376062@N02","secret": "3ca9b3bd85","title": "IMG_0549","loc": {"type": "Point","coordinates": [103.821,1.2575]}} 
{"id": "8399198582","server": "8072","farm": "9","userId": "92376062@N02","secret": "9c3974edbf","title": "IMG_0586","loc": {"type": "Point","coordinates": [103.8215,1.257833]}} 
{"id": "8399199180","server": "8331","farm": "9","userId": "92376062@N02","secret": "22bd95ccb9","title": "IMG_0587","loc": {"type": "Point","coordinates": [103.82166,1.258]}} 
{"id": "8398129697","server": "8473","farm": "9","userId": "92376062@N02","secret": "1a983764d5","title": "IMG_0641","loc": {"type": "Point","coordinates": [103.82166,1.258]}} 
{"id": "8399196536","server": "8236","farm": "9","userId": "92376062@N02","secret": "f50b71b5ef","title": "IMG_0581","loc": {"type": "Point","coordinates": [103.8215,1.257833]}} 
{"id": "8398112095","server": "8192","farm": "9","userId": "92376062@N02","secret": "141ec072fc","title": "IMG_0583","loc": {"type": "Point","coordinates": [103.8215,1.257833]}} 
{"id": "8398137541","server": "8514","farm": "9","userId": "92376062@N02","secret": "077fac90c5","title": "IMG_0654","loc": {"type": "Point","coordinates": [103.8215,1.257833]}} 
{"id": "8398094085","server": "8469","farm": "9","userId": "92376062@N02","secret": "4da3ee9617","title": "IMG_0551","loc": {"type": "Point","coordinates": [103.8215,1.257833]}} 
{"id": "8399215334","server": "8334","farm": "9","userId": "92376062@N02","secret": "549572d8ac","title": "IMG_0642","loc": {"type": "Point","coordinates": [103.82166,1.258]}} 
{"id": "8398135775","server": "8365","farm": "9","userId": "92376062@N02","secret": "9cd6c986f9","title": "IMG_0652","loc": {"type": "Point","coordinates": [103.8215,1.257833]}} 
{"id": "8393733191","server": "8214","farm": "9","userId": "81682538@N03","secret": "e2d388007b","title": "The Universal Studios Park (Singapore)","loc": {"type": "Point","coordinates": [103.82109,1.256741]}} 
{"id": "8379633562","server": "8499","farm": "9","userId": "58276006@N08","secret": "5957ef85f6","title": "Jelly Fish","loc": {"type": "Point","coordinates": [103.82171,1.257329]}} 
{"id": "8379638692","server": "8359","farm": "9","userId": "58276006@N08","secret": "dc0c6b59e3","title": "","loc": {"type": "Point","coordinates": [103.8216,1.257393]}} 
{"id": "8378553173","server": "8222","farm": "9","userId": "58276006@N08","secret": "9de7086eac","title": "","loc": {"type": "Point","coordinates": [103.82173,1.25735]}} 
{"id": "8378558761","server": "8509","farm": "9","userId": "58276006@N08","secret": "60dd0ba492","title": "","loc": {"type": "Point","coordinates": [103.82173,1.25735]}} 
{"id": "8379635826","server": "8073","farm": "9","userId": "58276006@N08","secret": "d205a15b83","title": "","loc": {"type": "Point","coordinates": [103.82165,1.25735]}} 
{"id": "8378556463","server": "8049","farm": "9","userId": "58276006@N08","secret": "4d6c5c9bc7","title": "","loc": {"type": "Point","coordinates": [103.821625,1.257286]}} 
{"id": "8379637876","server": "8504","farm": "9","userId": "58276006@N08","secret": "c703ab2d88","title": "","loc": {"type": "Point","coordinates": [103.82165,1.257501]}} 
{"id": "8369809103","server": "8184","farm": "9","userId": "91175116@N02","secret": "dcc6c2f650","title": "Winky, smiley and smiley!","loc": {"type": "Point","coordinates": [103.823166,1.258]}} 
{"id": "8350154576","server": "8227","farm": "9","userId": "16102830@N05","secret": "f4c07f46b0","title": "1210_OctoberRandoms_HR_112","loc": {"type": "Point","coordinates": [103.82117,1.256666]}} 
{"id": "8349093121","server": "8185","farm": "9","userId": "16102830@N05","secret": "cdd688bc73","title": "1210_OctoberRandoms_HR_110","loc": {"type": "Point","coordinates": [103.821335,1.256666]}} 
{"id": "8345813179","server": "8497","farm": "9","userId": "16102830@N05","secret": "dfc0e69517","title": "1201_JanRandoms_HR_016","loc": {"type": "Point","coordinates": [103.823166,1.257166]}} 
{"id": "8346870280","server": "8080","farm": "9","userId": "16102830@N05","secret": "72385a5d6f","title": "1201_JanRandoms_HR_012","loc": {"type": "Point","coordinates": [103.822334,1.257333]}} 
{"id": "8346869684","server": "8363","farm": "9","userId": "16102830@N05","secret": "8faf71d0de","title": "1201_JanRandoms_HR_013","loc": {"type": "Point","coordinates": [103.823,1.257166]}} 
{"id": "8345813729","server": "8355","farm": "9","userId": "16102830@N05","secret": "17256a8840","title": "1201_JanRandoms_HR_015","loc": {"type": "Point","coordinates": [103.823166,1.257166]}} 
{"id": "8300412496","server": "8218","farm": "9","userId": "10757800@N00","secret": "033e50e91a","title": "Marine Life Park | Sentosa Island, Singapore","loc": {"type": "Point","coordinates": [103.821625,1.257533]}} 
{"id": "8296221167","server": "8357","farm": "9","userId": "10757800@N00","secret": "891e3efd30","title": "Marine Life Park | Sentosa Island, Singapore","loc": {"type": "Point","coordinates": [103.82114,1.257576]}} 
{"id": "8292902655","server": "8357","farm": "9","userId": "10757800@N00","secret": "a0b4a125eb","title": "Marine Life Park | Sentosa Island, Singapore","loc": {"type": "Point","coordinates": [103.821625,1.25749]}} 
{"id": "8274066351","server": "8203","farm": "9","userId": "10757800@N00","secret": "c58de86fba","title": "Marine Life Park | Sentosa Island, Singapore","loc": {"type": "Point","coordinates": [103.82171,1.257661]}} 
{"id": "8234237771","server": "8341","farm": "9","userId": "26173933@N00","secret": "c235d28bd6","title": "Candy Tree","loc": {"type": "Point","coordinates": [103.82092,1.256816]}} 
{"id": "8184887465","server": "8487","farm": "9","userId": "52103737@N06","secret": "1ba783e5f6","title": "Under the Ribs","loc": {"type": "Point","coordinates": [103.821014,1.256932]}} 
{"id": "8345814387","server": "8492","farm": "9","userId": "16102830@N05","secret": "84ac0c710e","title": "1201_JanRandoms_HR_014","loc": {"type": "Point","coordinates": [103.82217,1.257333]}} 
{"id": "8344714756","server": "8358","farm": "9","userId": "54048808@N00","secret": "f5b0f06e08","title": "Curved Steal","loc": {"type": "Point","coordinates": [103.821,1.258]}} 
{"id": "8317226047","server": "8077","farm": "9","userId": "90343499@N04","secret": "3eecf69258","title": "upload","loc": {"type": "Point","coordinates": [103.822754,1.257075]}} 
{"id": "8293346241","server": "8075","farm": "9","userId": "10757800@N00","secret": "e9b9c5afa8","title": "Marine Life Park | Sentosa Island, Singapore","loc": {"type": "Point","coordinates": [103.82139,1.257597]}} 
{"id": "8290845759","server": "8494","farm": "9","userId": "67158451@N06","secret": "16112ae716","title": "","loc": {"type": "Point","coordinates": [103.8215,1.2575]}} 
{"id": "8291898520","server": "8075","farm": "9","userId": "67158451@N06","secret": "7e2d620976","title": "","loc": {"type": "Point","coordinates": [103.821335,1.256666]}} 
{"id": "8283411478","server": "8496","farm": "9","userId": "25802865@N08","secret": "a659ef880e","title": "Resorts World Sentosa","loc": {"type": "Point","coordinates": [103.821335,1.257511]}} 
{"id": "8280979480","server": "8075","farm": "9","userId": "36282183@N00","secret": "9416610ece","title": "My parents-in-law :) @pujangga @hxrnix","loc": {"type": "Point","coordinates": [103.82316,1.256935]}} 
{"id": "8276053801","server": "8065","farm": "9","userId": "10757800@N00","secret": "d588cc02cd","title": "Marine Life Park | Sentosa Island, Singapore","loc": {"type": "Point","coordinates": [103.82165,1.25734]}} 
{"id": "8266111975","server": "8495","farm": "9","userId": "68788452@N00","secret": "5eceac744d","title": "Delicious","loc": {"type": "Point","coordinates": [103.82122,1.25661]}} 
{"id": "8253781891","server": "8221","farm": "9","userId": "23436061@N00","secret": "b1ac56796b","title": "Char Kway Teow! #malay #noodles #foodporn #wok #action #instagood","loc": {"type": "Point","coordinates": [103.82139,1.256856]}} 
{"id": "8254370584","server": "8208","farm": "9","userId": "8659935@N03","secret": "6ffe3dca46","title": "","loc": {"type": "Point","coordinates": [103.82294,1.257861]}} 
{"id": "8253298113","server": "8357","farm": "9","userId": "8659935@N03","secret": "b322a2a227","title": "","loc": {"type": "Point","coordinates": [103.82294,1.257861]}} 
{"id": "8253296439","server": "8340","farm": "9","userId": "8659935@N03","secret": "aed1917391","title": "","loc": {"type": "Point","coordinates": [103.82294,1.257861]}} 
{"id": "8245123171","server": "8066","farm": "9","userId": "80839252@N00","secret": "92a809374a","title": "IMG_9465.jpg","loc": {"type": "Point","coordinates": [103.82092,1.256869]}} 
{"id": "8245120159","server": "8200","farm": "9","userId": "80839252@N00","secret": "bb0abe426c","title": "IMG_9456.jpg","loc": {"type": "Point","coordinates": [103.82094,1.25685]}} 
{"id": "8246188358","server": "8200","farm": "9","userId": "80839252@N00","secret": "ddd128e9f4","title": "IMG_9458.jpg","loc": {"type": "Point","coordinates": [103.82092,1.256869]}} 
{"id": "8245125267","server": "8202","farm": "9","userId": "80839252@N00","secret": "040bb6b7db","title": "IMG_9470.jpg","loc": {"type": "Point","coordinates": [103.82092,1.256869]}} 
{"id": "8246189362","server": "8069","farm": "9","userId": "80839252@N00","secret": "f0afe33a3f","title": "IMG_9461.jpg","loc": {"type": "Point","coordinates": [103.82092,1.256869]}} 
{"id": "8246191470","server": "8198","farm": "9","userId": "80839252@N00","secret": "980514ea50","title": "IMG_9469.jpg","loc": {"type": "Point","coordinates": [103.82092,1.256869]}} 
{"id": "8245126215","server": "8066","farm": "9","userId": "80839252@N00","secret": "a853aef467","title": "IMG_9474.jpg","loc": {"type": "Point","coordinates": [103.82092,1.256869]}} 
{"id": "8245070629","server": "8346","farm": "9","userId": "80839252@N00","secret": "58d03f4695","title": "IMG_9063.jpg","loc": {"type": "Point","coordinates": [103.82111,1.256497]}} 
{"id": "8207873886","server": "8069","farm": "9","userId": "82735610@N05","secret": "ca99296df3","title": "Universal Studios Singapore","loc": {"type": "Point","coordinates": [103.82114,1.256552]}} 
{"id": "8206786709","server": "8479","farm": "9","userId": "82735610@N05","secret": "4d265c236d","title": "Kung Fu Panda","loc": {"type": "Point","coordinates": [103.821396,1.256627]}} 
{"id": "8207870432","server": "8340","farm": "9","userId": "82735610@N05","secret": "77408b3875","title": "DSC00821","loc": {"type": "Point","coordinates": [103.82124,1.256533]}} 
{"id": "8206785337","server": "8066","farm": "9","userId": "82735610@N05","secret": "064801a18a","title": "Entrance of USS","loc": {"type": "Point","coordinates": [103.82109,1.256525]}} 
{"id": "8198825029","server": "8339","farm": "9","userId": "16102830@N05","secret": "b8b73beec7","title": "121014_Gloria23Birthday_HR_003","loc": {"type": "Point","coordinates": [103.821335,1.256666]}} 
{"id": "8199919340","server": "8482","farm": "9","userId": "16102830@N05","secret": "2cdaa92cb7","title": "121014_Gloria23Birthday_HR_001","loc": {"type": "Point","coordinates": [103.821335,1.256666]}} 
{"id": "8199905906","server": "8337","farm": "9","userId": "16102830@N05","secret": "850d0dda6d","title": "121014_Gloria23Birthday_HR_021","loc": {"type": "Point","coordinates": [103.82117,1.256666]}} 
{"id": "8199906036","server": "8059","farm": "9","userId": "16102830@N05","secret": "d5c3b79281","title": "121014_Gloria23Birthday_HR_020","loc": {"type": "Point","coordinates": [103.821335,1.256666]}} 
{"id": "8195984978","server": "8062","farm": "9","userId": "53436035@N04","secret": "d9a8c041c6","title": "IMG_7590.jpg","loc": {"type": "Point","coordinates": [103.82254,1.256921]}} 
{"id": "8188201956","server": "8206","farm": "9","userId": "79539131@N00","secret": "a419105a0c","title": "Malaysia Food Street","loc": {"type": "Point","coordinates": [103.82139,1.256856]}} 
{"id": "8102239411","server": "8473","farm": "9","userId": "54079168@N05","secret": "0fa5257656","title": "Universal Studio Singapore","loc": {"type": "Point","coordinates": [103.8218,1.257404]}} 
