{"id": "9240768754","server": "7293","farm": "8","userId": "94935717@N05","secret": "6c86d76df3","title": "Wip","loc": {"type": "Point","coordinates": [103.817,1.257333]}} 
{"id": "9089194255","server": "3780","farm": "4","userId": "13137527@N07","secret": "caaea9e865","title": "Jurassic Park 4/9/2010","loc": {"type": "Point","coordinates": [103.8171,1.25793]}} 
{"id": "8994793060","server": "3812","farm": "4","userId": "25718534@N05","secret": "e82b163935","title": "wp82_130603_038","loc": {"type": "Point","coordinates": [103.81789,1.256752]}} 
{"id": "8706299618","server": "8404","farm": "9","userId": "13137527@N07","secret": "512f9208b7","title": "Ye Ad Here","loc": {"type": "Point","coordinates": [103.81737,1.257855]}} 
{"id": "8705079533","server": "8554","farm": "9","userId": "13137527@N07","secret": "f450f3ee45","title": "Cleared to Land","loc": {"type": "Point","coordinates": [103.817,1.257918]}} 
{"id": "8703387189","server": "8414","farm": "9","userId": "28322281@N03","secret": "529fb1a8ed","title": "DSC_1326.jpg","loc": {"type": "Point","coordinates": [103.817856,1.257411]}} 
{"id": "8627255738","server": "8398","farm": "9","userId": "32342207@N04","secret": "e32832424b","title": "DSC_4171","loc": {"type": "Point","coordinates": [103.81795,1.25783]}} 
{"id": "8626145623","server": "8403","farm": "9","userId": "32342207@N04","secret": "67de8f4ea9","title": "DSC_4166","loc": {"type": "Point","coordinates": [103.81777,1.256544]}} 
{"id": "8564384657","server": "8381","farm": "9","userId": "76458452@N02","secret": "8b16a8b486","title": "Singapore container port","loc": {"type": "Point","coordinates": [103.818,1.257666]}} 
{"id": "8520923346","server": "8532","farm": "9","userId": "31622897@N03","secret": "795d908ca0","title": "DSC_4134","loc": {"type": "Point","coordinates": [103.817665,1.257468]}} 
{"id": "8457651313","server": "8111","farm": "9","userId": "43213222@N06","secret": "3f3ae1de43","title": "Cable Car","loc": {"type": "Point","coordinates": [103.81632,1.257415]}} 
{"id": "8398090615","server": "8049","farm": "9","userId": "92376062@N02","secret": "ef74a54541","title": "IMG_0546","loc": {"type": "Point","coordinates": [103.817665,1.256833]}} 
{"id": "8333570831","server": "8360","farm": "9","userId": "91734108@N05","secret": "3a96ab1736","title": "singapore","loc": {"type": "Point","coordinates": [103.81783,1.257166]}} 
{"id": "8332060593","server": "8213","farm": "9","userId": "91526647@N02","secret": "dffd59ee70","title": "starter.","loc": {"type": "Point","coordinates": [103.81583,1.256496]}} 
{"id": "8284598525","server": "8064","farm": "9","userId": "17801286@N05","secret": "ebe67d4d48","title": "","loc": {"type": "Point","coordinates": [103.818,1.258]}} 
{"id": "8232166944","server": "8480","farm": "9","userId": "25802865@N08","secret": "d0c7a1691d","title": "Flowers","loc": {"type": "Point","coordinates": [103.81771,1.25661]}} 
{"id": "8144579378","server": "8191","farm": "9","userId": "8284816@N05","secret": "686575ec69","title": "","loc": {"type": "Point","coordinates": [103.81783,1.257333]}} 
{"id": "8144545527","server": "8191","farm": "9","userId": "8284816@N05","secret": "da4ac0da27","title": "","loc": {"type": "Point","coordinates": [103.81783,1.256833]}} 
