{"id": "8900805175","server": "3697","farm": "4","userId": "25897810@N00","secret": "cd212c8b3b","title": "Of the many highlights from my first day in Singapore, I'll go with this one: flying in the world's largest indoor skydiving center.","loc": {"type": "Point","coordinates": [103.81773,1.251861]}} 
{"id": "8626595549","server": "8119","farm": "9","userId": "48889054224@N01","secret": "4af91b16b6","title": "Learning aerodynamics in theory first. #kaicanfly","loc": {"type": "Point","coordinates": [103.81773,1.251861]}} 
{"id": "8626563975","server": "8245","farm": "9","userId": "48889054224@N01","secret": "b20c3f0d94","title": "Wishing they'd lower the age requirement. #kaicanfly","loc": {"type": "Point","coordinates": [103.81773,1.251861]}} 
{"id": "8567870829","server": "8517","farm": "9","userId": "74822983@N02","secret": "29a828a28a","title": "Siloso Beach sunset 2013-03-19 (IMG_2344_5_6)","loc": {"type": "Point","coordinates": [103.81549,1.252608]}} 
{"id": "8550007642","server": "8372","farm": "9","userId": "14276849@N04","secret": "43b96bd1d4","title": "@cammiteo waiting for the next flypass of the Breitling Jet Team","loc": {"type": "Point","coordinates": [103.81773,1.251861]}} 
{"id": "8541509008","server": "8383","farm": "9","userId": "14276849@N04","secret": "c810514240","title": "@cammiteo it's heavy! Haha","loc": {"type": "Point","coordinates": [103.81773,1.251861]}} 
{"id": "8393973628","server": "8500","farm": "9","userId": "25802865@N08","secret": "1a4185dd52","title": "Sentosa Luge","loc": {"type": "Point","coordinates": [103.81661,1.253113]}} 
{"id": "8317017821","server": "8213","farm": "9","userId": "7488656@N06","secret": "4522329bc5","title": "Indoor Skydiving, louco pacaralho!","loc": {"type": "Point","coordinates": [103.81773,1.251861]}} 
{"id": "8274226684","server": "8503","farm": "9","userId": "48889054224@N01","secret": "96412ff7da","title": "This is the indoor stuff. #iflyworldchamps","loc": {"type": "Point","coordinates": [103.81773,1.251861]}} 
{"id": "8273012649","server": "8059","farm": "9","userId": "48889054224@N01","secret": "dfcd5a9d7f","title": "Good day to jump out of a helicopter","loc": {"type": "Point","coordinates": [103.81773,1.251861]}} 
{"id": "8145759826","server": "8467","farm": "9","userId": "76485605@N03","secret": "cb256d647d","title": "_U0T0221.jpg","loc": {"type": "Point","coordinates": [103.818016,1.252127]}} 
{"id": "9407168150","server": "5472","farm": "6","userId": "40138859@N02","secret": "f13a2294a1","title": "She is in her hat phase now.","loc": {"type": "Point","coordinates": [103.81614,1.252285]}} 
{"id": "9375832279","server": "7292","farm": "8","userId": "98896805@N02","secret": "9d384d96f5","title": "DSCN0120.JPG","loc": {"type": "Point","coordinates": [103.817635,1.251994]}} 
{"id": "9375770053","server": "7428","farm": "8","userId": "98896805@N02","secret": "72b1102510","title": "DSCN0108.JPG","loc": {"type": "Point","coordinates": [103.81621,1.251911]}} 
{"id": "9362886437","server": "2827","farm": "3","userId": "39952962@N00","secret": "fb5c46571c","title": "Siloso Beach, Sentosa Island, Singapore","loc": {"type": "Point","coordinates": [103.815575,1.252475]}} 
{"id": "9346544419","server": "5507","farm": "6","userId": "54048808@N00","secret": "314b4e7d9b","title": "Reality is a question of perspective.","loc": {"type": "Point","coordinates": [103.81617,1.252166]}} 
{"id": "9349015574","server": "2846","farm": "3","userId": "54048808@N00","secret": "61c617be7a","title": "Day at the beach.","loc": {"type": "Point","coordinates": [103.81617,1.252166]}} 
{"id": "9271164847","server": "2881","farm": "3","userId": "35125677@N07","secret": "7485e7a65c","title": "DSC_3458_094","loc": {"type": "Point","coordinates": [103.81625,1.252255]}} 
{"id": "9273947320","server": "7311","farm": "8","userId": "35125677@N07","secret": "364681a741","title": "DSC_3459_095","loc": {"type": "Point","coordinates": [103.81592,1.252794]}} 
{"id": "9273946572","server": "2811","farm": "3","userId": "35125677@N07","secret": "bf2ec66277","title": "DSC_3474_109","loc": {"type": "Point","coordinates": [103.81633,1.252319]}} 
{"id": "9232885978","server": "7448","farm": "8","userId": "47975571@N03","secret": "fd314b2eb8","title": "Camera Roll-43","loc": {"type": "Point","coordinates": [103.81633,1.252333]}} 
{"id": "9232877170","server": "3784","farm": "4","userId": "47975571@N03","secret": "b62956bd18","title": "Camera Roll-42","loc": {"type": "Point","coordinates": [103.81633,1.252333]}} 
{"id": "9230073803","server": "5537","farm": "6","userId": "47975571@N03","secret": "320ec2afcc","title": "Camera Roll-39","loc": {"type": "Point","coordinates": [103.816,1.252333]}} 
{"id": "9232896128","server": "2890","farm": "3","userId": "47975571@N03","secret": "41dd9e6950","title": "Camera Roll-44","loc": {"type": "Point","coordinates": [103.81633,1.252333]}} 
{"id": "9230087211","server": "2888","farm": "3","userId": "47975571@N03","secret": "68350e868c","title": "Camera Roll-41","loc": {"type": "Point","coordinates": [103.81633,1.252333]}} 
{"id": "9232860152","server": "5490","farm": "6","userId": "47975571@N03","secret": "8fcbdb09fc","title": "Camera Roll-40","loc": {"type": "Point","coordinates": [103.816,1.252333]}} 
{"id": "9230066935","server": "7457","farm": "8","userId": "47975571@N03","secret": "e069ae6b71","title": "Camera Roll-38","loc": {"type": "Point","coordinates": [103.816,1.252333]}} 
{"id": "9230049281","server": "3744","farm": "4","userId": "47975571@N03","secret": "2b6216d403","title": "Camera Roll-37","loc": {"type": "Point","coordinates": [103.81617,1.252333]}} 
{"id": "9230038299","server": "3754","farm": "4","userId": "47975571@N03","secret": "68223fc8c1","title": "Camera Roll-36","loc": {"type": "Point","coordinates": [103.81617,1.252333]}} 
{"id": "9226174227","server": "5502","farm": "6","userId": "48784929@N03","secret": "139b0c696f","title": "Steve likes to throw kids. Thank goodness! #365/188","loc": {"type": "Point","coordinates": [103.81614,1.252285]}} 
{"id": "9163747675","server": "5534","farm": "6","userId": "24989432@N06","secret": "a2be71e960","title": "Me, my Lilies & Me Yapperooos â˜º","loc": {"type": "Point","coordinates": [103.81617,1.252253]}} 
{"id": "9165673618","server": "3815","farm": "4","userId": "24989432@N06","secret": "09b76a7060","title": "It was an itsy, bitsy, teenie, weenie, yellow polka-dot bikini","loc": {"type": "Point","coordinates": [103.8158,1.252585]}} 
{"id": "9163301801","server": "3676","farm": "4","userId": "24989432@N06","secret": "d717f71aba","title": "The boys just wanna have fun  @pennylanesg","loc": {"type": "Point","coordinates": [103.8158,1.252585]}} 
{"id": "9163167313","server": "7398","farm": "8","userId": "24989432@N06","secret": "83dd83d6aa","title": "The boys of @pennylanesg going sexy today at Bikini Bar","loc": {"type": "Point","coordinates": [103.8158,1.252585]}} 
{"id": "9149171801","server": "5513","farm": "6","userId": "24989432@N06","secret": "f5f3825237","title": "And we call this Tiger Twins...","loc": {"type": "Point","coordinates": [103.8158,1.252585]}} 
{"id": "9148930091","server": "5499","farm": "6","userId": "24989432@N06","secret": "065cf7a4e6","title": "And the Lilies are back at Bikini Bar \m/","loc": {"type": "Point","coordinates": [103.8158,1.252585]}} 
{"id": "8993770706","server": "8396","farm": "9","userId": "95503244@N08","secret": "e3d0840e5c","title": "IMG_0287","loc": {"type": "Point","coordinates": [103.81567,1.252333]}} 
{"id": "8992577331","server": "3763","farm": "4","userId": "95503244@N08","secret": "19cb6297b2","title": "IMG_0289","loc": {"type": "Point","coordinates": [103.81567,1.252333]}} 
{"id": "8985276663","server": "2814","farm": "3","userId": "24989432@N06","secret": "cc09e85344","title": "Tigerlilies & Fireworks by he beach is the perfect way to spend your Saturday evening","loc": {"type": "Point","coordinates": [103.81614,1.252285]}} 
{"id": "8985217535","server": "3739","farm": "4","userId": "24989432@N06","secret": "0a55e10f1c","title": "No @peklyn that's not the correct way to play the Cahon","loc": {"type": "Point","coordinates": [103.81614,1.252285]}} 
{"id": "8864648993","server": "7363","farm": "8","userId": "48501518@N04","secret": "677b393f1f","title": "Just before the rain :)","loc": {"type": "Point","coordinates": [103.81617,1.252335]}} 
{"id": "8839541130","server": "3675","farm": "4","userId": "95911167@N05","secret": "bfeb33a6fc","title": "IMG_0095","loc": {"type": "Point","coordinates": [103.8165,1.252]}} 
{"id": "8839542142","server": "5470","farm": "6","userId": "95911167@N05","secret": "d2a7364748","title": "IMG_0097","loc": {"type": "Point","coordinates": [103.8165,1.252]}} 
{"id": "8839541734","server": "2808","farm": "3","userId": "95911167@N05","secret": "737412ea18","title": "IMG_0096","loc": {"type": "Point","coordinates": [103.8165,1.252]}} 
{"id": "8762447388","server": "7335","farm": "8","userId": "52537869@N00","secret": "b03007e466","title": "Solder must obey the rule","loc": {"type": "Point","coordinates": [103.81587,1.252795]}} 
{"id": "8685760694","server": "8126","farm": "9","userId": "24989432@N06","secret": "50074e8871","title": "Tiga-Lilies doing their thang.... And we spot some bikinis","loc": {"type": "Point","coordinates": [103.8158,1.252585]}} 
{"id": "8672320018","server": "8117","farm": "9","userId": "94573077@N08","secret": "d71bc273be","title": "","loc": {"type": "Point","coordinates": [103.8155,1.252666]}} 
{"id": "8642093087","server": "8239","farm": "9","userId": "94466206@N03","secret": "111ec9d1c1","title": "Dragonfly dancing up a leaf","loc": {"type": "Point","coordinates": [103.81769,1.253006]}} 
{"id": "8626145751","server": "8385","farm": "9","userId": "32342207@N04","secret": "47ea8168c7","title": "DSC_4144","loc": {"type": "Point","coordinates": [103.8156,1.252402]}} 
{"id": "8617691709","server": "8266","farm": "9","userId": "54048808@N00","secret": "48252d43ed","title": "The Weather Forecasting Stone says it is raining.","loc": {"type": "Point","coordinates": [103.81614,1.252286]}} 
{"id": "8609231035","server": "8111","farm": "9","userId": "72725501@N03","secret": "de533527d2","title": "IMG_6811.JPG","loc": {"type": "Point","coordinates": [103.81608,1.252517]}} 
{"id": "8610337022","server": "8520","farm": "9","userId": "72725501@N03","secret": "f949b1c2c5","title": "IMG_6810.JPG","loc": {"type": "Point","coordinates": [103.81608,1.252517]}} 
{"id": "8610338934","server": "8532","farm": "9","userId": "72725501@N03","secret": "4116d924ac","title": "IMG_6812.JPG","loc": {"type": "Point","coordinates": [103.81608,1.252517]}} 
{"id": "8561459522","server": "8376","farm": "9","userId": "54048808@N00","secret": "66c8350b35","title": "Great way and place to spend the day","loc": {"type": "Point","coordinates": [103.81614,1.252286]}} 
{"id": "8560310999","server": "8380","farm": "9","userId": "54048808@N00","secret": "e7d7c858d2","title": "Saturday Sun and Clouds","loc": {"type": "Point","coordinates": [103.81614,1.252286]}} 
{"id": "8539312858","server": "8247","farm": "9","userId": "7195567@N07","secret": "06715ca557","title": "Sentosa Singapore 2011","loc": {"type": "Point","coordinates": [103.81627,1.251863]}} 
{"id": "8539312956","server": "8507","farm": "9","userId": "7195567@N07","secret": "103b998d5f","title": "Sentosa Singapore 2011","loc": {"type": "Point","coordinates": [103.816216,1.251908]}} 
{"id": "8519077450","server": "8365","farm": "9","userId": "72725501@N03","secret": "ac2bb32ce2","title": "IMG_6837.JPG","loc": {"type": "Point","coordinates": [103.81608,1.252522]}} 
{"id": "8517965991","server": "8515","farm": "9","userId": "72725501@N03","secret": "e10984e4f3","title": "IMG_6838.JPG","loc": {"type": "Point","coordinates": [103.81608,1.252522]}} 
{"id": "8517964989","server": "8101","farm": "9","userId": "72725501@N03","secret": "c163838a4f","title": "IMG_6819.JPG","loc": {"type": "Point","coordinates": [103.81608,1.252517]}} 
{"id": "8519071540","server": "8108","farm": "9","userId": "72725501@N03","secret": "9c90a86795","title": "IMG_6809.JPG","loc": {"type": "Point","coordinates": [103.81608,1.252517]}} 
{"id": "8519075654","server": "8532","farm": "9","userId": "72725501@N03","secret": "8293aaca25","title": "IMG_6818.JPG","loc": {"type": "Point","coordinates": [103.81608,1.252517]}} 
{"id": "8517961777","server": "8243","farm": "9","userId": "72725501@N03","secret": "3083383867","title": "IMG_6817.JPG","loc": {"type": "Point","coordinates": [103.81608,1.252517]}} 
{"id": "8517960261","server": "8094","farm": "9","userId": "72725501@N03","secret": "b1c01ee6d6","title": "IMG_6814.JPG","loc": {"type": "Point","coordinates": [103.81608,1.252517]}} 
{"id": "8519075084","server": "8376","farm": "9","userId": "72725501@N03","secret": "493a19d293","title": "IMG_6815.JPG","loc": {"type": "Point","coordinates": [103.81608,1.252517]}} 
{"id": "8517960799","server": "8530","farm": "9","userId": "72725501@N03","secret": "d322dec3e0","title": "IMG_6813.JPG","loc": {"type": "Point","coordinates": [103.81608,1.252517]}} 
{"id": "8506853399","server": "8381","farm": "9","userId": "9523596@N05","secret": "67c2e4961a","title": "Sentosa Island, Singapore","loc": {"type": "Point","coordinates": [103.81554,1.252425]}} 
{"id": "8393974644","server": "8085","farm": "9","userId": "25802865@N08","secret": "8c13548528","title": "Sentosa Luge","loc": {"type": "Point","coordinates": [103.81668,1.252913]}} 
{"id": "8392887273","server": "8469","farm": "9","userId": "25802865@N08","secret": "9039eebf50","title": "Sentosa Skyride","loc": {"type": "Point","coordinates": [103.81656,1.252363]}} 
{"id": "8352747578","server": "8224","farm": "9","userId": "86606207@N08","secret": "a63478423b","title": "DSC_1199","loc": {"type": "Point","coordinates": [103.81677,1.251869]}} 
{"id": "8351691895","server": "8079","farm": "9","userId": "86606207@N08","secret": "ff84b948c9","title": "enjoying","loc": {"type": "Point","coordinates": [103.81683,1.252247]}} 
{"id": "8352759452","server": "8192","farm": "9","userId": "86606207@N08","secret": "b7a7e2d0cd","title": "enjoy","loc": {"type": "Point","coordinates": [103.81694,1.252827]}} 
{"id": "8352798806","server": "8072","farm": "9","userId": "86606207@N08","secret": "6a3d59dd95","title": "DSC_1251","loc": {"type": "Point","coordinates": [103.81678,1.252086]}} 
{"id": "8352741366","server": "8078","farm": "9","userId": "86606207@N08","secret": "8e2bcb3473","title": "first stop @ skyline luge","loc": {"type": "Point","coordinates": [103.81671,1.251994]}} 
{"id": "8352764956","server": "8046","farm": "9","userId": "86606207@N08","secret": "191524ffc9","title": "scary","loc": {"type": "Point","coordinates": [103.816956,1.252972]}} 
{"id": "8351743391","server": "8188","farm": "9","userId": "86606207@N08","secret": "b8d46e92b8","title": "DSC_1255","loc": {"type": "Point","coordinates": [103.81678,1.252069]}} 
{"id": "8352801790","server": "8236","farm": "9","userId": "86606207@N08","secret": "85f46a0f66","title": "DSC_1253","loc": {"type": "Point","coordinates": [103.81677,1.25208]}} 
{"id": "8351695221","server": "8501","farm": "9","userId": "86606207@N08","secret": "8e7a062fc5","title": "DSC_1207","loc": {"type": "Point","coordinates": [103.81687,1.252477]}} 
{"id": "8351682731","server": "8334","farm": "9","userId": "86606207@N08","secret": "712fa91242","title": "DSC_1196","loc": {"type": "Point","coordinates": [103.81675,1.251863]}} 
{"id": "8351688861","server": "8329","farm": "9","userId": "86606207@N08","secret": "2a44ff8337","title": "DSC_1200","loc": {"type": "Point","coordinates": [103.81676,1.251888]}} 
{"id": "8274874964","server": "8485","farm": "9","userId": "24989432@N06","secret": "ed982f6bfe","title": "Happy Belated Fake Anniversary @peklyn :P","loc": {"type": "Point","coordinates": [103.8176,1.252068]}} 
{"id": "8252601765","server": "8063","farm": "9","userId": "76587677@N06","secret": "ab9a2700a7","title": "DSC08126","loc": {"type": "Point","coordinates": [103.817795,1.251955]}} 
{"id": "8252601401","server": "8214","farm": "9","userId": "76587677@N06","secret": "65836bced5","title": "DSC08125","loc": {"type": "Point","coordinates": [103.817795,1.251955]}} 
{"id": "8253670392","server": "8084","farm": "9","userId": "76587677@N06","secret": "bf54335739","title": "DSC08120","loc": {"type": "Point","coordinates": [103.817795,1.251955]}} 
{"id": "8252598499","server": "8078","farm": "9","userId": "76587677@N06","secret": "2c8c7bfaa5","title": "DSC08119","loc": {"type": "Point","coordinates": [103.817795,1.251955]}} 
{"id": "8252598177","server": "8500","farm": "9","userId": "76587677@N06","secret": "ab75faa313","title": "DSC08118","loc": {"type": "Point","coordinates": [103.817795,1.251955]}} 
{"id": "8252599981","server": "8080","farm": "9","userId": "76587677@N06","secret": "63d84c5c8e","title": "DSC08122","loc": {"type": "Point","coordinates": [103.817795,1.251955]}} 
{"id": "8252600619","server": "8071","farm": "9","userId": "76587677@N06","secret": "527ac8d036","title": "DSC08123","loc": {"type": "Point","coordinates": [103.817795,1.251955]}} 
{"id": "8252599445","server": "8061","farm": "9","userId": "76587677@N06","secret": "1ebb1468c4","title": "DSC08121","loc": {"type": "Point","coordinates": [103.817795,1.251955]}} 
{"id": "8250022148","server": "8483","farm": "9","userId": "24989432@N06","secret": "abd5f42247","title": "Killin' em softly....","loc": {"type": "Point","coordinates": [103.8176,1.252068]}} 
{"id": "8248918805","server": "8210","farm": "9","userId": "24989432@N06","secret": "f0e359a65d","title": "The Phoenix Rises Up From The Ground, And All These Wars Are Over \m/","loc": {"type": "Point","coordinates": [103.8176,1.252068]}} 
{"id": "8249900832","server": "8069","farm": "9","userId": "24989432@N06","secret": "26271fa696","title": "Tigerlilies Duo doing their thang :)","loc": {"type": "Point","coordinates": [103.8176,1.252068]}} 
{"id": "8148137523","server": "8330","farm": "9","userId": "36032371@N04","secret": "6461a034aa","title": "DSC01364.JPG","loc": {"type": "Point","coordinates": [103.816696,1.252391]}} 
{"id": "8144531825","server": "8050","farm": "9","userId": "8284816@N05","secret": "ab792950ee","title": "","loc": {"type": "Point","coordinates": [103.81567,1.252667]}} 
{"id": "8121157486","server": "8475","farm": "9","userId": "26071009@N04","secret": "fc4ee9b8a6","title": "Sentosa Island, Singapore","loc": {"type": "Point","coordinates": [103.81573,1.252953]}} 
{"id": "8107840654","server": "8050","farm": "9","userId": "47971089@N00","secret": "812ed336e0","title": "My first iFly experience @ Sentosa","loc": {"type": "Point","coordinates": [103.81761,1.251876]}} 
