{"id": "8517617228","server": "8107","farm": "9","userId": "25802865@N08","secret": "ac9b906459","title": "Sentosa","loc": {"type": "Point","coordinates": [103.82252,1.247929]}} 
{"id": "8517614278","server": "8375","farm": "9","userId": "25802865@N08","secret": "e9c7f399b4","title": "Sentosa","loc": {"type": "Point","coordinates": [103.82251,1.2478]}} 
{"id": "8494064725","server": "8103","farm": "9","userId": "46275416@N04","secret": "efcdbab1f9","title": "Sentosa - Palawan Beach","loc": {"type": "Point","coordinates": [103.821915,1.248546]}} 
{"id": "8495171452","server": "8105","farm": "9","userId": "46275416@N04","secret": "bbe24e2938","title": "Sentosa - Palawan Beach","loc": {"type": "Point","coordinates": [103.8222,1.248201]}} 
{"id": "8469915783","server": "8103","farm": "9","userId": "62326582@N00","secret": "76f5e00e6b","title": "Palawan Beach, Sentosa - DSC_4436","loc": {"type": "Point","coordinates": [103.82249,1.248222]}} 
{"id": "9382392981","server": "5476","farm": "6","userId": "82417989@N04","secret": "d1b7bf51e4","title": "Another awesome sunset on #Sentosa Island in #Singapore.","loc": {"type": "Point","coordinates": [103.822,1.248737]}} 
{"id": "9334195628","server": "7349","farm": "8","userId": "91963736@N02","secret": "70f278e8ee","title": "upload","loc": {"type": "Point","coordinates": [103.822,1.248737]}} 
{"id": "9107681954","server": "7389","farm": "8","userId": "91765621@N04","secret": "bb1097f382","title": "","loc": {"type": "Point","coordinates": [103.822,1.248738]}} 
{"id": "9105447821","server": "3828","farm": "4","userId": "91765621@N04","secret": "5d1d7d4ec1","title": "","loc": {"type": "Point","coordinates": [103.822,1.248738]}} 
{"id": "9107672304","server": "3711","farm": "4","userId": "91765621@N04","secret": "3e9755a9db","title": "","loc": {"type": "Point","coordinates": [103.822,1.248738]}} 
{"id": "9046171465","server": "5470","farm": "6","userId": "91963736@N02","secret": "4ac0f53b89","title": "upload","loc": {"type": "Point","coordinates": [103.821465,1.248052]}} 
{"id": "8936596455","server": "5446","farm": "6","userId": "37279068@N00","secret": "92cb94a5ac","title": "upload","loc": {"type": "Point","coordinates": [103.822,1.248737]}} 
{"id": "8851668492","server": "8544","farm": "9","userId": "33938770@N05","secret": "3760f2551a","title": "Beach and Resort, Sentosa Island, Singapore","loc": {"type": "Point","coordinates": [103.82117,1.248166]}} 
{"id": "8851019373","server": "3704","farm": "4","userId": "33938770@N05","secret": "59e2ab7862","title": "Foot Bridge on Sentosa Island, Singapore","loc": {"type": "Point","coordinates": [103.8215,1.248]}} 
{"id": "8851619762","server": "3805","farm": "4","userId": "33938770@N05","secret": "c9a8ecb455","title": "HD Panorama of Sentosa Island, Singapore","loc": {"type": "Point","coordinates": [103.8215,1.248]}} 
{"id": "8850969539","server": "5459","farm": "6","userId": "33938770@N05","secret": "ced670a934","title": "Danny at Southern Most Point of Continental Asia, Sentosa Island, Singapore","loc": {"type": "Point","coordinates": [103.8215,1.248166]}} 
{"id": "8850951101","server": "5458","farm": "6","userId": "33938770@N05","secret": "4b9ab0f23a","title": "Palawan Beach, Sentosa Island, Singapore","loc": {"type": "Point","coordinates": [103.82183,1.2485]}} 
{"id": "8749247625","server": "8553","farm": "9","userId": "73962460@N08","secret": "a3798e2c8b","title": "DSC_4931_HDR.jpg","loc": {"type": "Point","coordinates": [103.82151,1.24813]}} 
{"id": "8750370508","server": "2825","farm": "3","userId": "73962460@N08","secret": "abcd8c97f8","title": "DSC_4879.jpg","loc": {"type": "Point","coordinates": [103.822,1.248611]}} 
{"id": "8717263500","server": "7429","farm": "8","userId": "78683704@N02","secret": "5ee6ce1ce9","title": "I found a starfish lol","loc": {"type": "Point","coordinates": [103.822,1.248737]}} 
{"id": "8708852999","server": "8538","farm": "9","userId": "8870193@N03","secret": "7bbd643003","title": "Le mom and dad","loc": {"type": "Point","coordinates": [103.822,1.248737]}} 
{"id": "8702867285","server": "8119","farm": "9","userId": "13137527@N07","secret": "4b8d2745f9","title": "At Sentosa","loc": {"type": "Point","coordinates": [103.82127,1.248018]}} 
{"id": "8703988614","server": "8556","farm": "9","userId": "13137527@N07","secret": "4be5e94bc3","title": "Southern Tip of Mainland Asia","loc": {"type": "Point","coordinates": [103.82138,1.248029]}} 
{"id": "8667340605","server": "8541","farm": "9","userId": "90402353@N06","secret": "686ed94f76","title": "","loc": {"type": "Point","coordinates": [103.821205,1.248083]}} 
{"id": "8664835287","server": "8257","farm": "9","userId": "90402353@N06","secret": "0759c8dc97","title": "Calm","loc": {"type": "Point","coordinates": [103.82198,1.247364]}} 
{"id": "8664708221","server": "8248","farm": "9","userId": "90402353@N06","secret": "01289780d1","title": "Calm","loc": {"type": "Point","coordinates": [103.82198,1.247364]}} 
{"id": "8665777946","server": "8259","farm": "9","userId": "90402353@N06","secret": "1dbf0b0fb4","title": "","loc": {"type": "Point","coordinates": [103.821205,1.248083]}} 
{"id": "8664652009","server": "8265","farm": "9","userId": "90402353@N06","secret": "6897b34da5","title": "","loc": {"type": "Point","coordinates": [103.821205,1.248083]}} 
{"id": "8664642473","server": "8240","farm": "9","userId": "90402353@N06","secret": "03b098617e","title": "Calm","loc": {"type": "Point","coordinates": [103.82198,1.247364]}} 
{"id": "8665460334","server": "8262","farm": "9","userId": "96978478@N00","secret": "196d004a95","title": "#beautiful #sunset","loc": {"type": "Point","coordinates": [103.822,1.248737]}} 
{"id": "8657898296","server": "8104","farm": "9","userId": "36055891@N08","secret": "152e013a66","title": "Hello Palawan! #weather #instaweather #instaweatherpro  #sky #outdoors #nature  #instagood #photooftheday #instamood #picoftheday #instadaily #photo #instacool #instapic #picture #pic @instaplaceapp #place #earth #world #telokblangah #singapore #day #sent","loc": {"type": "Point","coordinates": [103.822,1.248737]}} 
{"id": "8644792726","server": "8403","farm": "9","userId": "7311038@N03","secret": "711781af37","title": "W13 - Couples during the day  – Project #13-52","loc": {"type": "Point","coordinates": [103.82331,1.247986]}} 
{"id": "8517654510","server": "8387","farm": "9","userId": "25802865@N08","secret": "e4acc3ed3e","title": "Warning Signs","loc": {"type": "Point","coordinates": [103.822464,1.247943]}} 
{"id": "8516501781","server": "8227","farm": "9","userId": "25802865@N08","secret": "bc9ab40b7c","title": "Sentosa","loc": {"type": "Point","coordinates": [103.822525,1.247843]}} 
{"id": "8516502203","server": "8101","farm": "9","userId": "25802865@N08","secret": "67e1351886","title": "Sentosa","loc": {"type": "Point","coordinates": [103.82246,1.24785]}} 
{"id": "8499509779","server": "8526","farm": "9","userId": "91063578@N07","secret": "52e6157a37","title": "Exotic Flowers","loc": {"type": "Point","coordinates": [103.822,1.248738]}} 
{"id": "8491524459","server": "8243","farm": "9","userId": "64807967@N03","secret": "588bd7a4e5","title": "Spring is here","loc": {"type": "Point","coordinates": [103.822174,1.248501]}} 
{"id": "8484308532","server": "8100","farm": "9","userId": "25802865@N08","secret": "a2301dcca8","title": "Cai Shen","loc": {"type": "Point","coordinates": [103.82207,1.248508]}} 
{"id": "8481524886","server": "8238","farm": "9","userId": "95362622@N00","secret": "0cd153f0ab","title": "upload","loc": {"type": "Point","coordinates": [103.822,1.248737]}} 
{"id": "8469915381","server": "8368","farm": "9","userId": "62326582@N00","secret": "73177d6592","title": "Sculpture at Palawan Beach - DSC_4418","loc": {"type": "Point","coordinates": [103.82249,1.248308]}} 
{"id": "8467229416","server": "8367","farm": "9","userId": "23692494@N08","secret": "2465942c9e","title": "2013-02-11 at 17-27-32","loc": {"type": "Point","coordinates": [103.822815,1.248136]}} 
{"id": "8467230790","server": "8387","farm": "9","userId": "23692494@N08","secret": "3ae31ee819","title": "2013-02-11 at 16-48-24","loc": {"type": "Point","coordinates": [103.82265,1.248051]}} 
{"id": "8467230398","server": "8510","farm": "9","userId": "23692494@N08","secret": "a141280939","title": "2013-02-11 at 16-56-59","loc": {"type": "Point","coordinates": [103.82278,1.248008]}} 
{"id": "8467230076","server": "8252","farm": "9","userId": "23692494@N08","secret": "06858dc7a3","title": "2013-02-11 at 16-49-56","loc": {"type": "Point","coordinates": [103.82292,1.247922]}} 
{"id": "8467229708","server": "8092","farm": "9","userId": "23692494@N08","secret": "e136ec2528","title": "2013-02-11 at 17-30-11","loc": {"type": "Point","coordinates": [103.82267,1.248072]}} 
{"id": "8467229092","server": "8244","farm": "9","userId": "23692494@N08","secret": "3497c8c381","title": "2013-02-11 at 17-26-43","loc": {"type": "Point","coordinates": [103.822624,1.248029]}} 
{"id": "8462981555","server": "8377","farm": "9","userId": "25802865@N08","secret": "2c0d3593ac","title": "Trees of Life","loc": {"type": "Point","coordinates": [103.82234,1.248716]}} 
{"id": "8462982097","server": "8516","farm": "9","userId": "25802865@N08","secret": "d45dab9db7","title": "Trees of Life","loc": {"type": "Point","coordinates": [103.822235,1.248694]}} 
{"id": "8464080468","server": "8505","farm": "9","userId": "25802865@N08","secret": "6076937991","title": "Trees of Life","loc": {"type": "Point","coordinates": [103.82233,1.248637]}} 
{"id": "8463619528","server": "8247","farm": "9","userId": "86611549@N00","secret": "d6cddab045","title": "Palawan Beach","loc": {"type": "Point","coordinates": [103.82125,1.248025]}} 
{"id": "8463620012","server": "8517","farm": "9","userId": "86611549@N00","secret": "1d4cc6d4e7","title": "Palawan Beach","loc": {"type": "Point","coordinates": [103.82125,1.248025]}} 
{"id": "8462520009","server": "8517","farm": "9","userId": "86611549@N00","secret": "f3e3d783fc","title": "Palawan Beach","loc": {"type": "Point","coordinates": [103.82184,1.248469]}} 
{"id": "8459091020","server": "8528","farm": "9","userId": "53162420@N06","secret": "9de7f10b74","title": "Flower Fest 2013","loc": {"type": "Point","coordinates": [103.822,1.248738]}} 
{"id": "8342666070","server": "8078","farm": "9","userId": "43878178@N00","secret": "c1732c8b65","title": "Sentosa Island, Singapore","loc": {"type": "Point","coordinates": [103.82217,1.248415]}} 
{"id": "8359968463","server": "8473","farm": "9","userId": "90713883@N03","secret": "51aac42880","title": "Bridge to Palawan Beach","loc": {"type": "Point","coordinates": [103.82206,1.247943]}} 
{"id": "8310179445","server": "8073","farm": "9","userId": "77113782@N08","secret": "8db07072cd","title": "最南夕陽 @ 2012.12.26","loc": {"type": "Point","coordinates": [103.821144,1.247944]}} 
{"id": "8292354961","server": "8494","farm": "9","userId": "20973095@N06","secret": "84784c7057","title": "","loc": {"type": "Point","coordinates": [103.82201,1.247483]}} 
{"id": "8273817375","server": "8358","farm": "9","userId": "48889054224@N01","secret": "432796dd45","title": "Dropping on to Sentosa just before the storm clouds close in.","loc": {"type": "Point","coordinates": [103.822,1.248737]}} 
{"id": "8144267229","server": "8190","farm": "9","userId": "46275416@N04","secret": "b36e3e1992","title": "Sentosa, Palawan Beach","loc": {"type": "Point","coordinates": [103.82188,1.248694]}} 
