{"id": "9410372063","server": "3825","farm": "4","userId": "25076731@N05","secret": "0360ed81f6","title": "Bukit Chermin Boardwalk","loc": {"type": "Point","coordinates": [103.81121,1.266393]}} 
{"id": "9413140736","server": "3691","farm": "4","userId": "25076731@N05","secret": "4b90508ff3","title": "House No 30 bungalow near Bukit Chermin","loc": {"type": "Point","coordinates": [103.810555,1.266092]}} 
{"id": "9413136980","server": "3802","farm": "4","userId": "25076731@N05","secret": "b8db43efc9","title": "Disused old jetty near Bukit Chermin Boardwalk","loc": {"type": "Point","coordinates": [103.81148,1.266403]}} 
{"id": "9221727170","server": "5327","farm": "6","userId": "13394179@N06","secret": "1bbf614471","title": "IMAG0741","loc": {"type": "Point","coordinates": [103.810974,1.2661]}} 
{"id": "9218951613","server": "2878","farm": "3","userId": "13394179@N06","secret": "12291bd3fe","title": "IMAG0736","loc": {"type": "Point","coordinates": [103.810684,1.265905]}} 
{"id": "9218951485","server": "5489","farm": "6","userId": "13394179@N06","secret": "a4d81218f6","title": "IMAG0737","loc": {"type": "Point","coordinates": [103.8107,1.265888]}} 
{"id": "9221727118","server": "5451","farm": "6","userId": "13394179@N06","secret": "d1fd0c06af","title": "IMAG0740","loc": {"type": "Point","coordinates": [103.810936,1.266072]}} 
{"id": "9221727182","server": "7447","farm": "8","userId": "13394179@N06","secret": "28e55f16df","title": "IMAG0738","loc": {"type": "Point","coordinates": [103.810814,1.266088]}} 
{"id": "9218951309","server": "2821","farm": "3","userId": "13394179@N06","secret": "308a602b32","title": "IMAG0739","loc": {"type": "Point","coordinates": [103.8109,1.266125]}} 
{"id": "9196996479","server": "7352","farm": "8","userId": "57568389@N00","secret": "b7cfc22f6c","title": "Faux Hawk Family","loc": {"type": "Point","coordinates": [103.81248,1.266714]}} 
{"id": "8726126101","server": "7293","farm": "8","userId": "69735666@N07","secret": "938e28ca0a","title": "Reflections residential complex at sunrise (D. Liebeskind, 2011)","loc": {"type": "Point","coordinates": [103.81129,1.266594]}} 
{"id": "8706717075","server": "8551","farm": "9","userId": "49269253@N00","secret": "79cf9890cf","title": "May Day JAM with Thomson Heartbeat","loc": {"type": "Point","coordinates": [103.81248,1.266715]}} 
{"id": "8706718641","server": "8135","farm": "9","userId": "49269253@N00","secret": "e6370bec87","title": "May Day JAM with Thomson Heartbeat","loc": {"type": "Point","coordinates": [103.81248,1.266715]}} 
{"id": "8706720051","server": "8544","farm": "9","userId": "49269253@N00","secret": "4aa3421f57","title": "May Day JAM with Thomson Heartbeat","loc": {"type": "Point","coordinates": [103.81248,1.266715]}} 
{"id": "8707840576","server": "8415","farm": "9","userId": "49269253@N00","secret": "b54651b5ec","title": "May Day JAM with Thomson Heartbeat","loc": {"type": "Point","coordinates": [103.81248,1.266715]}} 
{"id": "8706719283","server": "8268","farm": "9","userId": "49269253@N00","secret": "fcf10787ea","title": "May Day JAM with Thomson Heartbeat","loc": {"type": "Point","coordinates": [103.81248,1.266715]}} 
{"id": "8706716321","server": "8274","farm": "9","userId": "49269253@N00","secret": "0ed8c196cd","title": "May Day JAM with Thomson Heartbeat","loc": {"type": "Point","coordinates": [103.81248,1.266715]}} 
{"id": "8707836664","server": "8533","farm": "9","userId": "49269253@N00","secret": "44a691d7f8","title": "May Day JAM with Thomson Heartbeat","loc": {"type": "Point","coordinates": [103.81248,1.266715]}} 
{"id": "8707829958","server": "8548","farm": "9","userId": "49269253@N00","secret": "0d4a09fc3d","title": "May Day JAM with Thomson Heartbeat","loc": {"type": "Point","coordinates": [103.81248,1.266715]}} 
{"id": "8707837910","server": "8406","farm": "9","userId": "49269253@N00","secret": "e7b7bcf35e","title": "May Day JAM with Thomson Heartbeat","loc": {"type": "Point","coordinates": [103.81248,1.266715]}} 
{"id": "8707835420","server": "8132","farm": "9","userId": "49269253@N00","secret": "f9d32f2e77","title": "May Day JAM with Thomson Heartbeat","loc": {"type": "Point","coordinates": [103.81248,1.266715]}} 
{"id": "8706708723","server": "8272","farm": "9","userId": "49269253@N00","secret": "188940ee37","title": "May Day JAM with Thomson Heartbeat","loc": {"type": "Point","coordinates": [103.81248,1.266715]}} 
{"id": "8707833444","server": "8395","farm": "9","userId": "49269253@N00","secret": "69218a395d","title": "May Day JAM with Thomson Heartbeat","loc": {"type": "Point","coordinates": [103.81248,1.266715]}} 
{"id": "8707837594","server": "8135","farm": "9","userId": "49269253@N00","secret": "e3a98b7c7f","title": "May Day JAM with Thomson Heartbeat","loc": {"type": "Point","coordinates": [103.81248,1.266715]}} 
{"id": "8707834310","server": "8255","farm": "9","userId": "49269253@N00","secret": "31342e42d7","title": "May Day JAM with Thomson Heartbeat","loc": {"type": "Point","coordinates": [103.81248,1.266715]}} 
{"id": "8706712923","server": "8415","farm": "9","userId": "49269253@N00","secret": "27442a2a55","title": "May Day JAM with Thomson Heartbeat","loc": {"type": "Point","coordinates": [103.81248,1.266715]}} 
{"id": "8706707787","server": "8254","farm": "9","userId": "49269253@N00","secret": "9fc829486b","title": "May Day JAM with Thomson Heartbeat","loc": {"type": "Point","coordinates": [103.81248,1.266715]}} 
{"id": "8707835016","server": "8420","farm": "9","userId": "49269253@N00","secret": "56b230b645","title": "May Day JAM with Thomson Heartbeat","loc": {"type": "Point","coordinates": [103.81248,1.266715]}} 
{"id": "8509033335","server": "8095","farm": "9","userId": "64519864@N00","secret": "e5765f6745","title": "Reflections at Keppel Bay and the marina in front","loc": {"type": "Point","coordinates": [103.81248,1.266715]}} 
{"id": "8311196986","server": "8491","farm": "9","userId": "91235030@N05","secret": "0dedbe8ecc","title": "Love!","loc": {"type": "Point","coordinates": [103.81248,1.266714]}} 
{"id": "8310567504","server": "8498","farm": "9","userId": "91235030@N05","secret": "e082627b13","title": "She's got the looks!","loc": {"type": "Point","coordinates": [103.81248,1.266714]}} 
{"id": "8305502631","server": "8353","farm": "9","userId": "91235030@N05","secret": "e04ff116ee","title": "Bloom!","loc": {"type": "Point","coordinates": [103.81248,1.266714]}} 
{"id": "8305182555","server": "8081","farm": "9","userId": "91235030@N05","secret": "f1cfa5d0b8","title": "Joy Breakfast Morning!","loc": {"type": "Point","coordinates": [103.81248,1.266715]}} 
{"id": "8304023979","server": "8218","farm": "9","userId": "91235030@N05","secret": "c57c2fa9c7","title": "Happy Holidays!","loc": {"type": "Point","coordinates": [103.81248,1.266715]}} 
