{"id": "8755138219","server": "3665","farm": "4","userId": "14385475@N05","secret": "322f409116","title": "IMG_5801","loc": {"type": "Point","coordinates": [103.81567,1.254333]}} 
{"id": "8668095756","server": "8528","farm": "9","userId": "99942665@N00","secret": "388aa2d242","title": "_DSC8308","loc": {"type": "Point","coordinates": [103.81693,1.253693]}} 
{"id": "8668096688","server": "8539","farm": "9","userId": "99942665@N00","secret": "c24d7905ea","title": "_DSC8310","loc": {"type": "Point","coordinates": [103.81693,1.253693]}} 
{"id": "8668094270","server": "8545","farm": "9","userId": "99942665@N00","secret": "6505ec12f4","title": "_DSC8302","loc": {"type": "Point","coordinates": [103.81693,1.253693]}} 
{"id": "8668096224","server": "8522","farm": "9","userId": "99942665@N00","secret": "beb7ff5215","title": "_DSC8309","loc": {"type": "Point","coordinates": [103.81693,1.253693]}} 
{"id": "8668095228","server": "8536","farm": "9","userId": "99942665@N00","secret": "40bc2fb9d1","title": "_DSC8306","loc": {"type": "Point","coordinates": [103.81693,1.253693]}} 
{"id": "8668097064","server": "8526","farm": "9","userId": "99942665@N00","secret": "9a5951db34","title": "_DSC8317","loc": {"type": "Point","coordinates": [103.81693,1.253693]}} 
{"id": "8653857407","server": "8104","farm": "9","userId": "58438099@N04","secret": "544ed0113e","title": "Sentosa","loc": {"type": "Point","coordinates": [103.81715,1.254305]}} 
{"id": "8654964992","server": "8259","farm": "9","userId": "58438099@N04","secret": "7b4cc79335","title": "Sentosa","loc": {"type": "Point","coordinates": [103.81788,1.25455]}} 
{"id": "8653858395","server": "8122","farm": "9","userId": "58438099@N04","secret": "184bdb3f93","title": "Sentosa","loc": {"type": "Point","coordinates": [103.81713,1.254283]}} 
{"id": "8654961952","server": "8256","farm": "9","userId": "58438099@N04","secret": "78c3858133","title": "Sentosa","loc": {"type": "Point","coordinates": [103.81709,1.254236]}} 
{"id": "8653856323","server": "8121","farm": "9","userId": "58438099@N04","secret": "aa9227340d","title": "Sentosa","loc": {"type": "Point","coordinates": [103.817856,1.254533]}} 
{"id": "8653859357","server": "8264","farm": "9","userId": "58438099@N04","secret": "8f4007b8e5","title": "Sentosa","loc": {"type": "Point","coordinates": [103.817085,1.254255]}} 
{"id": "8654964022","server": "8257","farm": "9","userId": "58438099@N04","secret": "8beb928a4e","title": "Sentosa","loc": {"type": "Point","coordinates": [103.81783,1.254813]}} 
{"id": "8653855143","server": "8254","farm": "9","userId": "58438099@N04","secret": "05055fa5e4","title": "Sentosa","loc": {"type": "Point","coordinates": [103.81774,1.254652]}} 
{"id": "8563555173","server": "8089","farm": "9","userId": "60026216@N00","secret": "43c1c56359","title": "The #luge.","loc": {"type": "Point","coordinates": [103.8172,1.254354]}} 
{"id": "8552742627","server": "8095","farm": "9","userId": "55486190@N00","secret": "58f499bbf3","title": "Weee!! Up the #Sentosa #Luge #Skyride we go!  Great view of the #Straits of #Singapore and beyond.","loc": {"type": "Point","coordinates": [103.8172,1.254354]}} 
{"id": "8551273009","server": "8243","farm": "9","userId": "55486190@N00","secret": "e65ae319c2","title": "Water in a Zip Lock Bag!! ... Hee Hee  #BritishCouncil #AmazingRace 2013","loc": {"type": "Point","coordinates": [103.8172,1.254354]}} 
{"id": "8548450388","server": "8509","farm": "9","userId": "55486190@N00","secret": "9a79745ec2","title": "@sgBritish #BritishCouncil Amazing #Race Silver Team","loc": {"type": "Point","coordinates": [103.8172,1.254354]}} 
{"id": "8481576254","server": "8230","farm": "9","userId": "19454593@N00","secret": "d348763630","title": "IMG_0772_F","loc": {"type": "Point","coordinates": [103.817924,1.254336]}} 
{"id": "8481321060","server": "8098","farm": "9","userId": "95362622@N00","secret": "9eb9fcde9e","title": "upload","loc": {"type": "Point","coordinates": [103.817375,1.254482]}} 
{"id": "8416819142","server": "8236","farm": "9","userId": "54112231@N00","secret": "ae5ec6bd1e","title": "#beca #imagesofsingapore #sentosa #singapore","loc": {"type": "Point","coordinates": [103.81804,1.254348]}} 
{"id": "8416802092","server": "8194","farm": "9","userId": "54112231@N00","secret": "33093e736a","title": "#nazar #imagesofsingapore #sentosa #singapore","loc": {"type": "Point","coordinates": [103.81804,1.254348]}} 
{"id": "8394854074","server": "8186","farm": "9","userId": "9036889@N06","secret": "929a0a560e","title": "Tiger Tower at Resorts World Sentosa Singapore","loc": {"type": "Point","coordinates": [103.817665,1.254666]}} 
{"id": "8393971092","server": "8231","farm": "9","userId": "25802865@N08","secret": "b1cf06bd28","title": "Sentosa Luge and Skyride","loc": {"type": "Point","coordinates": [103.81707,1.254665]}} 
{"id": "8352783894","server": "8234","farm": "9","userId": "86606207@N08","secret": "75ba89e65e","title": "sweet sweet","loc": {"type": "Point","coordinates": [103.817276,1.25488]}} 
{"id": "8352781024","server": "8185","farm": "9","userId": "86606207@N08","secret": "63bfab3c30","title": "DSC_1236","loc": {"type": "Point","coordinates": [103.817314,1.254908]}} 
{"id": "8352789914","server": "8518","farm": "9","userId": "86606207@N08","secret": "e639e5f56b","title": "lets ride","loc": {"type": "Point","coordinates": [103.817276,1.254888]}} 
{"id": "8351734481","server": "8087","farm": "9","userId": "86606207@N08","secret": "6cdb4aa9b5","title": "nervous smile","loc": {"type": "Point","coordinates": [103.81739,1.254808]}} 
{"id": "8351731475","server": "8075","farm": "9","userId": "86606207@N08","secret": "3457cab98e","title": "DSC_1246","loc": {"type": "Point","coordinates": [103.81732,1.254897]}} 
{"id": "8352771078","server": "8331","farm": "9","userId": "86606207@N08","secret": "41ebb8e8da","title": "DSC_1220","loc": {"type": "Point","coordinates": [103.81722,1.254722]}} 
{"id": "8352786856","server": "8235","farm": "9","userId": "86606207@N08","secret": "e8109e03ca","title": "DSC_1240","loc": {"type": "Point","coordinates": [103.81727,1.25488]}} 
{"id": "8351713259","server": "8218","farm": "9","userId": "86606207@N08","secret": "866c3b137a","title": "DSC_1226","loc": {"type": "Point","coordinates": [103.81723,1.254725]}} 
{"id": "8352767278","server": "8183","farm": "9","userId": "86606207@N08","secret": "f184e5d5f4","title": "DSC_1218s","loc": {"type": "Point","coordinates": [103.81722,1.254719]}} 
{"id": "8267183182","server": "8355","farm": "9","userId": "68788452@N00","secret": "611c9f724e","title": "Smiley face","loc": {"type": "Point","coordinates": [103.81755,1.254495]}} 
{"id": "8259721002","server": "8058","farm": "9","userId": "56947085@N07","secret": "e694dc2944","title": "Sentosa 4D Magix 1","loc": {"type": "Point","coordinates": [103.817856,1.254368]}} 
{"id": "8258652849","server": "8204","farm": "9","userId": "56947085@N07","secret": "51b909bde8","title": "Sentosa 4D Magix 2","loc": {"type": "Point","coordinates": [103.817825,1.254401]}} 
{"id": "8253664998","server": "8488","farm": "9","userId": "76587677@N06","secret": "b540399e48","title": "DSC08107","loc": {"type": "Point","coordinates": [103.81729,1.254497]}} 
{"id": "8252595549","server": "8071","farm": "9","userId": "76587677@N06","secret": "783907cca2","title": "DSC08111","loc": {"type": "Point","coordinates": [103.81729,1.254497]}} 
{"id": "8252595085","server": "8479","farm": "9","userId": "76587677@N06","secret": "d24e5b91bb","title": "DSC08110","loc": {"type": "Point","coordinates": [103.81729,1.254497]}} 
{"id": "8252592851","server": "8481","farm": "9","userId": "76587677@N06","secret": "e212f4969c","title": "DSC08105","loc": {"type": "Point","coordinates": [103.81729,1.254497]}} 
{"id": "8252593221","server": "8076","farm": "9","userId": "76587677@N06","secret": "1359ccb509","title": "DSC08106","loc": {"type": "Point","coordinates": [103.81729,1.254497]}} 
{"id": "8252594591","server": "8502","farm": "9","userId": "76587677@N06","secret": "615c801367","title": "DSC08109","loc": {"type": "Point","coordinates": [103.81729,1.254497]}} 
{"id": "8253665350","server": "8066","farm": "9","userId": "76587677@N06","secret": "c42014542f","title": "DSC08108","loc": {"type": "Point","coordinates": [103.81729,1.254497]}} 
{"id": "8252588233","server": "8199","farm": "9","userId": "76587677@N06","secret": "19b96b1ca9","title": "DSC08095","loc": {"type": "Point","coordinates": [103.81729,1.254497]}} 
{"id": "8252590777","server": "8482","farm": "9","userId": "76587677@N06","secret": "57f532e39f","title": "DSC08100","loc": {"type": "Point","coordinates": [103.81729,1.254497]}} 
{"id": "8253659866","server": "8364","farm": "9","userId": "76587677@N06","secret": "9038917845","title": "DSC08096","loc": {"type": "Point","coordinates": [103.81729,1.254497]}} 
{"id": "8253661530","server": "8211","farm": "9","userId": "76587677@N06","secret": "1bd144cd34","title": "DSC08099","loc": {"type": "Point","coordinates": [103.81729,1.254497]}} 
{"id": "8253663654","server": "8202","farm": "9","userId": "76587677@N06","secret": "4bdcc95c40","title": "DSC08104","loc": {"type": "Point","coordinates": [103.81729,1.254497]}} 
{"id": "8252589095","server": "8503","farm": "9","userId": "76587677@N06","secret": "5bbcf16ff5","title": "DSC08097","loc": {"type": "Point","coordinates": [103.81729,1.254497]}} 
{"id": "8253663344","server": "8073","farm": "9","userId": "76587677@N06","secret": "91da1bc556","title": "DSC08103","loc": {"type": "Point","coordinates": [103.81729,1.254497]}} 
{"id": "8253662414","server": "8494","farm": "9","userId": "76587677@N06","secret": "a7112a5c28","title": "DSC08101","loc": {"type": "Point","coordinates": [103.81729,1.254497]}} 
{"id": "8253662850","server": "8077","farm": "9","userId": "76587677@N06","secret": "f5f6aa5468","title": "DSC08102","loc": {"type": "Point","coordinates": [103.81729,1.254497]}} 
{"id": "8144526217","server": "8474","farm": "9","userId": "8284816@N05","secret": "57a8c689b4","title": "","loc": {"type": "Point","coordinates": [103.81783,1.2545]}} 
