{"id": "9224798464","server": "5341","farm": "6","userId": "8659935@N03","secret": "8d0173f814","title": "itacho sushi","loc": {"type": "Point","coordinates": [103.78827,1.306959]}} 
{"id": "9224796880","server": "7419","farm": "8","userId": "8659935@N03","secret": "31a9f3566e","title": "itacho sushi","loc": {"type": "Point","coordinates": [103.78827,1.306959]}} 
{"id": "9224795820","server": "3725","farm": "4","userId": "8659935@N03","secret": "61f2194a59","title": "itacho sushi","loc": {"type": "Point","coordinates": [103.78827,1.306959]}} 
{"id": "9224802036","server": "5516","farm": "6","userId": "8659935@N03","secret": "80a6afcfbb","title": "itacho sushi","loc": {"type": "Point","coordinates": [103.78827,1.306959]}} 
{"id": "9222016969","server": "7394","farm": "8","userId": "8659935@N03","secret": "796cd8dbdf","title": "itacho sushi","loc": {"type": "Point","coordinates": [103.78827,1.306959]}} 
{"id": "9224794626","server": "2837","farm": "3","userId": "8659935@N03","secret": "bacc2373a0","title": "itacho sushi","loc": {"type": "Point","coordinates": [103.78827,1.306959]}} 
{"id": "9222024401","server": "2815","farm": "3","userId": "8659935@N03","secret": "34589d02b7","title": "itacho sushi","loc": {"type": "Point","coordinates": [103.78827,1.306959]}} 
{"id": "9047704196","server": "3718","farm": "4","userId": "35468141938@N01","secret": "53f34c6bd8","title": "Right tool for the right job. Multi-model transportation today as I've got appointments all over the island. Also need to clock mileage, as I've been slacking off.","loc": {"type": "Point","coordinates": [103.79046,1.30713]}} 
{"id": "8838005680","server": "3764","farm": "4","userId": "90402353@N06","secret": "1e0982b97e","title": "Buona Vista Transition","loc": {"type": "Point","coordinates": [103.791405,1.310992]}} 
{"id": "8714684048","server": "8545","farm": "9","userId": "19109134@N00","secret": "f30ba29301","title": "Aqua","loc": {"type": "Point","coordinates": [103.7889,1.306605]}} 
{"id": "8578514463","server": "8518","farm": "9","userId": "92593934@N04","secret": "3455f6b8a7","title": "Finally, a healthy meal! #sgfood #sgshiok","loc": {"type": "Point","coordinates": [103.78895,1.306526]}} 
{"id": "8464413373","server": "8232","farm": "9","userId": "77034082@N00","secret": "eed71f1b60","title": "Luna Sea : The End Of The Dream Asia Tour 2013 - Singapore","loc": {"type": "Point","coordinates": [103.78842,1.306798]}} 
{"id": "8464413523","server": "8227","farm": "9","userId": "77034082@N00","secret": "040288343d","title": "Luna Sea : The End Of The Dream Asia Tour 2013 - Singapore","loc": {"type": "Point","coordinates": [103.78842,1.306798]}} 
{"id": "8458534786","server": "8103","farm": "9","userId": "77034082@N00","secret": "a18f17e310","title": "Luna Sea : The End Of The Dream Asia Tour 2013 - Singapore","loc": {"type": "Point","coordinates": [103.78842,1.306798]}} 
{"id": "8458537380","server": "8240","farm": "9","userId": "77034082@N00","secret": "cb44fe50f6","title": "Luna Sea : The End Of The Dream Asia Tour 2013 - Singapore","loc": {"type": "Point","coordinates": [103.78842,1.306798]}} 
{"id": "8458537764","server": "8104","farm": "9","userId": "77034082@N00","secret": "06337731a6","title": "Luna Sea : The End Of The Dream Asia Tour 2013 - Singapore","loc": {"type": "Point","coordinates": [103.78842,1.306798]}} 
{"id": "8457433621","server": "8105","farm": "9","userId": "77034082@N00","secret": "d2f492a3e7","title": "Luna Sea : The End Of The Dream Asia Tour 2013 - Singapore","loc": {"type": "Point","coordinates": [103.78842,1.306798]}} 
{"id": "8458520514","server": "8098","farm": "9","userId": "77034082@N00","secret": "b96612a771","title": "Luna Sea : The End Of The Dream Asia Tour 2013 - Singapore","loc": {"type": "Point","coordinates": [103.78842,1.306798]}} 
{"id": "8457424747","server": "8095","farm": "9","userId": "77034082@N00","secret": "d09f26dfce","title": "Luna Sea : The End Of The Dream Asia Tour 2013 - Singapore","loc": {"type": "Point","coordinates": [103.78842,1.306798]}} 
{"id": "8457419729","server": "8096","farm": "9","userId": "77034082@N00","secret": "1c24b3f978","title": "Luna Sea : The End Of The Dream Asia Tour 2013 - Singapore","loc": {"type": "Point","coordinates": [103.78842,1.306798]}} 
{"id": "8458519928","server": "8388","farm": "9","userId": "77034082@N00","secret": "a960ff4e95","title": "Luna Sea : The End Of The Dream Asia Tour 2013 - Singapore","loc": {"type": "Point","coordinates": [103.78842,1.306798]}} 
{"id": "8458521722","server": "8235","farm": "9","userId": "77034082@N00","secret": "ff0a829a9c","title": "Luna Sea : The End Of The Dream Asia Tour 2013 - Singapore","loc": {"type": "Point","coordinates": [103.78842,1.306798]}} 
{"id": "8457417709","server": "8381","farm": "9","userId": "77034082@N00","secret": "b87c47ece6","title": "Luna Sea : The End Of The Dream Asia Tour 2013 - Singapore","loc": {"type": "Point","coordinates": [103.78842,1.306798]}} 
{"id": "8457427641","server": "8233","farm": "9","userId": "77034082@N00","secret": "1df0a19381","title": "Luna Sea : The End Of The Dream Asia Tour 2013 - Singapore","loc": {"type": "Point","coordinates": [103.78842,1.306798]}} 
{"id": "8457419871","server": "8516","farm": "9","userId": "77034082@N00","secret": "040d0ba946","title": "Luna Sea : The End Of The Dream Asia Tour 2013 - Singapore","loc": {"type": "Point","coordinates": [103.78842,1.306798]}} 
{"id": "8457420369","server": "8086","farm": "9","userId": "77034082@N00","secret": "da2df82c73","title": "Luna Sea : The End Of The Dream Asia Tour 2013 - Singapore","loc": {"type": "Point","coordinates": [103.78842,1.306798]}} 
{"id": "8458518330","server": "8384","farm": "9","userId": "77034082@N00","secret": "97ed8db0a5","title": "Luna Sea : The End Of The Dream Asia Tour 2013 - Singapore","loc": {"type": "Point","coordinates": [103.78842,1.306798]}} 
{"id": "8458523662","server": "8089","farm": "9","userId": "77034082@N00","secret": "0bdfa3fa65","title": "Luna Sea : The End Of The Dream Asia Tour 2013 - Singapore","loc": {"type": "Point","coordinates": [103.78842,1.306798]}} 
{"id": "8458529678","server": "8513","farm": "9","userId": "77034082@N00","secret": "2792d9acbf","title": "Luna Sea : The End Of The Dream Asia Tour 2013 - Singapore","loc": {"type": "Point","coordinates": [103.78842,1.306798]}} 
{"id": "8457420133","server": "8101","farm": "9","userId": "77034082@N00","secret": "f8ebf8e632","title": "Luna Sea : The End Of The Dream Asia Tour 2013 - Singapore","loc": {"type": "Point","coordinates": [103.78842,1.306798]}} 
{"id": "8457418459","server": "8090","farm": "9","userId": "77034082@N00","secret": "4e89399501","title": "Luna Sea : The End Of The Dream Asia Tour 2013 - Singapore","loc": {"type": "Point","coordinates": [103.78842,1.306798]}} 
{"id": "8457421521","server": "8241","farm": "9","userId": "77034082@N00","secret": "884c98d1ae","title": "Luna Sea : The End Of The Dream Asia Tour 2013 - Singapore","loc": {"type": "Point","coordinates": [103.78842,1.306798]}} 
{"id": "8457419241","server": "8242","farm": "9","userId": "77034082@N00","secret": "68a7316293","title": "Luna Sea : The End Of The Dream Asia Tour 2013 - Singapore","loc": {"type": "Point","coordinates": [103.78842,1.306798]}} 
{"id": "8458522476","server": "8087","farm": "9","userId": "77034082@N00","secret": "3bce2681a4","title": "Luna Sea : The End Of The Dream Asia Tour 2013 - Singapore","loc": {"type": "Point","coordinates": [103.78842,1.306798]}} 
{"id": "8458530032","server": "8097","farm": "9","userId": "77034082@N00","secret": "2b7020b692","title": "Luna Sea : The End Of The Dream Asia Tour 2013 - Singapore","loc": {"type": "Point","coordinates": [103.78842,1.306798]}} 
{"id": "8458509942","server": "8095","farm": "9","userId": "77034082@N00","secret": "008fd53278","title": "Luna Sea : The End Of The Dream Asia Tour 2013 - Singapore","loc": {"type": "Point","coordinates": [103.78842,1.306798]}} 
{"id": "9442263648","server": "7394","farm": "8","userId": "96909191@N06","secret": "f322fff2ed","title": "Okie I'm gonna try to publish a how to draw on train ebook next. But basically this is my pov most of the time and I would rotate along whenever I need to go panorama. It isn't all accurate and most of the time I just.implement with drawing knowledge gath","loc": {"type": "Point","coordinates": [103.79046,1.30713]}} 
{"id": "9435470556","server": "3810","farm": "4","userId": "96909191@N06","secret": "fcd23c566d","title": "How do I train on the train ? Won't people be angry ? The answer : no one gives a darn ;).#Singapore  #smrt  #singaporeartists #urbansketchers #usksg #urbansketch #drawings #doodles #sketching #sketches #art #sketchbook #train #subway #instagreat #instaar","loc": {"type": "Point","coordinates": [103.79046,1.30713]}} 
{"id": "9427068352","server": "7387","farm": "8","userId": "14932126@N08","secret": "7975801782","title": "","loc": {"type": "Point","coordinates": [103.79,1.306333]}} 
{"id": "9427071596","server": "2830","farm": "3","userId": "14932126@N08","secret": "d67b6b34ff","title": "","loc": {"type": "Point","coordinates": [103.78433,1.307833]}} 
{"id": "9424307823","server": "5477","farm": "6","userId": "14932126@N08","secret": "64593b58ab","title": "","loc": {"type": "Point","coordinates": [103.78433,1.307833]}} 
{"id": "9424312165","server": "7349","farm": "8","userId": "14932126@N08","secret": "ec7324babc","title": "","loc": {"type": "Point","coordinates": [103.7845,1.307833]}} 
{"id": "9427070176","server": "5339","farm": "6","userId": "14932126@N08","secret": "7b9120ef07","title": "","loc": {"type": "Point","coordinates": [103.784164,1.31]}} 
{"id": "9427078386","server": "3823","farm": "4","userId": "14932126@N08","secret": "bcbcf44977","title": "","loc": {"type": "Point","coordinates": [103.78433,1.307833]}} 
{"id": "9424314101","server": "7447","farm": "8","userId": "14932126@N08","secret": "657dc9f554","title": "","loc": {"type": "Point","coordinates": [103.78733,1.310333]}} 
{"id": "9421289129","server": "2839","farm": "3","userId": "57326414@N00","secret": "e44c5776b7","title": "#xx","loc": {"type": "Point","coordinates": [103.78953,1.306342]}} 
{"id": "9421163715","server": "3738","farm": "4","userId": "38662956@N00","secret": "816c9b377b","title": "The xx through binoculars","loc": {"type": "Point","coordinates": [103.78932,1.30638]}} 
{"id": "9423731186","server": "2837","farm": "3","userId": "74006149@N07","secret": "5505f1ec45","title": "I am yours now.... #thexx  #live #sg","loc": {"type": "Point","coordinates": [103.78953,1.306342]}} 
{"id": "9419926321","server": "3717","farm": "4","userId": "74006149@N07","secret": "5229e96636","title": "#thexx","loc": {"type": "Point","coordinates": [103.78953,1.306342]}} 
{"id": "9414368051","server": "2878","farm": "3","userId": "39824929@N00","secret": "d9126486be","title": "The XX in Singapore. #thexx #singapore #instamusic #instagood #webstagram #jj #sgig","loc": {"type": "Point","coordinates": [103.78932,1.30638]}} 
{"id": "9417139542","server": "5322","farm": "6","userId": "39824929@N00","secret": "c6dd96d268","title": "The XX in Singapore. #thexx #singapore #instamusic #instagood #webstagram #jj #sgig","loc": {"type": "Point","coordinates": [103.78932,1.30638]}} 
{"id": "9417117434","server": "5328","farm": "6","userId": "39824929@N00","secret": "655dac2e52","title": "The XX in Singapore. #thexx #singapore #instamusic #instagood #webstagram #jj #sgig","loc": {"type": "Point","coordinates": [103.78932,1.30638]}} 
{"id": "9413033843","server": "5442","farm": "6","userId": "39824929@N00","secret": "7f0a9e7f44","title": "The gig before the actual act. #happiness #thexx #sgig #singapore #indie #music #igsg #instaconcert #instamusic #webstagram #willow #jj #bnw","loc": {"type": "Point","coordinates": [103.78932,1.30638]}} 
{"id": "9412244487","server": "7366","farm": "8","userId": "67696423@N03","secret": "c01b545ed5","title": "SERS GHIM MOH ESTATE","loc": {"type": "Point","coordinates": [103.78716,1.308166]}} 
{"id": "9404643585","server": "2874","farm": "3","userId": "96364464@N05","secret": "6cbbe3817c","title": "My sporty girl, Nicole.","loc": {"type": "Point","coordinates": [103.78663,1.308527]}} 
{"id": "9379839877","server": "3807","farm": "4","userId": "28564685@N06","secret": "f4a77e74b3","title": "Chip bee","loc": {"type": "Point","coordinates": [103.79265,1.312782]}} 
{"id": "9367856021","server": "7315","farm": "8","userId": "96909191@N06","secret": "68d7f90408","title": "I got my brand new lamy2000. I'm in love and I'm taking her for a ride. So smooth it's unreal. So smooth . #lamy2000 #lamy #fountainpen #urbansketchers #usksg #Singapore #art #doodles #sketchbook #people #lady #Singapore #train #mrt #sketch #sketching #dr","loc": {"type": "Point","coordinates": [103.78932,1.30638]}} 
{"id": "9324825615","server": "5536","farm": "6","userId": "37631879@N03","secret": "f9ae966c88","title": "Iberico Cold cut trio, wasabi calamari and icy chardonnay.","loc": {"type": "Point","coordinates": [103.78789,1.306444]}} 
{"id": "9324436139","server": "3706","farm": "4","userId": "37631879@N03","secret": "159eefdbf4","title": "黑圆嫩仙草冰","loc": {"type": "Point","coordinates": [103.788445,1.306766]}} 
{"id": "9323196869","server": "2856","farm": "3","userId": "35468141938@N01","secret": "440ec2e70b","title": "Finally settling down for Annie's famous peanut ice kachang which moved to Ghim Moh. Soon after I parked my bike, a senior gentleman observed and came forward, and spent an hour in the hot sun, chatting with me about being happy in Singapore, and how seve","loc": {"type": "Point","coordinates": [103.787964,1.310868]}} 
{"id": "9317125639","server": "5347","farm": "6","userId": "14385475@N05","secret": "8e60ed92a6","title": "IMG_8987","loc": {"type": "Point","coordinates": [103.790665,1.306333]}} 
{"id": "9286145657","server": "3702","farm": "4","userId": "25530545@N04","secret": "3edf15a71f","title": "2013-07-02 at 19-22-32","loc": {"type": "Point","coordinates": [103.793335,1.3065]}} 
{"id": "9286147529","server": "2839","farm": "3","userId": "25530545@N04","secret": "a421a1446b","title": "2013-07-02 at 19-26-56","loc": {"type": "Point","coordinates": [103.792,1.307333]}} 
{"id": "9288924322","server": "3740","farm": "4","userId": "25530545@N04","secret": "7708fe9eb3","title": "2013-07-02 at 19-26-58","loc": {"type": "Point","coordinates": [103.792,1.307333]}} 
{"id": "9286145005","server": "7352","farm": "8","userId": "25530545@N04","secret": "156e2cde7f","title": "2013-07-02 at 19-22-28","loc": {"type": "Point","coordinates": [103.793335,1.3065]}} 
{"id": "9286146877","server": "3710","farm": "4","userId": "25530545@N04","secret": "022968317d","title": "2013-07-02 at 19-25-10","loc": {"type": "Point","coordinates": [103.792336,1.306333]}} 
{"id": "9286146213","server": "7328","farm": "8","userId": "25530545@N04","secret": "a5cc8e8f5f","title": "2013-07-02 at 19-25-06","loc": {"type": "Point","coordinates": [103.792336,1.306333]}} 
{"id": "9283535912","server": "3708","farm": "4","userId": "64242507@N00","secret": "6be82567a3","title": "","loc": {"type": "Point","coordinates": [103.788994,1.306331]}} 
{"id": "9283546046","server": "3777","farm": "4","userId": "64242507@N00","secret": "a737e4d755","title": "","loc": {"type": "Point","coordinates": [103.788994,1.306331]}} 
{"id": "9280764029","server": "3792","farm": "4","userId": "64242507@N00","secret": "cb4324bab3","title": "","loc": {"type": "Point","coordinates": [103.788994,1.306331]}} 
{"id": "9280760923","server": "3834","farm": "4","userId": "64242507@N00","secret": "df7f5b098b","title": "","loc": {"type": "Point","coordinates": [103.788994,1.306331]}} 
{"id": "9283538512","server": "7288","farm": "8","userId": "64242507@N00","secret": "f3332891fd","title": "","loc": {"type": "Point","coordinates": [103.788994,1.306331]}} 
{"id": "9283545228","server": "2873","farm": "3","userId": "64242507@N00","secret": "5757eb0a30","title": "","loc": {"type": "Point","coordinates": [103.788994,1.306331]}} 
{"id": "9280768309","server": "7338","farm": "8","userId": "64242507@N00","secret": "9f4913dd71","title": "","loc": {"type": "Point","coordinates": [103.788994,1.306331]}} 
{"id": "9283546666","server": "7337","farm": "8","userId": "64242507@N00","secret": "0faa92c8a8","title": "","loc": {"type": "Point","coordinates": [103.788994,1.306331]}} 
{"id": "9283544484","server": "3706","farm": "4","userId": "64242507@N00","secret": "71b144a487","title": "","loc": {"type": "Point","coordinates": [103.788994,1.306331]}} 
{"id": "9280762313","server": "2833","farm": "3","userId": "64242507@N00","secret": "32172f9303","title": "","loc": {"type": "Point","coordinates": [103.788994,1.306331]}} 
{"id": "9283535348","server": "3736","farm": "4","userId": "64242507@N00","secret": "2e6f7e0041","title": "","loc": {"type": "Point","coordinates": [103.788994,1.306331]}} 
{"id": "9283534364","server": "3827","farm": "4","userId": "64242507@N00","secret": "b1f6a6e0bb","title": "","loc": {"type": "Point","coordinates": [103.788994,1.306331]}} 
{"id": "9280761951","server": "7460","farm": "8","userId": "64242507@N00","secret": "259d9e41f2","title": "","loc": {"type": "Point","coordinates": [103.788994,1.306331]}} 
{"id": "9280769523","server": "5484","farm": "6","userId": "64242507@N00","secret": "da1032d6f2","title": "","loc": {"type": "Point","coordinates": [103.788994,1.306331]}} 
{"id": "9280771813","server": "3754","farm": "4","userId": "64242507@N00","secret": "01fa051a72","title": "","loc": {"type": "Point","coordinates": [103.788994,1.306331]}} 
{"id": "9280773331","server": "5463","farm": "6","userId": "64242507@N00","secret": "5d88ab9492","title": "","loc": {"type": "Point","coordinates": [103.788994,1.306331]}} 
{"id": "9283540428","server": "3684","farm": "4","userId": "64242507@N00","secret": "dcd6d51a58","title": "","loc": {"type": "Point","coordinates": [103.788994,1.306331]}} 
{"id": "9280758845","server": "5467","farm": "6","userId": "64242507@N00","secret": "be710fc027","title": "","loc": {"type": "Point","coordinates": [103.788994,1.306331]}} 
{"id": "9280770669","server": "3727","farm": "4","userId": "64242507@N00","secret": "2c64e351f3","title": "","loc": {"type": "Point","coordinates": [103.788994,1.306331]}} 
{"id": "9283537362","server": "7345","farm": "8","userId": "64242507@N00","secret": "6997fc61a0","title": "","loc": {"type": "Point","coordinates": [103.788994,1.306331]}} 
{"id": "9283543706","server": "3693","farm": "4","userId": "64242507@N00","secret": "f80f215a16","title": "","loc": {"type": "Point","coordinates": [103.788994,1.306331]}} 
{"id": "9280770019","server": "5524","farm": "6","userId": "64242507@N00","secret": "bff6e662dd","title": "","loc": {"type": "Point","coordinates": [103.788994,1.306331]}} 
{"id": "9277333442","server": "2818","farm": "3","userId": "96909191@N06","secret": "29e13c3180","title": "I haven't finish but woohoo I got luxury cabin with space air and speed. Check it out live ;) #urbansketchers #urbansketch #usksg #Singapore #art #singaporeart #drawing #drawings #sketches #mrt #sketchbook #moleskine #fast #gestures #fastsketch #cherngzhi","loc": {"type": "Point","coordinates": [103.784775,1.307683]}} 
{"id": "9275241406","server": "7291","farm": "8","userId": "35468141938@N01","secret": "2ac558774d","title": "Tokyo: Day 4 - 021","loc": {"type": "Point","coordinates": [103.786835,1.308333]}} 
{"id": "9227113850","server": "2884","farm": "3","userId": "91996050@N03","secret": "8aa5a82065","title": "upload","loc": {"type": "Point","coordinates": [103.787636,1.309507]}} 
{"id": "9220297911","server": "2880","farm": "3","userId": "91996050@N03","secret": "54be20cc2c","title": "The crap that blk 17 gets every fucking day making it a hassle and inconvenience for residents. Fuckers.","loc": {"type": "Point","coordinates": [103.787636,1.309507]}} 
{"id": "9215606439","server": "2805","farm": "3","userId": "91996050@N03","secret": "dbbf78d326","title": "The school bag I had about 13 years ago till now. #oldschool #acdc #metallica","loc": {"type": "Point","coordinates": [103.787636,1.309507]}} 
{"id": "9197496107","server": "5323","farm": "6","userId": "96364464@N05","secret": "2f60b0b515","title": "Cute kiddo.","loc": {"type": "Point","coordinates": [103.78932,1.30638]}} 
{"id": "9197492059","server": "7390","farm": "8","userId": "96364464@N05","secret": "8c75ff3dde","title": "The show I worn when I started the whole thing running. Now, I'm doing it once again, all over again.","loc": {"type": "Point","coordinates": [103.78932,1.30638]}} 
{"id": "9192436068","server": "3827","farm": "4","userId": "41894167963@N01","secret": "4a17c2cc57","title": "Turkey night","loc": {"type": "Point","coordinates": [103.793,1.311666]}} 
{"id": "9189641095","server": "5459","farm": "6","userId": "41894167963@N01","secret": "b019f49c9d","title": "Turkey night","loc": {"type": "Point","coordinates": [103.79083,1.312666]}} 
{"id": "9180466340","server": "7302","farm": "8","userId": "96364464@N05","secret": "5a209557fb","title": "Happy train ride","loc": {"type": "Point","coordinates": [103.79299,1.309046]}} 
{"id": "9174973958","server": "5509","farm": "6","userId": "59643493@N00","secret": "3b9336337b","title": "upload","loc": {"type": "Point","coordinates": [103.79265,1.312782]}} 
{"id": "9092476640","server": "5488","farm": "6","userId": "14385475@N05","secret": "e1bc3a2296","title": "IMG_7162","loc": {"type": "Point","coordinates": [103.79034,1.306666]}} 
{"id": "9092469602","server": "5461","farm": "6","userId": "14385475@N05","secret": "fbfb73068b","title": "IMG_7159","loc": {"type": "Point","coordinates": [103.79034,1.3065]}} 
{"id": "9092402540","server": "7325","farm": "8","userId": "14385475@N05","secret": "4619f6c4f8","title": "IMG_7161","loc": {"type": "Point","coordinates": [103.79034,1.306666]}} 
{"id": "9092393318","server": "3669","farm": "4","userId": "14385475@N05","secret": "aba7b3a186","title": "IMG_7160","loc": {"type": "Point","coordinates": [103.79034,1.306666]}} 
{"id": "9092410082","server": "5512","farm": "6","userId": "14385475@N05","secret": "bb44781c02","title": "IMG_7164","loc": {"type": "Point","coordinates": [103.79034,1.306666]}} 
{"id": "9044490207","server": "7320","farm": "8","userId": "65778609@N03","secret": "37d385176d","title": "Star Vista","loc": {"type": "Point","coordinates": [103.79117,1.30683]}} 
{"id": "9012089843","server": "2835","farm": "3","userId": "49484090@N04","secret": "603850fed7","title": "I thought I was about to get on board of a spaceship. #architecture","loc": {"type": "Point","coordinates": [103.78932,1.30638]}} 
{"id": "9005864881","server": "5442","farm": "6","userId": "28564685@N06","secret": "d9c3945336","title": "Love me too...","loc": {"type": "Point","coordinates": [103.79265,1.312782]}} 
{"id": "9007058182","server": "3802","farm": "4","userId": "28564685@N06","secret": "32e9f56338","title": "Oh, it gets better!","loc": {"type": "Point","coordinates": [103.79265,1.312782]}} 
{"id": "8992648028","server": "3708","farm": "4","userId": "23108269@N05","secret": "563188e7a2","title": "DSC00380","loc": {"type": "Point","coordinates": [103.7891,1.307261]}} 
{"id": "8992646248","server": "3779","farm": "4","userId": "23108269@N05","secret": "6fe5101ae4","title": "DSC00375","loc": {"type": "Point","coordinates": [103.7906,1.306841]}} 
{"id": "8995222100","server": "7384","farm": "8","userId": "69379954@N08","secret": "505c2f1838","title": "Salmon salmon","loc": {"type": "Point","coordinates": [103.788956,1.307109]}} 
{"id": "8995230298","server": "2806","farm": "3","userId": "69379954@N08","secret": "74e27f161f","title": "If this was skin","loc": {"type": "Point","coordinates": [103.78897,1.307131]}} 
{"id": "8993931503","server": "7302","farm": "8","userId": "69379954@N08","secret": "e491302dfd","title": "Green stuff is spinach","loc": {"type": "Point","coordinates": [103.78964,1.306499]}} 
{"id": "8985830878","server": "7316","farm": "8","userId": "28564685@N06","secret": "e20da44067","title": "Little ale for sunset @thomask","loc": {"type": "Point","coordinates": [103.79265,1.312782]}} 
{"id": "8984621063","server": "3725","farm": "4","userId": "28564685@N06","secret": "cdb6f78182","title": "Full belly, be happy","loc": {"type": "Point","coordinates": [103.79265,1.312782]}} 
{"id": "8981891403","server": "3768","farm": "4","userId": "49098167@N07","secret": "a29298ac31","title": "After the Movie Orchestra :)... Thanks for accompanying me to watch this event :)","loc": {"type": "Point","coordinates": [103.78887,1.306563]}} 
{"id": "8976333015","server": "5333","farm": "6","userId": "35468141938@N01","secret": "882b2df331","title": "Lord of the Rings. Hope I can last four hours man!","loc": {"type": "Point","coordinates": [103.78887,1.306563]}} 
{"id": "8977430266","server": "2845","farm": "3","userId": "49098167@N07","secret": "553b809713","title": "Let's us immerse ourselves to the music :)","loc": {"type": "Point","coordinates": [103.78887,1.30631]}} 
{"id": "8976136203","server": "2878","farm": "3","userId": "49098167@N07","secret": "709d68ddf3","title": "Journey to Middle Earth, Here I come!! :)","loc": {"type": "Point","coordinates": [103.78887,1.30631]}} 
{"id": "8976078763","server": "3770","farm": "4","userId": "49098167@N07","secret": "42dd6e875d","title": "First time trying this combination: Century Egg Tofu.","loc": {"type": "Point","coordinates": [103.789024,1.306984]}} 
{"id": "8977216846","server": "7415","farm": "8","userId": "49098167@N07","secret": "42422c8da7","title": "Natural Beauty :)","loc": {"type": "Point","coordinates": [103.78887,1.30631]}} 
{"id": "8974773117","server": "8136","farm": "9","userId": "28564685@N06","secret": "99021d5894","title": "Happy in my basket","loc": {"type": "Point","coordinates": [103.79265,1.312782]}} 
{"id": "8974203911","server": "2884","farm": "3","userId": "26007569@N03","secret": "7c0f8e1ed5","title": "Gaano kaya kaanghang ang Papaya Pok Pok? Lol","loc": {"type": "Point","coordinates": [103.7884,1.306959]}} 
{"id": "8967244714","server": "7350","farm": "8","userId": "28564685@N06","secret": "e79505d15b","title": "My #vinyloftheday for sure! Just arrived in the mail form @bleeppics","loc": {"type": "Point","coordinates": [103.79265,1.312782]}} 
{"id": "8958538486","server": "2868","farm": "3","userId": "91996050@N03","secret": "4ca82e8546","title": "Because I have decided for another alternative. Any takers for my lamp!? Name me a price! #vespalamp #vespa","loc": {"type": "Point","coordinates": [103.788216,1.310491]}} 
{"id": "8949534058","server": "2870","farm": "3","userId": "65988653@N00","secret": "f15d81c5d3","title": "The Star Vista","loc": {"type": "Point","coordinates": [103.78899,1.306986]}} 
{"id": "8949533704","server": "8398","farm": "9","userId": "65988653@N00","secret": "0136b2fec2","title": "The Star Vista","loc": {"type": "Point","coordinates": [103.788246,1.306825]}} 
{"id": "8908931317","server": "7434","farm": "8","userId": "92593934@N04","secret": "61d32d5bfd","title": "Delicious make-your-own grilled pork skewer Vietnamese rice paper rolls!","loc": {"type": "Point","coordinates": [103.78848,1.307002]}} 
{"id": "8900607053","server": "7289","farm": "8","userId": "43069313@N00","secret": "f7c326547e","title": "Curry crab!!","loc": {"type": "Point","coordinates": [103.78886,1.311261]}} 
{"id": "8900565813","server": "7424","farm": "8","userId": "69379954@N08","secret": "016e44d00f","title": "The xx","loc": {"type": "Point","coordinates": [103.78943,1.306266]}} 
{"id": "8837423385","server": "3683","farm": "4","userId": "90402353@N06","secret": "267dc008ef","title": "Buona Vista Sunset - edited","loc": {"type": "Point","coordinates": [103.791405,1.310992]}} 
{"id": "8829396852","server": "8268","farm": "9","userId": "90402353@N06","secret": "fcf2387382","title": "Buona Vista Sunset","loc": {"type": "Point","coordinates": [103.791405,1.310992]}} 
{"id": "8827924490","server": "2805","farm": "3","userId": "77714914@N07","secret": "132ce2cb54","title": "Dessert Devoured","loc": {"type": "Point","coordinates": [103.78818,1.306964]}} 
{"id": "8827921268","server": "7439","farm": "8","userId": "77714914@N07","secret": "ba66bde153","title": "Interior Architectual","loc": {"type": "Point","coordinates": [103.78814,1.30675]}} 
{"id": "8826761654","server": "3746","farm": "4","userId": "48412889@N02","secret": "3320712639","title": "XTJ_5277-Edit.jpg","loc": {"type": "Point","coordinates": [103.79146,1.311125]}} 
{"id": "8814966239","server": "2826","farm": "3","userId": "48412889@N02","secret": "d70a0eee11","title": "XTJ_5277.jpg","loc": {"type": "Point","coordinates": [103.79146,1.311125]}} 
{"id": "8825562402","server": "5325","farm": "6","userId": "48412889@N02","secret": "432d9f6d26","title": "XTJ_5278.jpg","loc": {"type": "Point","coordinates": [103.79146,1.311125]}} 
{"id": "8814975179","server": "7361","farm": "8","userId": "48412889@N02","secret": "023c4c9a6b","title": "XTJ_5283.jpg","loc": {"type": "Point","coordinates": [103.79146,1.311125]}} 
{"id": "8824990298","server": "8129","farm": "9","userId": "55486190@N00","secret": "9f1f55b2e6","title": "#Schweinshaxn #German #Pork #Knuckle @Brotzeit_SG: Crispy hind shank of grain fed pork served with potato salad, #sauerkraut and homemade sauce on the side","loc": {"type": "Point","coordinates": [103.78847,1.306873]}} 
{"id": "8824237698","server": "7431","farm": "8","userId": "55486190@N00","secret": "10830e47d6","title": "#Schwarzer: #Weissbier with #Cola @Brotzeit_SG, an interesting #Beer mix","loc": {"type": "Point","coordinates": [103.78847,1.306873]}} 
{"id": "8813588497","server": "3668","farm": "4","userId": "55486190@N00","secret": "5089b09703","title": "#Schwarzer: #Weissbier with #Cola @Brotzeit_SG, an interesting #Beer mix","loc": {"type": "Point","coordinates": [103.78847,1.306873]}} 
{"id": "8813561287","server": "3693","farm": "4","userId": "55486190@N00","secret": "a95b2f12ae","title": "#Schwarzer: #Weissbier with #Cola @Brotzeit_SG, an interesting #Beer mix","loc": {"type": "Point","coordinates": [103.78847,1.306873]}} 
{"id": "8778343779","server": "3735","farm": "4","userId": "91963736@N02","secret": "897cf955da","title": "upload","loc": {"type": "Point","coordinates": [103.78932,1.30638]}} 
{"id": "8754985365","server": "8550","farm": "9","userId": "14385475@N05","secret": "489a1841fb","title": "IMG_5780","loc": {"type": "Point","coordinates": [103.783,1.308833]}} 
{"id": "8728376748","server": "7308","farm": "8","userId": "34811143@N00","secret": "61518df952","title": "Cycling around Singapore, 1st Attempt - 11 May 2013","loc": {"type": "Point","coordinates": [103.78778,1.306944]}} 
{"id": "8703760559","server": "8135","farm": "9","userId": "14932126@N08","secret": "0469e461d1","title": "","loc": {"type": "Point","coordinates": [103.79266,1.3115]}} 
{"id": "8703760107","server": "8397","farm": "9","userId": "14932126@N08","secret": "5343c3d667","title": "","loc": {"type": "Point","coordinates": [103.791664,1.3115]}} 
{"id": "8703759673","server": "8135","farm": "9","userId": "14932126@N08","secret": "20f5315380","title": "","loc": {"type": "Point","coordinates": [103.79,1.306666]}} 
{"id": "8700939331","server": "8407","farm": "9","userId": "73345223@N03","secret": "99b5e829b2","title": "chicken noodle @ ghim moh food centre","loc": {"type": "Point","coordinates": [103.78833,1.311]}} 
{"id": "8696049226","server": "8400","farm": "9","userId": "69379954@N08","secret": "126f2ff428","title": "Coffee tea ice red bean","loc": {"type": "Point","coordinates": [103.78944,1.30627]}} 
{"id": "8690945867","server": "8397","farm": "9","userId": "50667129@N00","secret": "050a678e66","title": "day 119. i love tacos.","loc": {"type": "Point","coordinates": [103.7884,1.307002]}} 
{"id": "8677113771","server": "8545","farm": "9","userId": "78686549@N00","secret": "534fddd2d8","title": "We had 3 kinds of ribs for 6 persons. Meet the meat eaters.","loc": {"type": "Point","coordinates": [103.788445,1.306916]}} 
{"id": "8677056179","server": "8387","farm": "9","userId": "78686549@N00","secret": "39cd0befd5","title": "Celebrating cousin's birthday with lots and lots of ribs. She's a meat eater!","loc": {"type": "Point","coordinates": [103.788445,1.306916]}} 
{"id": "8676196360","server": "8402","farm": "9","userId": "8659935@N03","secret": "d576dd0057","title": "","loc": {"type": "Point","coordinates": [103.79129,1.306769]}} 
{"id": "8676197362","server": "8264","farm": "9","userId": "8659935@N03","secret": "dc91ee48f5","title": "","loc": {"type": "Point","coordinates": [103.79129,1.306769]}} 
{"id": "8658975481","server": "8103","farm": "9","userId": "16863090@N00","secret": "4a15a9a1e8","title": "Star Vista","loc": {"type": "Point","coordinates": [103.787415,1.307291]}} 
{"id": "8658975077","server": "8100","farm": "9","userId": "16863090@N00","secret": "5d708ca368","title": "Star Vista","loc": {"type": "Point","coordinates": [103.787415,1.307291]}} 
{"id": "8658974637","server": "8121","farm": "9","userId": "16863090@N00","secret": "56445fbcd3","title": "Star Vista","loc": {"type": "Point","coordinates": [103.787415,1.307291]}} 
{"id": "8645346095","server": "8258","farm": "9","userId": "51294514@N06","secret": "9e9f38db17","title": "Cigarettes Art #androidography","loc": {"type": "Point","coordinates": [103.78932,1.30638]}} 
{"id": "8640472302","server": "8531","farm": "9","userId": "60026216@N00","secret": "ea79e34d54","title": "Chicken shawarma.","loc": {"type": "Point","coordinates": [103.78943,1.306519]}} 
{"id": "8639095503","server": "8263","farm": "9","userId": "36055891@N08","secret": "92ba3ff75d","title": "#weather #instaweather #instaweatherpro  #sky #outdoors #nature  #instagood #photooftheday #instamood #picoftheday #instadaily #photo #instacool #instapic #picture #pic @instaplaceapp #place #earth #world #commonwealth #singapore #day #skypainters #sg","loc": {"type": "Point","coordinates": [103.79006,1.307009]}} 
{"id": "8639766994","server": "8252","farm": "9","userId": "92381791@N05","secret": "454c19c9fe","title": "watami w freaks & geeks","loc": {"type": "Point","coordinates": [103.78933,1.306833]}} 
{"id": "8638663037","server": "8119","farm": "9","userId": "92381791@N05","secret": "085ebb131f","title": "salmon","loc": {"type": "Point","coordinates": [103.78933,1.306666]}} 
{"id": "8639767998","server": "8521","farm": "9","userId": "92381791@N05","secret": "959e11f0a8","title": "plain vanilla","loc": {"type": "Point","coordinates": [103.78917,1.306833]}} 
{"id": "8638663175","server": "8107","farm": "9","userId": "92381791@N05","secret": "e97b1aed5f","title": "korean-jap fusion","loc": {"type": "Point","coordinates": [103.78917,1.306833]}} 
{"id": "8638663415","server": "8243","farm": "9","userId": "92381791@N05","secret": "fe65608df9","title": "beef bowl","loc": {"type": "Point","coordinates": [103.788666,1.306666]}} 
{"id": "8637896968","server": "8395","farm": "9","userId": "46577167@N00","secret": "1090ba293a","title": "huge bowl of something","loc": {"type": "Point","coordinates": [103.787834,1.311166]}} 
{"id": "8637084280","server": "8260","farm": "9","userId": "78686549@N00","secret": "f96ffb62ab","title": "On a hot, humid, sunny, windless day, the good ol' Ice Kachang comes to the rescue.","loc": {"type": "Point","coordinates": [103.788,1.310999]}} 
{"id": "8637028310","server": "8246","farm": "9","userId": "78686549@N00","secret": "022ff79054","title": "Nasi Lemak. Maybe not worth queuing for. It's nice. Not long queue nice. :-)","loc": {"type": "Point","coordinates": [103.788,1.310999]}} 
{"id": "8633575220","server": "8253","farm": "9","userId": "25217916@N06","secret": "0696b1c2e5","title": "Str Vista Mall #starvista #mall #night #architecture #instagood #photooftheday #instamood #igers #picoftheday #instadaily #instagramhub #bestoftheday #igdaily #iphonesia #webstagram #follow #instagramers #followme #statigram #instahub #photo #like #follow","loc": {"type": "Point","coordinates": [103.78932,1.30638]}} 
{"id": "8628855777","server": "8519","farm": "9","userId": "34811143@N00","secret": "105082af1a","title": "Saturday cycling","loc": {"type": "Point","coordinates": [103.79,1.310555]}} 
{"id": "8623333843","server": "8250","farm": "9","userId": "34811143@N00","secret": "9292c6a5b5","title": "Cycling along Railway to Tanjong Pagar","loc": {"type": "Point","coordinates": [103.79126,1.308722]}} 
{"id": "8624434222","server": "8527","farm": "9","userId": "34811143@N00","secret": "8e89610490","title": "Cycling along Railway to Tanjong Pagar","loc": {"type": "Point","coordinates": [103.79163,1.307947]}} 
{"id": "8624410786","server": "8266","farm": "9","userId": "34811143@N00","secret": "d86e852ac6","title": "Cycling along Railway to Tanjong Pagar","loc": {"type": "Point","coordinates": [103.7907,1.31078]}} 
{"id": "8624435712","server": "8108","farm": "9","userId": "34811143@N00","secret": "f63c1f821d","title": "Cycling along Railway to Tanjong Pagar","loc": {"type": "Point","coordinates": [103.79126,1.308722]}} 
{"id": "8620855655","server": "8265","farm": "9","userId": "78686549@N00","secret": "6de945347a","title": "Dinner is Portuguese Chook tonight. Peri-peri good!","loc": {"type": "Point","coordinates": [103.788445,1.306873]}} 
{"id": "8618963154","server": "8525","farm": "9","userId": "43866013@N00","secret": "524382e185","title": "Late lunch with the missus","loc": {"type": "Point","coordinates": [103.78797,1.306701]}} 
{"id": "8608750383","server": "8523","farm": "9","userId": "78686549@N00","secret": "8ab87fea7f","title": "Salt and Pepper chicken. S & P, that's @kopikosonggirl and my initials :-)","loc": {"type": "Point","coordinates": [103.788895,1.30713]}} 
{"id": "8608712591","server": "8398","farm": "9","userId": "78686549@N00","secret": "81ff21efbf","title": "Taiwanese Spicy Minced Pork Rice. I repeat spicy! Cough cough. But I like it! Lol","loc": {"type": "Point","coordinates": [103.788895,1.30713]}} 
{"id": "8579439349","server": "8505","farm": "9","userId": "92593934@N04","secret": "d9c64378c9","title": "Dehydrated fruits as snacks.","loc": {"type": "Point","coordinates": [103.78921,1.306867]}} 
{"id": "8580363920","server": "8368","farm": "9","userId": "24773033@N02","secret": "0be1910c41","title": "Buona Vista elevator :)","loc": {"type": "Point","coordinates": [103.79049,1.307023]}} 
{"id": "8563169573","server": "8509","farm": "9","userId": "51073972@N02","secret": "3ee682d656","title": "Flower Stall on one of the floors at The Star","loc": {"type": "Point","coordinates": [103.789665,1.306333]}} 
{"id": "8563163299","server": "8106","farm": "9","userId": "51073972@N02","secret": "306caedfde","title": "The Star Vista - Shopping Mall and Performing Arts Theatre","loc": {"type": "Point","coordinates": [103.789,1.3065]}} 
{"id": "8564275408","server": "8111","farm": "9","userId": "51073972@N02","secret": "f6d468eabf","title": "View looking back to the performing arts theatre at The Star","loc": {"type": "Point","coordinates": [103.7885,1.3065]}} 
{"id": "8560522417","server": "8091","farm": "9","userId": "24773033@N02","secret": "ae4270cd70","title": "Taken @ Buona Vista MRT past 6:30 am. I was 9 mins away to our Shuttle bus pick-up point from my 45 mins travel from our home @ Hougang via train. #earlybird #soearly #sunrise #work #sleepyhead","loc": {"type": "Point","coordinates": [103.79049,1.307023]}} 
{"id": "8554587080","server": "8239","farm": "9","userId": "94608896@N00","secret": "c3412dd09c","title": "Braised duck spicy ramen @ Menya Musashi - The Star Vista Singapore","loc": {"type": "Point","coordinates": [103.78932,1.30638]}} 
{"id": "8550432951","server": "8384","farm": "9","userId": "25217916@N06","secret": "19a949b999","title": "Rizal, our national hero. #teammanila #fashion #rizal #hero #philippines #instagood #photooftheday #instamood #igers #picoftheday #instadaily #instagramhub #bestoftheday #igdaily #iphonesia #webstagram #follow #instagramers #followme #statigram #instahub","loc": {"type": "Point","coordinates": [103.79024,1.306399]}} 
{"id": "8548741440","server": "8109","farm": "9","userId": "21596674@N00","secret": "1b560c4fbb","title": "Shreeded Beef Arepa","loc": {"type": "Point","coordinates": [103.78848,1.30698]}} 
{"id": "8541100303","server": "8374","farm": "9","userId": "8583503@N07","secret": "c7fbd2d2bf","title": "There are so many lovely corners here for talks and gatherings.","loc": {"type": "Point","coordinates": [103.78932,1.30638]}} 
{"id": "8542174632","server": "8523","farm": "9","userId": "8583503@N07","secret": "5deff59316","title": "Beginning to really love this place!","loc": {"type": "Point","coordinates": [103.78932,1.30638]}} 
{"id": "8542036962","server": "8376","farm": "9","userId": "8583503@N07","secret": "63f26ab5bd","title": "Diet can seriously wait till tomorrow.","loc": {"type": "Point","coordinates": [103.78975,1.3062]}} 
{"id": "8540923779","server": "8527","farm": "9","userId": "8583503@N07","secret": "1517ee2603","title": "Dinner!!!","loc": {"type": "Point","coordinates": [103.78975,1.3062]}} 
{"id": "8540849847","server": "8507","farm": "9","userId": "8583503@N07","secret": "eb36d8b25e","title": "Thanks @popupnoise for featuring my photo works :)","loc": {"type": "Point","coordinates": [103.78932,1.30638]}} 
{"id": "8541955040","server": "8391","farm": "9","userId": "8583503@N07","secret": "26cc982c12","title": "Thanks #popupnoise for featuring my works this year! :)","loc": {"type": "Point","coordinates": [103.78932,1.30638]}} 
{"id": "8536811028","server": "8101","farm": "9","userId": "8583503@N07","secret": "a180704a2d","title": "My photos up on display at Noise Pop-up 2013 :)","loc": {"type": "Point","coordinates": [103.78932,1.30638]}} 
{"id": "8530165333","server": "8094","farm": "9","userId": "48889054224@N01","secret": "b55f64971c","title": "Setting up the escalator fight scene for 'Gangs of Tiong Baru'","loc": {"type": "Point","coordinates": [103.78932,1.30638]}} 
{"id": "8529616103","server": "8241","farm": "9","userId": "60026216@N00","secret": "6462ed74f7","title": "One of the worst ayam panggang (grilled chicken) I've ever tasted @ The Kitchen by Koufu.","loc": {"type": "Point","coordinates": [103.78932,1.30638]}} 
{"id": "8524619972","server": "8531","farm": "9","userId": "14385475@N05","secret": "e3dcd554bd","title": "IMG_3346","loc": {"type": "Point","coordinates": [103.7905,1.306666]}} 
{"id": "8523875766","server": "8236","farm": "9","userId": "39824929@N00","secret": "075e35cc1a","title": "This is funny especially when the European has a different class of tea altogether. #LocalRawks #YaKun #singapore #sgig #igers #instasg #igsg #instadaily #instagood #instamood #instafood #instaaaaah #webstagram #ink361 #jj","loc": {"type": "Point","coordinates": [103.78932,1.30638]}} 
{"id": "8518563294","server": "8520","farm": "9","userId": "31872365@N08","secret": "1052656711","title": "City","loc": {"type": "Point","coordinates": [103.79049,1.307023]}} 
{"id": "8512170117","server": "8526","farm": "9","userId": "61038036@N00","secret": "b49b829506","title": "IMG_1007","loc": {"type": "Point","coordinates": [103.78933,1.306666]}} 
{"id": "8513282764","server": "8381","farm": "9","userId": "61038036@N00","secret": "0a1afff93e","title": "IMG_1005","loc": {"type": "Point","coordinates": [103.7895,1.306166]}} 
{"id": "8513283258","server": "8371","farm": "9","userId": "61038036@N00","secret": "6eddd38ff9","title": "IMG_1006","loc": {"type": "Point","coordinates": [103.7895,1.306166]}} 
{"id": "8512168399","server": "8241","farm": "9","userId": "61038036@N00","secret": "242a3ec561","title": "IMG_1003","loc": {"type": "Point","coordinates": [103.78816,1.306666]}} 
{"id": "8512168835","server": "8521","farm": "9","userId": "61038036@N00","secret": "538c817021","title": "IMG_1004","loc": {"type": "Point","coordinates": [103.788,1.306333]}} 
{"id": "8512170491","server": "8391","farm": "9","userId": "61038036@N00","secret": "82e5216f0c","title": "IMG_1009","loc": {"type": "Point","coordinates": [103.78933,1.306333]}} 
{"id": "8511941449","server": "8234","farm": "9","userId": "69395655@N00","secret": "a59e557c4f","title": "here we are #norahjones","loc": {"type": "Point","coordinates": [103.78933,1.306166]}} 
{"id": "8500672360","server": "8240","farm": "9","userId": "14932126@N08","secret": "e0f75138c9","title": "IMG_0030","loc": {"type": "Point","coordinates": [103.789665,1.306166]}} 
{"id": "8497817700","server": "8515","farm": "9","userId": "60026216@N00","secret": "259acec0e3","title": "SFC combo. Love this!","loc": {"type": "Point","coordinates": [103.78855,1.306744]}} 
{"id": "8497825026","server": "8391","farm": "9","userId": "60026216@N00","secret": "733b95fed2","title": "Citrus sundae.","loc": {"type": "Point","coordinates": [103.78855,1.306744]}} 
{"id": "8497820426","server": "8232","farm": "9","userId": "60026216@N00","secret": "001433094a","title": "Manhattan mud pie.","loc": {"type": "Point","coordinates": [103.78855,1.306744]}} 
{"id": "8497776214","server": "8237","farm": "9","userId": "60026216@N00","secret": "05f3561343","title": "Playing with #water.","loc": {"type": "Point","coordinates": [103.78932,1.30638]}} 
{"id": "8496665345","server": "8232","farm": "9","userId": "60026216@N00","secret": "a3f65aa8ed","title": "Mama and #baby Indi.","loc": {"type": "Point","coordinates": [103.78855,1.306744]}} 
{"id": "8480738649","server": "8251","farm": "9","userId": "8352372@N04","secret": "32aed3ec71","title": "A Choco Chip Frappé to (hopefully) perk up the day.","loc": {"type": "Point","coordinates": [103.79265,1.312782]}} 
{"id": "8472462073","server": "8242","farm": "9","userId": "78686549@N00","secret": "b43899668f","title": "A really huge crispy chicken drumstick!  (With Sotong, Braised beef, lady fingers, hard boiled egg, curry potato, pappadams and sambal)","loc": {"type": "Point","coordinates": [103.78848,1.310703]}} 
{"id": "8467430141","server": "8376","farm": "9","userId": "21438119@N07","secret": "147f7f9908","title": "P1070810","loc": {"type": "Point","coordinates": [103.79266,1.306333]}} 
{"id": "8467505224","server": "8101","farm": "9","userId": "78686549@N00","secret": "f5eee3ae1c","title": "Beef Horfun for lunch.","loc": {"type": "Point","coordinates": [103.79268,1.309522]}} 
{"id": "8458536002","server": "8097","farm": "9","userId": "77034082@N00","secret": "ec6d9619ef","title": "Luna Sea : The End Of The Dream Asia Tour 2013 - Singapore","loc": {"type": "Point","coordinates": [103.78842,1.306798]}} 
{"id": "8458535644","server": "8108","farm": "9","userId": "77034082@N00","secret": "c2af8523f8","title": "Luna Sea : The End Of The Dream Asia Tour 2013 - Singapore","loc": {"type": "Point","coordinates": [103.78842,1.306798]}} 
{"id": "8457430653","server": "8234","farm": "9","userId": "77034082@N00","secret": "9ac2144d31","title": "Luna Sea : The End Of The Dream Asia Tour 2013 - Singapore","loc": {"type": "Point","coordinates": [103.78842,1.306798]}} 
{"id": "8457431009","server": "8091","farm": "9","userId": "77034082@N00","secret": "4971242eca","title": "Luna Sea : The End Of The Dream Asia Tour 2013 - Singapore","loc": {"type": "Point","coordinates": [103.78842,1.306798]}} 
{"id": "8458534424","server": "8524","farm": "9","userId": "77034082@N00","secret": "69f0c2ef1f","title": "Luna Sea : The End Of The Dream Asia Tour 2013 - Singapore","loc": {"type": "Point","coordinates": [103.78842,1.306798]}} 
{"id": "8458536334","server": "8506","farm": "9","userId": "77034082@N00","secret": "51e2a68f85","title": "Luna Sea : The End Of The Dream Asia Tour 2013 - Singapore","loc": {"type": "Point","coordinates": [103.78842,1.306798]}} 
{"id": "8458534120","server": "8512","farm": "9","userId": "77034082@N00","secret": "e020856be7","title": "Luna Sea : The End Of The Dream Asia Tour 2013 - Singapore","loc": {"type": "Point","coordinates": [103.78842,1.306798]}} 
{"id": "8458532986","server": "8529","farm": "9","userId": "77034082@N00","secret": "64c27164eb","title": "Luna Sea : The End Of The Dream Asia Tour 2013 - Singapore","loc": {"type": "Point","coordinates": [103.78842,1.306798]}} 
{"id": "8458533406","server": "8232","farm": "9","userId": "77034082@N00","secret": "60b26fc5ab","title": "Luna Sea : The End Of The Dream Asia Tour 2013 - Singapore","loc": {"type": "Point","coordinates": [103.78842,1.306798]}} 
{"id": "8458536708","server": "8245","farm": "9","userId": "77034082@N00","secret": "9069f24862","title": "Luna Sea : The End Of The Dream Asia Tour 2013 - Singapore","loc": {"type": "Point","coordinates": [103.78842,1.306798]}} 
{"id": "8457432175","server": "8240","farm": "9","userId": "77034082@N00","secret": "73fd0dc6a3","title": "Luna Sea : The End Of The Dream Asia Tour 2013 - Singapore","loc": {"type": "Point","coordinates": [103.78842,1.306798]}} 
{"id": "8457430491","server": "8531","farm": "9","userId": "77034082@N00","secret": "8b0a2d9517","title": "Luna Sea : The End Of The Dream Asia Tour 2013 - Singapore","loc": {"type": "Point","coordinates": [103.78842,1.306798]}} 
{"id": "8457427311","server": "8225","farm": "9","userId": "77034082@N00","secret": "d2ae980d09","title": "Luna Sea : The End Of The Dream Asia Tour 2013 - Singapore","loc": {"type": "Point","coordinates": [103.78842,1.306798]}} 
{"id": "8458520798","server": "8531","farm": "9","userId": "77034082@N00","secret": "682fc25e09","title": "Luna Sea : The End Of The Dream Asia Tour 2013 - Singapore","loc": {"type": "Point","coordinates": [103.78842,1.306798]}} 
{"id": "8457421179","server": "8112","farm": "9","userId": "77034082@N00","secret": "f0f1487ae6","title": "Luna Sea : The End Of The Dream Asia Tour 2013 - Singapore","loc": {"type": "Point","coordinates": [103.78842,1.306798]}} 
{"id": "8458517384","server": "8516","farm": "9","userId": "77034082@N00","secret": "c8cbfaa3eb","title": "Luna Sea : The End Of The Dream Asia Tour 2013 - Singapore","loc": {"type": "Point","coordinates": [103.78842,1.306798]}} 
{"id": "8457423163","server": "8505","farm": "9","userId": "77034082@N00","secret": "f71aed60e1","title": "Luna Sea : The End Of The Dream Asia Tour 2013 - Singapore","loc": {"type": "Point","coordinates": [103.78842,1.306798]}} 
{"id": "8458530758","server": "8388","farm": "9","userId": "77034082@N00","secret": "54e9722304","title": "Luna Sea : The End Of The Dream Asia Tour 2013 - Singapore","loc": {"type": "Point","coordinates": [103.78842,1.306798]}} 
{"id": "8457428603","server": "8240","farm": "9","userId": "77034082@N00","secret": "67034cba4f","title": "Luna Sea : The End Of The Dream Asia Tour 2013 - Singapore","loc": {"type": "Point","coordinates": [103.78842,1.306798]}} 
{"id": "8458526666","server": "8233","farm": "9","userId": "77034082@N00","secret": "32d50253e9","title": "Luna Sea : The End Of The Dream Asia Tour 2013 - Singapore","loc": {"type": "Point","coordinates": [103.78842,1.306798]}} 
{"id": "8457423891","server": "8108","farm": "9","userId": "77034082@N00","secret": "1b335d5211","title": "Luna Sea : The End Of The Dream Asia Tour 2013 - Singapore","loc": {"type": "Point","coordinates": [103.78842,1.306798]}} 
{"id": "8457425465","server": "8103","farm": "9","userId": "77034082@N00","secret": "33d5eac59c","title": "Luna Sea : The End Of The Dream Asia Tour 2013 - Singapore","loc": {"type": "Point","coordinates": [103.78842,1.306798]}} 
{"id": "8458527776","server": "8228","farm": "9","userId": "77034082@N00","secret": "91632691ea","title": "Luna Sea : The End Of The Dream Asia Tour 2013 - Singapore","loc": {"type": "Point","coordinates": [103.78842,1.306798]}} 
{"id": "8458531312","server": "8382","farm": "9","userId": "77034082@N00","secret": "2bd817bfe0","title": "Luna Sea : The End Of The Dream Asia Tour 2013 - Singapore","loc": {"type": "Point","coordinates": [103.78842,1.306798]}} 
{"id": "8458517104","server": "8234","farm": "9","userId": "77034082@N00","secret": "9e19ac73eb","title": "Luna Sea : The End Of The Dream Asia Tour 2013 - Singapore","loc": {"type": "Point","coordinates": [103.78842,1.306798]}} 
{"id": "8457429531","server": "8244","farm": "9","userId": "77034082@N00","secret": "4c9c22ced0","title": "Luna Sea : The End Of The Dream Asia Tour 2013 - Singapore","loc": {"type": "Point","coordinates": [103.78842,1.306798]}} 
{"id": "8457414621","server": "8389","farm": "9","userId": "77034082@N00","secret": "9d4e019e3a","title": "Luna Sea : The End Of The Dream Asia Tour 2013 - Singapore","loc": {"type": "Point","coordinates": [103.78842,1.306798]}} 
{"id": "8457422297","server": "8111","farm": "9","userId": "77034082@N00","secret": "a91ea2a631","title": "Luna Sea : The End Of The Dream Asia Tour 2013 - Singapore","loc": {"type": "Point","coordinates": [103.78842,1.306798]}} 
{"id": "8457423557","server": "8376","farm": "9","userId": "77034082@N00","secret": "dc5bdb9ae1","title": "Luna Sea : The End Of The Dream Asia Tour 2013 - Singapore","loc": {"type": "Point","coordinates": [103.78842,1.306798]}} 
{"id": "8458504360","server": "8248","farm": "9","userId": "77034082@N00","secret": "227508d543","title": "Luna Sea : The End Of The Dream Asia Tour 2013 - Singapore","loc": {"type": "Point","coordinates": [103.78842,1.306798]}} 
{"id": "8458515314","server": "8371","farm": "9","userId": "77034082@N00","secret": "78e736baeb","title": "Luna Sea : The End Of The Dream Asia Tour 2013 - Singapore","loc": {"type": "Point","coordinates": [103.78842,1.306798]}} 
{"id": "8457423557","server": "8376","farm": "9","userId": "77034082@N00","secret": "dc5bdb9ae1","title": "Luna Sea : The End Of The Dream Asia Tour 2013 - Singapore","loc": {"type": "Point","coordinates": [103.78842,1.306798]}} 
{"id": "8458530032","server": "8097","farm": "9","userId": "77034082@N00","secret": "2b7020b692","title": "Luna Sea : The End Of The Dream Asia Tour 2013 - Singapore","loc": {"type": "Point","coordinates": [103.78842,1.306798]}} 
{"id": "8458504360","server": "8248","farm": "9","userId": "77034082@N00","secret": "227508d543","title": "Luna Sea : The End Of The Dream Asia Tour 2013 - Singapore","loc": {"type": "Point","coordinates": [103.78842,1.306798]}} 
{"id": "8458509942","server": "8095","farm": "9","userId": "77034082@N00","secret": "008fd53278","title": "Luna Sea : The End Of The Dream Asia Tour 2013 - Singapore","loc": {"type": "Point","coordinates": [103.78842,1.306798]}} 
{"id": "8458515314","server": "8371","farm": "9","userId": "77034082@N00","secret": "78e736baeb","title": "Luna Sea : The End Of The Dream Asia Tour 2013 - Singapore","loc": {"type": "Point","coordinates": [103.78842,1.306798]}} 
{"id": "8458514946","server": "8090","farm": "9","userId": "77034082@N00","secret": "b7b6bdf0ee","title": "Luna Sea : The End Of The Dream Asia Tour 2013 - Singapore","loc": {"type": "Point","coordinates": [103.78842,1.306798]}} 
{"id": "8457406465","server": "8230","farm": "9","userId": "77034082@N00","secret": "22edc3d631","title": "Luna Sea : The End Of The Dream Asia Tour 2013 - Singapore","loc": {"type": "Point","coordinates": [103.78842,1.306798]}} 
{"id": "8458508708","server": "8089","farm": "9","userId": "77034082@N00","secret": "762e945343","title": "Luna Sea : The End Of The Dream Asia Tour 2013 - Singapore","loc": {"type": "Point","coordinates": [103.78842,1.306798]}} 
{"id": "8457408103","server": "8391","farm": "9","userId": "77034082@N00","secret": "2e9ce91cc7","title": "Luna Sea : The End Of The Dream Asia Tour 2013 - Singapore","loc": {"type": "Point","coordinates": [103.78842,1.306798]}} 
{"id": "8457405625","server": "8512","farm": "9","userId": "77034082@N00","secret": "5367b218df","title": "Luna Sea : The End Of The Dream Asia Tour 2013 - Singapore","loc": {"type": "Point","coordinates": [103.78842,1.306798]}} 
{"id": "8458360196","server": "8374","farm": "9","userId": "8546173@N04","secret": "da84b721b6","title": "Vanishment","loc": {"type": "Point","coordinates": [103.789,1.310413]}} 
{"id": "8380099610","server": "8378","farm": "9","userId": "8410127@N06","secret": "3c752250a7","title": "Block 11 Ghim Moh Road","loc": {"type": "Point","coordinates": [103.79,1.309833]}} 
{"id": "8329556050","server": "8218","farm": "9","userId": "45603087@N02","secret": "e64a6cb753","title": "52/52: The Star","loc": {"type": "Point","coordinates": [103.78868,1.306445]}} 
{"id": "8287013205","server": "8076","farm": "9","userId": "29693607@N00","secret": "7451dff3c1","title": "Muted #sunset","loc": {"type": "Point","coordinates": [103.78932,1.30638]}} 
{"id": "8287013221","server": "8066","farm": "9","userId": "29693607@N00","secret": "bce3308c58","title": "Escalator to heaven","loc": {"type": "Point","coordinates": [103.78932,1.30638]}} 
{"id": "8126989033","server": "8335","farm": "9","userId": "32748795@N00","secret": "33fe89a896","title": "Don't drink the water!  It's Singapore Craft Beer Week...  Have a Cerveza Habanero by Jungle Beer!","loc": {"type": "Point","coordinates": [103.7884,1.307002]}} 
{"id": "8104033764","server": "8473","farm": "9","userId": "25802865@N08","secret": "4f6d126bb2","title": "Menya Musashi","loc": {"type": "Point","coordinates": [103.788376,1.306401]}} 
{"id": "8104032770","server": "8192","farm": "9","userId": "25802865@N08","secret": "8060f0703e","title": "Canton Paradise","loc": {"type": "Point","coordinates": [103.788315,1.306294]}} 
{"id": "8104034670","server": "8049","farm": "9","userId": "25802865@N08","secret": "30869052f9","title": "Goemon","loc": {"type": "Point","coordinates": [103.7884,1.306358]}} 
{"id": "8104019337","server": "8193","farm": "9","userId": "25802865@N08","secret": "4a2660ba4a","title": "Itacho Sushi","loc": {"type": "Point","coordinates": [103.78846,1.30638]}} 
{"id": "8048879139","server": "8314","farm": "9","userId": "25802865@N08","secret": "a1f8e12f9f","title": "Boston Seafood Shack","loc": {"type": "Point","coordinates": [103.7879,1.306573]}} 
{"id": "8048878575","server": "8031","farm": "9","userId": "25802865@N08","secret": "cc65707b2c","title": "Boston Seafood Shack","loc": {"type": "Point","coordinates": [103.787994,1.306337]}} 
{"id": "8048877989","server": "8035","farm": "9","userId": "25802865@N08","secret": "8d51078691","title": "Boston Seafood Shack","loc": {"type": "Point","coordinates": [103.78801,1.306444]}} 
{"id": "8048885348","server": "8459","farm": "9","userId": "25802865@N08","secret": "b594275a4e","title": "Boston Seafood Shack","loc": {"type": "Point","coordinates": [103.78808,1.306422]}} 
{"id": "8048884772","server": "8039","farm": "9","userId": "25802865@N08","secret": "67851dcdbb","title": "Boston Seafood Shack","loc": {"type": "Point","coordinates": [103.78782,1.306658]}} 
{"id": "8458531594","server": "8101","farm": "9","userId": "77034082@N00","secret": "b2138be999","title": "Luna Sea : The End Of The Dream Asia Tour 2013 - Singapore","loc": {"type": "Point","coordinates": [103.78842,1.306798]}} 
{"id": "8458503326","server": "8505","farm": "9","userId": "77034082@N00","secret": "a41e937b24","title": "Luna Sea : The End Of The Dream Asia Tour 2013 - Singapore","loc": {"type": "Point","coordinates": [103.78842,1.306798]}} 
{"id": "8458509382","server": "8100","farm": "9","userId": "77034082@N00","secret": "0e16064178","title": "Luna Sea : The End Of The Dream Asia Tour 2013 - Singapore","loc": {"type": "Point","coordinates": [103.78842,1.306798]}} 
{"id": "8457401607","server": "8096","farm": "9","userId": "77034082@N00","secret": "ee0378c129","title": "Luna Sea : The End Of The Dream Asia Tour 2013 - Singapore","loc": {"type": "Point","coordinates": [103.78842,1.306798]}} 
{"id": "8457407455","server": "8098","farm": "9","userId": "77034082@N00","secret": "1be9d5570c","title": "Luna Sea : The End Of The Dream Asia Tour 2013 - Singapore","loc": {"type": "Point","coordinates": [103.78842,1.306798]}} 
{"id": "8458514164","server": "8109","farm": "9","userId": "77034082@N00","secret": "6fdfe8278b","title": "Luna Sea : The End Of The Dream Asia Tour 2013 - Singapore","loc": {"type": "Point","coordinates": [103.78842,1.306798]}} 
{"id": "8457407003","server": "8506","farm": "9","userId": "77034082@N00","secret": "812ae6b618","title": "Luna Sea : The End Of The Dream Asia Tour 2013 - Singapore","loc": {"type": "Point","coordinates": [103.78842,1.306798]}} 
{"id": "8457411657","server": "8508","farm": "9","userId": "77034082@N00","secret": "b1f48479e4","title": "Luna Sea : The End Of The Dream Asia Tour 2013 - Singapore","loc": {"type": "Point","coordinates": [103.78842,1.306798]}} 
{"id": "8457408463","server": "8250","farm": "9","userId": "77034082@N00","secret": "1b20d98613","title": "Luna Sea : The End Of The Dream Asia Tour 2013 - Singapore","loc": {"type": "Point","coordinates": [103.78842,1.306798]}} 
{"id": "8457412337","server": "8242","farm": "9","userId": "77034082@N00","secret": "c24762985e","title": "Luna Sea : The End Of The Dream Asia Tour 2013 - Singapore","loc": {"type": "Point","coordinates": [103.78842,1.306798]}} 
{"id": "8457412575","server": "8243","farm": "9","userId": "77034082@N00","secret": "494b0b20a5","title": "Luna Sea : The End Of The Dream Asia Tour 2013 - Singapore","loc": {"type": "Point","coordinates": [103.78842,1.306798]}} 
{"id": "8458507342","server": "8252","farm": "9","userId": "77034082@N00","secret": "be0fb4bd23","title": "Luna Sea : The End Of The Dream Asia Tour 2013 - Singapore","loc": {"type": "Point","coordinates": [103.78842,1.306798]}} 
{"id": "8457408791","server": "8100","farm": "9","userId": "77034082@N00","secret": "95199b698b","title": "Luna Sea : The End Of The Dream Asia Tour 2013 - Singapore","loc": {"type": "Point","coordinates": [103.78842,1.306798]}} 
{"id": "8457407585","server": "8240","farm": "9","userId": "77034082@N00","secret": "3944b5ddf9","title": "Luna Sea : The End Of The Dream Asia Tour 2013 - Singapore","loc": {"type": "Point","coordinates": [103.78842,1.306798]}} 
{"id": "8458505486","server": "8525","farm": "9","userId": "77034082@N00","secret": "f06182f570","title": "Luna Sea : The End Of The Dream Asia Tour 2013 - Singapore","loc": {"type": "Point","coordinates": [103.78842,1.306798]}} 
{"id": "8457411233","server": "8247","farm": "9","userId": "77034082@N00","secret": "aa38e123fb","title": "Luna Sea : The End Of The Dream Asia Tour 2013 - Singapore","loc": {"type": "Point","coordinates": [103.78842,1.306798]}} 
{"id": "8457404473","server": "8381","farm": "9","userId": "77034082@N00","secret": "aeb0c8eb13","title": "Luna Sea : The End Of The Dream Asia Tour 2013 - Singapore","loc": {"type": "Point","coordinates": [103.78842,1.306798]}} 
{"id": "8457406209","server": "8229","farm": "9","userId": "77034082@N00","secret": "0d8d5ab1b8","title": "Luna Sea : The End Of The Dream Asia Tour 2013 - Singapore","loc": {"type": "Point","coordinates": [103.78842,1.306798]}} 
{"id": "8458512934","server": "8365","farm": "9","userId": "77034082@N00","secret": "9cf7abeba2","title": "Luna Sea : The End Of The Dream Asia Tour 2013 - Singapore","loc": {"type": "Point","coordinates": [103.78842,1.306798]}} 
{"id": "8457402237","server": "8225","farm": "9","userId": "77034082@N00","secret": "c9a7992e42","title": "Luna Sea : The End Of The Dream Asia Tour 2013 - Singapore","loc": {"type": "Point","coordinates": [103.78842,1.306798]}} 
{"id": "8458512182","server": "8375","farm": "9","userId": "77034082@N00","secret": "ced8b340fe","title": "Luna Sea : The End Of The Dream Asia Tour 2013 - Singapore","loc": {"type": "Point","coordinates": [103.78842,1.306798]}} 
{"id": "8457409121","server": "8098","farm": "9","userId": "77034082@N00","secret": "1afb915100","title": "Luna Sea : The End Of The Dream Asia Tour 2013 - Singapore","loc": {"type": "Point","coordinates": [103.78842,1.306798]}} 
{"id": "8457401519","server": "8226","farm": "9","userId": "77034082@N00","secret": "c2799652b8","title": "Luna Sea : The End Of The Dream Asia Tour 2013 - Singapore","loc": {"type": "Point","coordinates": [103.78842,1.306798]}} 
{"id": "8458360450","server": "8248","farm": "9","userId": "8546173@N04","secret": "a0035a4457","title": "","loc": {"type": "Point","coordinates": [103.78982,1.309855]}} 
{"id": "8453918279","server": "8235","farm": "9","userId": "28564685@N06","secret": "3d02d250dc","title": "Star","loc": {"type": "Point","coordinates": [103.78932,1.30638]}} 
{"id": "8439972561","server": "8473","farm": "9","userId": "61670399@N07","secret": "f39e4a7154","title": "Yummy","loc": {"type": "Point","coordinates": [103.78789,1.306444]}} 
{"id": "8439957561","server": "8211","farm": "9","userId": "61670399@N07","secret": "21012121dd","title": "Tapas For Dinner!","loc": {"type": "Point","coordinates": [103.78789,1.306444]}} 
{"id": "8439959361","server": "8077","farm": "9","userId": "61670399@N07","secret": "9df5f88b7b","title": "Gulp","loc": {"type": "Point","coordinates": [103.78789,1.306444]}} 
{"id": "8440686980","server": "8195","farm": "9","userId": "92517377@N00","secret": "b81b854379","title": "The Star Vista, Singapore, Feb 2013","loc": {"type": "Point","coordinates": [103.78842,1.30668]}} 
{"id": "8439597187","server": "8466","farm": "9","userId": "92517377@N00","secret": "e5b5fe5d59","title": "The Star Vista, Singapore, Feb 2013","loc": {"type": "Point","coordinates": [103.78842,1.30668]}} 
{"id": "8437672162","server": "8222","farm": "9","userId": "58072194@N08","secret": "b134f1ff0d","title": "1_26","loc": {"type": "Point","coordinates": [103.789665,1.306166]}} 
{"id": "8437672102","server": "8212","farm": "9","userId": "58072194@N08","secret": "3178a87866","title": "1_31","loc": {"type": "Point","coordinates": [103.7895,1.3065]}} 
{"id": "8432771200","server": "8325","farm": "9","userId": "78686549@N00","secret": "52e385378e","title": "Those who prefer the healthier chicken breast should try out Nando's new Butterfly Chicken Breast. Quite good!","loc": {"type": "Point","coordinates": [103.788445,1.306873]}} 
{"id": "8422277129","server": "8369","farm": "9","userId": "91235570@N04","secret": "5784c552c4","title": "","loc": {"type": "Point","coordinates": [103.7884,1.306788]}} 
{"id": "8417817341","server": "8501","farm": "9","userId": "65778609@N03","secret": "e92c76bb44","title": "Star Vista","loc": {"type": "Point","coordinates": [103.79117,1.30683]}} 
{"id": "8415868297","server": "8194","farm": "9","userId": "36919220@N00","secret": "9a671bf2ba","title": "upload","loc": {"type": "Point","coordinates": [103.78853,1.306787]}} 
{"id": "8416805408","server": "8466","farm": "9","userId": "36919220@N00","secret": "70294a9f77","title": "Non I didn't eat here but the place looked nice","loc": {"type": "Point","coordinates": [103.7884,1.306873]}} 
{"id": "8393322789","server": "8085","farm": "9","userId": "21596674@N00","secret": "609377b355","title": "Banh Xeo! Omomomom","loc": {"type": "Point","coordinates": [103.78848,1.307002]}} 
{"id": "8389906052","server": "8367","farm": "9","userId": "16863090@N00","secret": "83853a02c4","title": "Star Vista","loc": {"type": "Point","coordinates": [103.787415,1.307291]}} 
{"id": "8374641795","server": "8083","farm": "9","userId": "49098167@N07","secret": "0dba869d0e","title": "Orgasmic Sushi!! Lol!!","loc": {"type": "Point","coordinates": [103.788445,1.306937]}} 
{"id": "8375692750","server": "8046","farm": "9","userId": "49098167@N07","secret": "a59a8ce437","title": "Dunno how good this is, as compared to the orchid hotel one ;)","loc": {"type": "Point","coordinates": [103.788445,1.306937]}} 
{"id": "8369625785","server": "8353","farm": "9","userId": "88189322@N05","secret": "ddea15d360","title": "WP_20130110_005","loc": {"type": "Point","coordinates": [103.79067,1.3069]}} 
{"id": "8361339148","server": "8096","farm": "9","userId": "60609682@N02","secret": "319b1c4914","title": "The Original Korean Taste restaurant #korean #bbq #instafood #dinner @drsgoh & steffi","loc": {"type": "Point","coordinates": [103.78933,1.306376]}} 
{"id": "8358096210","server": "8511","farm": "9","userId": "8150902@N02","secret": "e359c59932","title": "Star Vista","loc": {"type": "Point","coordinates": [103.78933,1.306333]}} 
{"id": "8353962674","server": "8235","farm": "9","userId": "71141369@N03","secret": "ce3ce6901b","title": "Sheepish #WHPwaiting","loc": {"type": "Point","coordinates": [103.787926,1.310958]}} 
{"id": "8353943752","server": "8092","farm": "9","userId": "71141369@N03","secret": "e88e063fd3","title": "#WHPwaiting for holes to form in someone’s socks","loc": {"type": "Point","coordinates": [103.787926,1.310958]}} 
{"id": "8353859372","server": "8374","farm": "9","userId": "71141369@N03","secret": "22be4ebaa7","title": "#WHPwaiting for the excavators","loc": {"type": "Point","coordinates": [103.79265,1.312782]}} 
{"id": "8353872022","server": "8374","farm": "9","userId": "71141369@N03","secret": "9f8c4f4507","title": "#WHPwaiting for him to make his move","loc": {"type": "Point","coordinates": [103.789055,1.312141]}} 
{"id": "8349266016","server": "8227","farm": "9","userId": "34811143@N00","secret": "0f9e7fdd93","title": "Morning cycling to Chinese Garden","loc": {"type": "Point","coordinates": [103.78665,1.309269]}} 
{"id": "8349269352","server": "8232","farm": "9","userId": "34811143@N00","secret": "dd9f968c97","title": "Morning cycling to Chinese Garden","loc": {"type": "Point","coordinates": [103.78968,1.308466]}} 
{"id": "8349268686","server": "8184","farm": "9","userId": "34811143@N00","secret": "10ac7cb92f","title": "Morning cycling to Chinese Garden","loc": {"type": "Point","coordinates": [103.787796,1.308363]}} 
{"id": "8332595065","server": "8496","farm": "9","userId": "58073440@N06","secret": "86319b15d2","title": "121113","loc": {"type": "Point","coordinates": [103.7895,1.306333]}} 
{"id": "8326376172","server": "8076","farm": "9","userId": "24125024@N06","secret": "eb8266222f","title": "Project Continuation #28 'Drowsy afternoon at Ghim Moh market'","loc": {"type": "Point","coordinates": [103.78833,1.31]}} 
{"id": "8323892137","server": "8494","farm": "9","userId": "41894167963@N01","secret": "1406243cf4","title": "Christmas 2012","loc": {"type": "Point","coordinates": [103.79217,1.312167]}} 
{"id": "8308445269","server": "8493","farm": "9","userId": "42594504@N00","secret": "d28750cb52","title": "My past glory","loc": {"type": "Point","coordinates": [103.7825,1.307047]}} 
{"id": "8308441655","server": "8218","farm": "9","userId": "42594504@N00","secret": "8532e6db06","title": "Sunset #zengliwei #snapseed #singapore #sunset","loc": {"type": "Point","coordinates": [103.7825,1.306782]}} 
{"id": "8309487774","server": "8082","farm": "9","userId": "42594504@N00","secret": "37d9ea8402","title": "This is home, off white and an aging paint job","loc": {"type": "Point","coordinates": [103.7896,1.307841]}} 
{"id": "8308441727","server": "8222","farm": "9","userId": "42594504@N00","secret": "f0d27ec46a","title": "A Panoramic View","loc": {"type": "Point","coordinates": [103.7825,1.306735]}} 
{"id": "8308444907","server": "8213","farm": "9","userId": "42594504@N00","secret": "cdc5d4ed4b","title": "Kitty soft paws no like rain.","loc": {"type": "Point","coordinates": [103.7825,1.306724]}} 
{"id": "8309496246","server": "8499","farm": "9","userId": "42594504@N00","secret": "b6c3f20f64","title": "'Hate taking public transport' She said","loc": {"type": "Point","coordinates": [103.7901,1.307199]}} 
{"id": "8309492846","server": "8504","farm": "9","userId": "42594504@N00","secret": "43c7bebafc","title": "Pouring again #singapore #instasg #raining #rain #zengliwei #snapseed","loc": {"type": "Point","coordinates": [103.7846,1.309353]}} 
{"id": "8308428733","server": "8361","farm": "9","userId": "42594504@N00","secret": "4d9a136b31","title": "#lines #zengliwei #sghomework07 #sgig #iphoneography #iphoneonly","loc": {"type": "Point","coordinates": [103.7826,1.306855]}} 
{"id": "8309485736","server": "8364","farm": "9","userId": "42594504@N00","secret": "10cb478f57","title": "Like this newsstand, cut out from cardboard, many layers of cardboard :) #instasg #sgig #noir #zengliwei #bnw #bw #blackwhite","loc": {"type": "Point","coordinates": [103.7931,1.311467]}} 
{"id": "8309480980","server": "8353","farm": "9","userId": "42594504@N00","secret": "34139d142b","title": "Window is open for u :)","loc": {"type": "Point","coordinates": [103.7826,1.30664]}} 
{"id": "8309480946","server": "8355","farm": "9","userId": "42594504@N00","secret": "5d01350353","title": "From the top :)","loc": {"type": "Point","coordinates": [103.7826,1.306592]}} 
{"id": "8309481018","server": "8501","farm": "9","userId": "42594504@N00","secret": "9a89830220","title": "#sgig #lines #iphoneography #sghomework07 #iphoneonly","loc": {"type": "Point","coordinates": [103.7826,1.30664]}} 
{"id": "8308434749","server": "8502","farm": "9","userId": "42594504@N00","secret": "8c90b15fe1","title": "To the star wars fans :))","loc": {"type": "Point","coordinates": [103.7825,1.30643]}} 
{"id": "8309486504","server": "8354","farm": "9","userId": "42594504@N00","secret": "02da64c7d9","title": "Watching girls go by.","loc": {"type": "Point","coordinates": [103.79,1.307901]}} 
{"id": "8304885003","server": "8503","farm": "9","userId": "39824929@N00","secret": "af33495660","title": "Little cellar. #singapore #sgig #instagram #igers...","loc": {"type": "Point","coordinates": [103.787155,1.306401]}} 
{"id": "8305932406","server": "8217","farm": "9","userId": "39824929@N00","secret": "852a4bb741","title": "Cigars sold in a bistro. #singapore...","loc": {"type": "Point","coordinates": [103.787155,1.306401]}} 
{"id": "8304885199","server": "8211","farm": "9","userId": "39824929@N00","secret": "7d6da109f6","title": "Wall. #igers #instagram #sgig #singapore #interior #wall","loc": {"type": "Point","coordinates": [103.787155,1.306401]}} 
{"id": "8305933240","server": "8360","farm": "9","userId": "39824929@N00","secret": "cdff77033e","title": "Birthday. #singapore #sgig #instagram #igers #birthday...","loc": {"type": "Point","coordinates": [103.787155,1.306401]}} 
{"id": "8304884355","server": "8081","farm": "9","userId": "39824929@N00","secret": "cf19c129ae","title": "Bistro bar for dinner. Yums.","loc": {"type": "Point","coordinates": [103.787155,1.306401]}} 
{"id": "8305934238","server": "8216","farm": "9","userId": "39824929@N00","secret": "4e28b8a762","title": "Wine glasses. #singapore #instagram #sgig #glasses","loc": {"type": "Point","coordinates": [103.787155,1.306401]}} 
{"id": "8305934000","server": "8351","farm": "9","userId": "39824929@N00","secret": "a3519d27db","title": "Interior of the old bungalows. #mirror...","loc": {"type": "Point","coordinates": [103.787155,1.306401]}} 
{"id": "8304885631","server": "8218","farm": "9","userId": "39824929@N00","secret": "0dcd7bbbb8","title": "New year. New birthdays. #candles #cake...","loc": {"type": "Point","coordinates": [103.787155,1.306401]}} 
{"id": "8305933760","server": "8351","farm": "9","userId": "39824929@N00","secret": "4befd1619d","title": "Interior of the place. #singapore #sgig...","loc": {"type": "Point","coordinates": [103.787155,1.306401]}} 
{"id": "8298264571","server": "8219","farm": "9","userId": "59900342@N08","secret": "060fe0a968","title": "She and @abufarsi were one of the first ppl to ever hear 'Seribu Tahun' before I even recorded it. She said one day ill sing it at her wedding. It just happened today. Sang to her and her ... Husband! • Little girl all grown up @ainontalib my sister, so p","loc": {"type": "Point","coordinates": [103.78921,1.312296]}} 
{"id": "8298264551","server": "8221","farm": "9","userId": "59900342@N08","secret": "0c97ed9ab6","title": "Bride & Groom @erwangunawan @ainontalib #erwanainonwedding #wedding","loc": {"type": "Point","coordinates": [103.78921,1.312296]}} 
{"id": "8293768233","server": "8221","farm": "9","userId": "28564685@N06","secret": "20b9090c4c","title": "Striped","loc": {"type": "Point","coordinates": [103.79265,1.312782]}} 
{"id": "8293773643","server": "8361","farm": "9","userId": "28564685@N06","secret": "be15b0bb58","title": "Sofa den for lollipop","loc": {"type": "Point","coordinates": [103.79265,1.312782]}} 
{"id": "8293091741","server": "8491","farm": "9","userId": "90343499@N04","secret": "6f63e811fe","title": "Busy tonight","loc": {"type": "Point","coordinates": [103.78932,1.30638]}} 
{"id": "8293080473","server": "8077","farm": "9","userId": "90343499@N04","secret": "27b2dc58ab","title": "The Star Vista tree","loc": {"type": "Point","coordinates": [103.78932,1.30638]}} 
{"id": "8290289729","server": "8352","farm": "9","userId": "74006149@N07","secret": "421d6a274f","title": "2 sisters sabo-ing each other","loc": {"type": "Point","coordinates": [103.78887,1.306272]}} 
{"id": "8285248661","server": "8364","farm": "9","userId": "28564685@N06","secret": "54fdc1909c","title": "Fanning","loc": {"type": "Point","coordinates": [103.79265,1.312783]}} 
{"id": "8254457137","server": "8221","farm": "9","userId": "41298448@N08","secret": "10e33244c2","title": "street snap @ Star Vista","loc": {"type": "Point","coordinates": [103.78848,1.3071]}} 
{"id": "8252857912","server": "8344","farm": "9","userId": "41298448@N08","secret": "2030b37657","title": "Street snap @ Star Vista","loc": {"type": "Point","coordinates": [103.78848,1.3071]}} 
{"id": "8241385060","server": "8480","farm": "9","userId": "60026216@N00","secret": "d028e72204","title": "Nando's.","loc": {"type": "Point","coordinates": [103.78932,1.30638]}} 
{"id": "8240305763","server": "8069","farm": "9","userId": "60026216@N00","secret": "41dc620fec","title": "Texas Chicken.","loc": {"type": "Point","coordinates": [103.78932,1.30638]}} 
{"id": "8241356958","server": "8340","farm": "9","userId": "60026216@N00","secret": "d686318fef","title": "Great ambience  @ The Star.","loc": {"type": "Point","coordinates": [103.78932,1.30638]}} 
{"id": "8241340244","server": "8062","farm": "9","userId": "60026216@N00","secret": "87e5cebf8b","title": "Water feature.","loc": {"type": "Point","coordinates": [103.78932,1.30638]}} 
{"id": "8240278189","server": "8198","farm": "9","userId": "60026216@N00","secret": "1bc48ebde6","title": "Christmas tree.","loc": {"type": "Point","coordinates": [103.78932,1.30638]}} 
{"id": "8239965012","server": "8065","farm": "9","userId": "24773033@N02","secret": "155d422476","title": "The truth about stupidity, stupid choices & kashungahan","loc": {"type": "Point","coordinates": [103.79043,1.307215]}} 
{"id": "8229775814","server": "8484","farm": "9","userId": "40011875@N00","secret": "faf47c632d","title": "Salted egg crab","loc": {"type": "Point","coordinates": [103.79265,1.312782]}} 
{"id": "8222127631","server": "8061","farm": "9","userId": "75093301@N00","secret": "93587f625d","title": "Makan! (Chwee kueh, roti prata, and calamansi juice w/ sugar plum)","loc": {"type": "Point","coordinates": [103.788,1.310999]}} 
{"id": "8213264583","server": "8209","farm": "9","userId": "23332574@N06","secret": "0358e48d79","title": "Watched Yoga Fugue 神游! His live was impressive, croon all the songs wif his unique touch n entertained in his wackiness! Love the cg n lightings! Cool! #concert #sg #sgig #music #live #performance #yogalim","loc": {"type": "Point","coordinates": [103.7884,1.306787]}} 
{"id": "8211294714","server": "8062","farm": "9","userId": "61670399@N07","secret": "f03a02f3ed","title": "Korean goodness","loc": {"type": "Point","coordinates": [103.78958,1.306212]}} 
{"id": "8202891904","server": "8489","farm": "9","userId": "28455224@N04","secret": "32e6411d75","title": "Beware of the wolves because it's a jungle in here. #genggua #oh_my_genggua #my_genggua #brunika #sgig #instasg","loc": {"type": "Point","coordinates": [103.78932,1.30638]}} 
{"id": "8202877152","server": "8341","farm": "9","userId": "28455224@N04","secret": "42eb442f5a","title": "Awan kapas dan pokok krismas.   #genggua #oh_my_genggua #my_genggua #bw_society #sgig #instasg #brunika  #instaplace #instaplaceapp @instaplaceapp #thestarvista","loc": {"type": "Point","coordinates": [103.78932,1.30638]}} 
{"id": "8193625822","server": "8208","farm": "9","userId": "54766247@N06","secret": "7a658bfa1e","title": "Butterfly","loc": {"type": "Point","coordinates": [103.79009,1.31023]}} 
{"id": "8193626290","server": "8064","farm": "9","userId": "54766247@N06","secret": "f62a8caf1b","title": "Forgotten Slide","loc": {"type": "Point","coordinates": [103.79009,1.31023]}} 
{"id": "8192538445","server": "8198","farm": "9","userId": "54766247@N06","secret": "b6a94635ea","title": "Locked Up","loc": {"type": "Point","coordinates": [103.78721,1.306852]}} 
{"id": "8191491463","server": "8199","farm": "9","userId": "85252992@N06","secret": "d1fcd74675","title": "Volvo B9TL CDGE","loc": {"type": "Point","coordinates": [103.79309,1.308525]}} 
{"id": "8174247624","server": "8206","farm": "9","userId": "35468141938@N01","secret": "a1d4c40f83","title": "Spotted a family cycling entourage. Husband on Tern, Grandma on CarryMe Trike, wife on foldie with son clinging on dear life...","loc": {"type": "Point","coordinates": [103.786545,1.309548]}} 
{"id": "8142484476","server": "8467","farm": "9","userId": "73695971@N00","secret": "a56ce5dd3e","title": "Ziyu","loc": {"type": "Point","coordinates": [103.78879,1.311399]}} 
{"id": "8142482518","server": "8476","farm": "9","userId": "73695971@N00","secret": "4de12a5e56","title": "Ziyu and Siew Gyan","loc": {"type": "Point","coordinates": [103.78879,1.311399]}} 
{"id": "8121318058","server": "8330","farm": "9","userId": "35468141938@N01","secret": "1ca2ebc3bc","title": "Fellow commuters. I see more of them nowadays, though mostly expats :(","loc": {"type": "Point","coordinates": [103.786545,1.309548]}} 
{"id": "8120738308","server": "8190","farm": "9","userId": "35468141938@N01","secret": "decf3d4eb5","title": "While bike commuting, stopped by Ghim Moh Market for breakfast","loc": {"type": "Point","coordinates": [103.787926,1.310958]}} 
{"id": "8108531370","server": "8185","farm": "9","userId": "35468141938@N01","secret": "6789fb7166","title": "I'd like a bottle of the Pungency please...","loc": {"type": "Point","coordinates": [103.78932,1.30638]}} 
{"id": "8105667043","server": "8467","farm": "9","userId": "63451580@N06","secret": "0d36cea627","title": "Dessert time!!!","loc": {"type": "Point","coordinates": [103.78847,1.306873]}} 
{"id": "8083165683","server": "8472","farm": "9","userId": "22458558@N05","secret": "144c7fe76d","title": "*","loc": {"type": "Point","coordinates": [103.78367,1.308667]}} 
{"id": "8082450471","server": "8195","farm": "9","userId": "61670399@N07","secret": "52a1b4dacb","title": "The new Star Vista mall is pretty cool","loc": {"type": "Point","coordinates": [103.78932,1.30638]}} 
{"id": "8079454450","server": "8046","farm": "9","userId": "8365188@N04","secret": "29b6519c5a","title": "Awesome mixed grill.","loc": {"type": "Point","coordinates": [103.78847,1.306894]}} 
{"id": "8077148384","server": "8190","farm": "9","userId": "32685471@N00","secret": "c4ee5f1586","title": "IMG_0132_2","loc": {"type": "Point","coordinates": [103.78933,1.306166]}} 
{"id": "8077146232","server": "8192","farm": "9","userId": "32685471@N00","secret": "0df73fd806","title": "IMG_0129_2","loc": {"type": "Point","coordinates": [103.79,1.3065]}} 
{"id": "8077149372","server": "8331","farm": "9","userId": "32685471@N00","secret": "cc34c41bb5","title": "IMG_0133","loc": {"type": "Point","coordinates": [103.788666,1.3065]}} 
{"id": "8077152602","server": "8055","farm": "9","userId": "32685471@N00","secret": "263eb24220","title": "IMG_0137","loc": {"type": "Point","coordinates": [103.7905,1.306666]}} 
{"id": "8077150902","server": "8195","farm": "9","userId": "32685471@N00","secret": "0b74e4b3c4","title": "IMG_0136","loc": {"type": "Point","coordinates": [103.78933,1.307]}} 
{"id": "8077150214","server": "8186","farm": "9","userId": "32685471@N00","secret": "deb71b9e41","title": "IMG_0134_2","loc": {"type": "Point","coordinates": [103.788666,1.307333]}} 
{"id": "8073752461","server": "8034","farm": "9","userId": "35468141938@N01","secret": "e1609dc650","title": "Bike n' Burger at a new joint, Triple-O's (Canadian). Love their sweet potato fries with mayo!","loc": {"type": "Point","coordinates": [103.788315,1.306894]}} 
{"id": "8062755499","server": "8454","farm": "9","userId": "99942665@N00","secret": "c06486893e","title": "IMG_20121006_194231","loc": {"type": "Point","coordinates": [103.78286,1.307282]}} 
{"id": "8062756236","server": "8173","farm": "9","userId": "99942665@N00","secret": "705c75de4b","title": "IMG_20121006_195606","loc": {"type": "Point","coordinates": [103.78286,1.307282]}} 
{"id": "8062753420","server": "8042","farm": "9","userId": "99942665@N00","secret": "3fc9279cb7","title": "IMG_20121006_193959","loc": {"type": "Point","coordinates": [103.78286,1.307282]}} 
{"id": "8062753739","server": "8452","farm": "9","userId": "99942665@N00","secret": "2f509881a8","title": "IMG_20121006_194139","loc": {"type": "Point","coordinates": [103.78286,1.307282]}} 
{"id": "8062755031","server": "8452","farm": "9","userId": "99942665@N00","secret": "d00538dfe9","title": "IMG_20121006_194215","loc": {"type": "Point","coordinates": [103.78286,1.307282]}} 
{"id": "8062754409","server": "8309","farm": "9","userId": "99942665@N00","secret": "54e60408d6","title": "IMG_20121006_194156","loc": {"type": "Point","coordinates": [103.78286,1.307282]}} 
{"id": "8062152445","server": "8038","farm": "9","userId": "69278909@N08","secret": "a2d3df9e54","title": "","loc": {"type": "Point","coordinates": [103.7895,1.306167]}} 
{"id": "8061370817","server": "8462","farm": "9","userId": "35468141938@N01","secret": "d62d2c474e","title": "This bike is for... Playing Commuting and now, Marketing!","loc": {"type": "Point","coordinates": [103.787926,1.310958]}} 
{"id": "8038101715","server": "8034","farm": "9","userId": "55988460@N05","secret": "9147ec5b4e","title": "20120929-gm04","loc": {"type": "Point","coordinates": [103.79149,1.310928]}} 
{"id": "8037530227","server": "8032","farm": "9","userId": "25802865@N08","secret": "9a7012535a","title": "Starbucks Coffee","loc": {"type": "Point","coordinates": [103.787994,1.30638]}} 
{"id": "8036212288","server": "8173","farm": "9","userId": "55988460@N05","secret": "a7de77d244","title": "20120929-gm02","loc": {"type": "Point","coordinates": [103.791466,1.310863]}} 
{"id": "8036204184","server": "8030","farm": "9","userId": "55988460@N05","secret": "fbed9747a1","title": "20120929-gm03","loc": {"type": "Point","coordinates": [103.79151,1.310863]}} 
{"id": "8036219974","server": "8042","farm": "9","userId": "55988460@N05","secret": "6de767eed8","title": "20120929-gm01_1","loc": {"type": "Point","coordinates": [103.79151,1.310885]}} 
