{"id": "8131141520","server": "8333","farm": "9","userId": "27844104@N00","secret": "15f03ffa59","title": "Monkey eating durian","loc": {"type": "Point","coordinates": [103.777336,1.362167]}} 
{"id": "9229839567","server": "7386","farm": "8","userId": "12997609@N00","secret": "8b0e8ca6dc","title": "IMG_7450","loc": {"type": "Point","coordinates": [103.77309,1.361563]}} 
{"id": "9221733754","server": "7399","farm": "8","userId": "13394179@N06","secret": "4e43c84c24","title": "IMAG0236","loc": {"type": "Point","coordinates": [103.776764,1.36385]}} 
{"id": "9187235905","server": "3711","farm": "4","userId": "14385475@N05","secret": "716e418e11","title": "IMG_8352","loc": {"type": "Point","coordinates": [103.782166,1.362166]}} 
{"id": "9190037342","server": "5537","farm": "6","userId": "14385475@N05","secret": "8e6bef1054","title": "IMG_8353","loc": {"type": "Point","coordinates": [103.782166,1.362166]}} 
{"id": "9164231810","server": "3743","farm": "4","userId": "15170730@N07","secret": "4ba11ff09e","title": "quarry","loc": {"type": "Point","coordinates": [103.772575,1.361468]}} 
{"id": "8728224996","server": "7321","farm": "8","userId": "80217014@N00","secret": "0c66a34305","title": "Reminds me of enemy contact point during SISPEC days","loc": {"type": "Point","coordinates": [103.77632,1.364342]}} 
{"id": "8584094831","server": "8112","farm": "9","userId": "60026216@N00","secret": "f07e31f59f","title": "Wallace Education Centre.","loc": {"type": "Point","coordinates": [103.77632,1.364342]}} 
{"id": "8584092069","server": "8391","farm": "9","userId": "60026216@N00","secret": "c36dfeeff5","title": "Wallace Education Centre.","loc": {"type": "Point","coordinates": [103.77632,1.364342]}} 
{"id": "8584035107","server": "8381","farm": "9","userId": "60026216@N00","secret": "6bf4ca2472","title": "Wallace Trail.","loc": {"type": "Point","coordinates": [103.77632,1.364342]}} 
{"id": "8564827786","server": "8108","farm": "9","userId": "55486190@N00","secret": "c97bb78171","title": "Where are we? Are we lost?!! ... #CEFC #CYAN #BukitTimahHill training","loc": {"type": "Point","coordinates": [103.77632,1.364342]}} 
{"id": "8428828649","server": "8183","farm": "9","userId": "65208283@N08","secret": "7c9a227a1b","title": "Nature","loc": {"type": "Point","coordinates": [103.77754,1.364536]}} 
{"id": "8376575178","server": "8094","farm": "9","userId": "65208283@N08","secret": "f96b02a9cf","title": "Nature","loc": {"type": "Point","coordinates": [103.77522,1.365265]}} 
{"id": "8308421239","server": "8219","farm": "9","userId": "42594504@N00","secret": "f204fb508a","title": "Good morning climbers!!","loc": {"type": "Point","coordinates": [103.77632,1.364342]}} 
{"id": "8308421251","server": "8500","farm": "9","userId": "42594504@N00","secret": "2837d241cc","title": "Timber!!!","loc": {"type": "Point","coordinates": [103.77632,1.364342]}} 
{"id": "8309472742","server": "8218","farm": "9","userId": "42594504@N00","secret": "bb63de753c","title": "thousand year lizi","loc": {"type": "Point","coordinates": [103.77632,1.364342]}} 
{"id": "8309472672","server": "8502","farm": "9","userId": "42594504@N00","secret": "e1874dc059","title": "bouldering dream :)","loc": {"type": "Point","coordinates": [103.77535,1.36475]}} 
{"id": "8309472718","server": "8360","farm": "9","userId": "42594504@N00","secret": "bef25d9f73","title": "bouldering wall","loc": {"type": "Point","coordinates": [103.77535,1.36475]}} 
{"id": "8268372815","server": "8347","farm": "9","userId": "42223228@N04","secret": "b8da3ccfe5","title": "271120121592a","loc": {"type": "Point","coordinates": [103.77422,1.364128]}} 
{"id": "8131123447","server": "8331","farm": "9","userId": "27844104@N00","secret": "025eb7982e","title": "Durian","loc": {"type": "Point","coordinates": [103.777336,1.362167]}} 
{"id": "8062819539","server": "8040","farm": "9","userId": "99942665@N00","secret": "ded47a8fe1","title": "P1150196","loc": {"type": "Point","coordinates": [103.77545,1.362044]}} 
{"id": "8062777587","server": "8310","farm": "9","userId": "99942665@N00","secret": "3246d4ef6e","title": "P1150176","loc": {"type": "Point","coordinates": [103.77273,1.361186]}} 
{"id": "8062783845","server": "8322","farm": "9","userId": "99942665@N00","secret": "4475af1f8d","title": "P1150198","loc": {"type": "Point","coordinates": [103.77545,1.362044]}} 
{"id": "8062790482","server": "8321","farm": "9","userId": "99942665@N00","secret": "a093c7b1a7","title": "P1150237","loc": {"type": "Point","coordinates": [103.77545,1.362044]}} 
{"id": "8062776573","server": "8313","farm": "9","userId": "99942665@N00","secret": "c9ddc506b8","title": "PANO_20121007_082620","loc": {"type": "Point","coordinates": [103.77273,1.361186]}} 
{"id": "8062780818","server": "8175","farm": "9","userId": "99942665@N00","secret": "1fe0474476","title": "P1150183","loc": {"type": "Point","coordinates": [103.77273,1.361186]}} 
{"id": "8062789218","server": "8177","farm": "9","userId": "99942665@N00","secret": "8b91b978da","title": "P1150218","loc": {"type": "Point","coordinates": [103.77545,1.362044]}} 
{"id": "8062782014","server": "8179","farm": "9","userId": "99942665@N00","secret": "37ec5ed5bc","title": "P1150189","loc": {"type": "Point","coordinates": [103.77545,1.362044]}} 
{"id": "8062784923","server": "8170","farm": "9","userId": "99942665@N00","secret": "fe28bc62b0","title": "P1150202","loc": {"type": "Point","coordinates": [103.77545,1.362044]}} 
{"id": "8062786069","server": "8319","farm": "9","userId": "99942665@N00","secret": "3de42d08d7","title": "P1150213","loc": {"type": "Point","coordinates": [103.77545,1.362044]}} 
{"id": "8062776388","server": "8171","farm": "9","userId": "99942665@N00","secret": "6262397a65","title": "P1150172","loc": {"type": "Point","coordinates": [103.77273,1.361186]}} 
{"id": "8062775216","server": "8454","farm": "9","userId": "99942665@N00","secret": "365775a584","title": "PANO_20121007_082515","loc": {"type": "Point","coordinates": [103.77273,1.361186]}} 
{"id": "8062779116","server": "8171","farm": "9","userId": "99942665@N00","secret": "f1f0afe47f","title": "P1150177","loc": {"type": "Point","coordinates": [103.77273,1.361186]}} 
{"id": "8062788269","server": "8310","farm": "9","userId": "99942665@N00","secret": "c73db0332e","title": "P1150217","loc": {"type": "Point","coordinates": [103.77545,1.362044]}} 
{"id": "8062791329","server": "8042","farm": "9","userId": "99942665@N00","secret": "182c807f04","title": "P1150243","loc": {"type": "Point","coordinates": [103.77545,1.362044]}} 
{"id": "8043656316","server": "8319","farm": "9","userId": "35468141938@N01","secret": "cb417f66e6","title": "Wheeeeeee!!!","loc": {"type": "Point","coordinates": [103.772575,1.361468]}} 
{"id": "8037569469","server": "8322","farm": "9","userId": "35468141938@N01","secret": "3ece25d0d6","title": "'Mountain biking is fun but dangerous. If you crash, you'll crash your brains out. Today, we won't let you crash.' - Darcy","loc": {"type": "Point","coordinates": [103.772575,1.361468]}} 
{"id": "8037429109","server": "8460","farm": "9","userId": "35468141938@N01","secret": "0ddea500a1","title": "Everyone looks so hardcore at this basic course for Zero2Hero, even the ladies are like she-hulks!","loc": {"type": "Point","coordinates": [103.77632,1.364342]}} 
