{"id": "8729361591","server": "7420","farm": "8","userId": "60026216@N00","secret": "acd07558b0","title": "#Morning #walk with #baby Indi.","loc": {"type": "Point","coordinates": [103.751335,1.366136]}} 
{"id": "8464352987","server": "8249","farm": "9","userId": "88140054@N04","secret": "790b057b11","title": "Macro chivas shot.","loc": {"type": "Point","coordinates": [103.750336,1.362333]}} 
{"id": "8464352071","server": "8509","farm": "9","userId": "88140054@N04","secret": "f20fd70618","title": "Sunset in the red space background.","loc": {"type": "Point","coordinates": [103.75017,1.362333]}} 
{"id": "8448108178","server": "8190","farm": "9","userId": "27815016@N04","secret": "efca5fbf0c","title": "Huge ass spoiler","loc": {"type": "Point","coordinates": [103.7525,1.3645]}} 
{"id": "8439962393","server": "8184","farm": "9","userId": "27815016@N04","secret": "9b53151802","title": "molten Floors","loc": {"type": "Point","coordinates": [103.752,1.364166]}} 
{"id": "8415642109","server": "8079","farm": "9","userId": "27815016@N04","secret": "7c2d82e878","title": "Ohm","loc": {"type": "Point","coordinates": [103.752,1.364667]}} 
{"id": "8416734460","server": "8351","farm": "9","userId": "27815016@N04","secret": "dcdda1a4d2","title": "Sti moulding","loc": {"type": "Point","coordinates": [103.752,1.364667]}} 
{"id": "8375833378","server": "8093","farm": "9","userId": "27815016@N04","secret": "733f2c5c61","title": "New key pouch","loc": {"type": "Point","coordinates": [103.752144,1.362878]}} 
{"id": "8375835120","server": "8079","farm": "9","userId": "27815016@N04","secret": "158299728f","title": "New key pouch","loc": {"type": "Point","coordinates": [103.752144,1.362878]}} 
{"id": "8371544227","server": "8372","farm": "9","userId": "27815016@N04","secret": "4d40788339","title": "Sti polishing","loc": {"type": "Point","coordinates": [103.752,1.364667]}} 
{"id": "8372611502","server": "8054","farm": "9","userId": "27815016@N04","secret": "6b94343d72","title": "Sti","loc": {"type": "Point","coordinates": [103.752,1.364667]}} 
{"id": "8372610468","server": "8189","farm": "9","userId": "27815016@N04","secret": "07ac5e4ec6","title": "Sti sub","loc": {"type": "Point","coordinates": [103.752,1.364667]}} 
{"id": "8277557116","server": "8479","farm": "9","userId": "91112483@N05","secret": "1fa376d902","title": "On our way to church","loc": {"type": "Point","coordinates": [103.75267,1.365197]}} 
{"id": "8056883465","server": "8038","farm": "9","userId": "27815016@N04","secret": "9fb28c9c5a","title": "Sold: Rockford Fosgate R500-1 Mono Amp","loc": {"type": "Point","coordinates": [103.752144,1.362878]}} 
{"id": "8056883081","server": "8031","farm": "9","userId": "27815016@N04","secret": "96b32c8444","title": "Sold: Rockford Fosgate R500-1 Mono Amp","loc": {"type": "Point","coordinates": [103.752144,1.362878]}} 
{"id": "8056884662","server": "8315","farm": "9","userId": "27815016@N04","secret": "1dcf0c80e7","title": "Sold: Rockford Fosgate R500-1 Mono Amp","loc": {"type": "Point","coordinates": [103.752144,1.362878]}} 
{"id": "8056884852","server": "8319","farm": "9","userId": "27815016@N04","secret": "0c7db799a0","title": "Sold: Rockford Fosgate R500-1 Mono Amp","loc": {"type": "Point","coordinates": [103.752144,1.362878]}} 
{"id": "8056883267","server": "8321","farm": "9","userId": "27815016@N04","secret": "7be164fbb4","title": "Sold: Rockford Fosgate R500-1 Mono Amp","loc": {"type": "Point","coordinates": [103.752144,1.362878]}} 
{"id": "8056883888","server": "8178","farm": "9","userId": "27815016@N04","secret": "0704dbc227","title": "Sold: Rockford Fosgate R500-1 Mono Amp","loc": {"type": "Point","coordinates": [103.752144,1.362878]}} 
