{"id": "9433618227","server": "7380","farm": "8","userId": "93733446@N03","secret": "c0bfe3470d","title": "2012-08-13 12.55.19","loc": {"type": "Point","coordinates": [103.68084,1.347638]}} 
{"id": "9433618683","server": "2876","farm": "3","userId": "93733446@N03","secret": "429d74604e","title": "2012-08-13 12.55.29","loc": {"type": "Point","coordinates": [103.68084,1.347638]}} 
{"id": "9091727120","server": "7408","farm": "8","userId": "28455224@N04","secret": "8b6885714b","title": "Something to ponder about. Before this I was always confident that the grass is always greener on the other side of the fence. Change your perspectives and work on it with outmost and highest commitments. Give it a chance, insya Allah, everything will be","loc": {"type": "Point","coordinates": [103.677475,1.349129]}} 
{"id": "9080570259","server": "2839","farm": "3","userId": "28261482@N05","secret": "a27617f898","title": "Foggy...","loc": {"type": "Point","coordinates": [103.68205,1.347528]}} 
{"id": "8975960377","server": "7336","farm": "8","userId": "28455224@N04","secret": "f345c91e81","title": "Now playing  ♫ 'Mirrors' Deluxe Edition by Justin Timberlake | via #soundtracking app • Lagu daripada Barumasuk Kayutasik bertajuk Cermin (Edisi Kelas Mewah). #barumasukkayutasik #cermin","loc": {"type": "Point","coordinates": [103.67826,1.347996]}} 
{"id": "8971625123","server": "2849","farm": "3","userId": "28455224@N04","secret": "0f20c68c92","title": "Sang penginstagram tegar. #genggua #my_genggua","loc": {"type": "Point","coordinates": [103.67837,1.34849]}} 
{"id": "8965713827","server": "2883","farm": "3","userId": "28455224@N04","secret": "cd751019c4","title": "YTF for lunch. Love the greens, let's count the beans. Look at the reds, hope the fat gets shed.   #genggua #my_genggua #genggua_makan","loc": {"type": "Point","coordinates": [103.67748,1.348704]}} 
{"id": "8947054982","server": "7379","farm": "8","userId": "28455224@N04","secret": "af1404a6ae","title": "At the gym. #genggua #my_genggua","loc": {"type": "Point","coordinates": [103.677315,1.349486]}} 
{"id": "8935079019","server": "5449","farm": "6","userId": "28455224@N04","secret": "801b395e2a","title": "My backpack next to the conference bag. A group of guys behind me suddenly talk about their NS experience when they realise I'm carrying this bag. I guess, I look like that geek ah beng who just got off from an NS camp and straight to the conference venue","loc": {"type": "Point","coordinates": [103.67746,1.350276]}} 
{"id": "8932215260","server": "7379","farm": "8","userId": "28455224@N04","secret": "24e6e02ab7","title": "At RPC 2013, to present my research today. Bismillah.","loc": {"type": "Point","coordinates": [103.67837,1.34849]}} 
{"id": "8899424360","server": "7316","farm": "8","userId": "54530665@N08","secret": "d0b07ef370","title": "Searching for some luck  #sg #ntu #university #singapore #bestoftheday #photography #picoftheday #ios #iphone #followtofollow  #colourful #travel #luck #me","loc": {"type": "Point","coordinates": [103.68078,1.347341]}} 
{"id": "8429645004","server": "8493","farm": "9","userId": "92759839@N08","secret": "ee574cd058","title": "Holy water","loc": {"type": "Point","coordinates": [103.68206,1.352198]}} 
{"id": "8427522718","server": "8494","farm": "9","userId": "92759839@N08","secret": "e131ff49c3","title": "Lamp","loc": {"type": "Point","coordinates": [103.68206,1.352198]}} 
{"id": "8391605242","server": "8368","farm": "9","userId": "28455224@N04","secret": "b7c89b197d","title": "Bikini-cut the trees. #genggua #my_genggua","loc": {"type": "Point","coordinates": [103.67837,1.34849]}} 
{"id": "8388797632","server": "8360","farm": "9","userId": "28455224@N04","secret": "e629830053","title": "Enjoying my currypuff. #genggua #my_genggua","loc": {"type": "Point","coordinates": [103.679886,1.347405]}} 
{"id": "8220202137","server": "8064","farm": "9","userId": "35187209@N00","secret": "5b9d264d77","title": "Visit to NTU","loc": {"type": "Point","coordinates": [103.68383,1.349833]}} 
{"id": "8183504269","server": "8488","farm": "9","userId": "28261482@N05","secret": "f8be848c47","title": "What happened to you? Love the new Deftones album  #deftones","loc": {"type": "Point","coordinates": [103.680725,1.34776]}} 
{"id": "8168810419","server": "7268","farm": "8","userId": "28455224@N04","secret": "81d0633413","title": "ڤولاروءيد","loc": {"type": "Point","coordinates": [103.67837,1.34849]}} 
{"id": "8168778340","server": "8059","farm": "9","userId": "28455224@N04","secret": "4b28a45690","title": "#HBR #genggua","loc": {"type": "Point","coordinates": [103.67837,1.34849]}} 
{"id": "8163946944","server": "7280","farm": "8","userId": "28455224@N04","secret": "c12af725f5","title": "The Room. This Morning. #genggua","loc": {"type": "Point","coordinates": [103.67837,1.34849]}} 
{"id": "8144228010","server": "8331","farm": "9","userId": "28455224@N04","secret": "bf1ac7c1e1","title": "My dinner (prasan angmo) #genggua","loc": {"type": "Point","coordinates": [103.67837,1.34849]}} 
{"id": "8134278681","server": "8044","farm": "9","userId": "28455224@N04","secret": "aff493bfd6","title": "Reinstalled the app • #genggua","loc": {"type": "Point","coordinates": [103.67837,1.34849]}} 
{"id": "8134215278","server": "8336","farm": "9","userId": "28455224@N04","secret": "437774776e","title": "Pores on the skin. #genggua","loc": {"type": "Point","coordinates": [103.67826,1.347996]}} 
{"id": "8115731725","server": "8326","farm": "9","userId": "28455224@N04","secret": "0273a5bd23","title": "Clementine • #genggua","loc": {"type": "Point","coordinates": [103.67826,1.347996]}} 
{"id": "8102685161","server": "8330","farm": "9","userId": "28455224@N04","secret": "fe728461d4","title": "Full of emptiness.","loc": {"type": "Point","coordinates": [103.67754,1.34862]}} 
{"id": "8102291121","server": "8330","farm": "9","userId": "28455224@N04","secret": "e2c6d4c191","title": "Food. #genggua","loc": {"type": "Point","coordinates": [103.67826,1.347996]}} 
{"id": "8099497434","server": "8051","farm": "9","userId": "28455224@N04","secret": "62efe07fc2","title": "","loc": {"type": "Point","coordinates": [103.67837,1.34849]}} 
{"id": "8096066934","server": "8476","farm": "9","userId": "28455224@N04","secret": "a933ebe769","title": "Ria. #genggua #brunika","loc": {"type": "Point","coordinates": [103.67748,1.348704]}} 
{"id": "8081926919","server": "8055","farm": "9","userId": "28455224@N04","secret": "45ea643a74","title": "Sama-sama kita sedekahkan pahala surah Al-fatihah kepada Allahyarham @bws_wakkarim • #genggua #brunika","loc": {"type": "Point","coordinates": [103.67837,1.34849]}} 
{"id": "8081485489","server": "8054","farm": "9","userId": "28455224@N04","secret": "0bc08728b4","title": "Presenting this in 5 mins. WML. #genggua","loc": {"type": "Point","coordinates": [103.67837,1.34849]}} 
{"id": "8081276560","server": "8194","farm": "9","userId": "28455224@N04","secret": "6bfe047738","title": "WML • #genggua","loc": {"type": "Point","coordinates": [103.67837,1.34849]}} 
