{"id": "8496095071","server": "8374","farm": "9","userId": "8262083@N02","secret": "4b6491f903","title": "Singapore house","loc": {"type": "Point","coordinates": [103.836,1.322666]}} 
{"id": "8049397318","server": "8035","farm": "9","userId": "87827337@N08","secret": "b344235fec","title": "Chameleon","loc": {"type": "Point","coordinates": [103.826836,1.320666]}} 
{"id": "9378539735","server": "3759","farm": "4","userId": "98896805@N02","secret": "6e6990dba9","title": "DSCN0172.JPG","loc": {"type": "Point","coordinates": [103.827965,1.326697]}} 
{"id": "9276288834","server": "2820","farm": "3","userId": "35949119@N00","secret": "acefcd3c6e","title": "Saint Joseph's Institution's Annual Parade! Seniors of uniformed groups handing over ranks to juniors #Singapore #SJI #vscocam","loc": {"type": "Point","coordinates": [103.8282,1.323455]}} 
{"id": "9276321720","server": "7288","farm": "8","userId": "35949119@N00","secret": "836323d342","title": "Peering out from the second floor balcony overlooking the annual parade #SJI #singapore #vscocam","loc": {"type": "Point","coordinates": [103.8282,1.323455]}} 
{"id": "9091974886","server": "5329","farm": "6","userId": "74006149@N07","secret": "115ac9b7c0","title": "Need to take FTT again... Forget that there is always a 2 mth queue... #driving #sg","loc": {"type": "Point","coordinates": [103.82742,1.321953]}} 
{"id": "9085172461","server": "7303","farm": "8","userId": "74006149@N07","secret": "c8f18156d2","title": "Found 3 flashlight holders but I can't find the 3 SAF flashlight that it supposed to be with...","loc": {"type": "Point","coordinates": [103.82742,1.321953]}} 
{"id": "9081999023","server": "5446","farm": "6","userId": "74006149@N07","secret": "bd685d65e9","title": "I am supposed to clean up my room and finish up a video... But here I am playing pokemon.... #whatshit #procrastinating","loc": {"type": "Point","coordinates": [103.82742,1.321953]}} 
{"id": "9038390309","server": "7419","farm": "8","userId": "15488769@N00","secret": "ecbbd8ea27","title": "The hardest part","loc": {"type": "Point","coordinates": [103.8267,1.323625]}} 
{"id": "8979474582","server": "2849","farm": "3","userId": "74006149@N07","secret": "0cf8e49708","title": "I look like a chao beng.... Oh god why.... #ORDLOH #freedom #sg #selca","loc": {"type": "Point","coordinates": [103.82742,1.321953]}} 
{"id": "8947872280","server": "5332","farm": "6","userId": "74006149@N07","secret": "400d24b772","title": "Unpacking all these load from camp... Time to wash then zip lock everything till god knows when. #sg #nsf #ord","loc": {"type": "Point","coordinates": [103.82742,1.321953]}} 
{"id": "8915609305","server": "2889","farm": "3","userId": "74006149@N07","secret": "6edc23109b","title": "By luck and shaking the box. Managed guessed my fav hitagi.. #bakemonogatari #jap #otaku #toys #sg","loc": {"type": "Point","coordinates": [103.82742,1.321953]}} 
{"id": "8900599641","server": "7345","farm": "8","userId": "74006149@N07","secret": "4d3f336fac","title": "Other guys get 1 more chic bar, others get a roof. For me I finally got my down arrow. Just to use for 1 week! #noLongeraPTE #ns #ORDLO","loc": {"type": "Point","coordinates": [103.82742,1.321953]}} 
{"id": "8869186249","server": "5349","farm": "6","userId": "74006149@N07","secret": "bdb3aa3a49","title": "Need to develop them before u can't process slides in Singapore anymore. #film #exposedfilmporn #e6","loc": {"type": "Point","coordinates": [103.82742,1.321953]}} 
{"id": "8688036183","server": "7051","farm": "8","userId": "41894167963@N01","secret": "e739485473","title": "","loc": {"type": "Point","coordinates": [103.82633,1.320166]}} 
{"id": "8647871174","server": "8262","farm": "9","userId": "49098167@N07","secret": "5dfd37b39e","title": "The last friendly before the start of the league...","loc": {"type": "Point","coordinates": [103.83514,1.324925]}} 
{"id": "8616010582","server": "8253","farm": "9","userId": "74006149@N07","secret": "51d05742dd","title": "#foodporn #lunch","loc": {"type": "Point","coordinates": [103.82742,1.321953]}} 
{"id": "8568280474","server": "8101","farm": "9","userId": "74006149@N07","secret": "527516c212","title": "This little prototype flyer is still on my wall since 2009. Man I really miss organizing this event. #soy #cosplayevent #flashback @mssaku","loc": {"type": "Point","coordinates": [103.82742,1.321953]}} 
{"id": "8548165358","server": "8384","farm": "9","userId": "74006149@N07","secret": "a33d3ea5d8","title": "#homemade blue cheese hamburg with mash. My mom is awesome! #foodporn","loc": {"type": "Point","coordinates": [103.82742,1.321953]}} 
{"id": "8523766632","server": "8240","farm": "9","userId": "8870193@N03","secret": "6824359a90","title": "His grace. #testifytolove #YouthRally (Last night's photo)","loc": {"type": "Point","coordinates": [103.83514,1.324925]}} 
{"id": "8522032096","server": "8239","farm": "9","userId": "8870193@N03","secret": "7dc1c89bbf","title": "I might sound crazy but somehow expressways seems to give me an adrenaline rush. #Night #Light #Singapore #Expressway #Street #Road #iphonephotography #iphonesia #igsg #instagood #capture #Beautiful","loc": {"type": "Point","coordinates": [103.83514,1.324925]}} 
{"id": "8520535361","server": "8508","farm": "9","userId": "8870193@N03","secret": "b9ce96b1d4","title": "#OLPSyouth at #testifytolove Rally! @decruz0111 @joylovescris @emeanie @_Delynneeee_ @theemirstrikesback","loc": {"type": "Point","coordinates": [103.83514,1.324925]}} 
{"id": "8520205705","server": "8106","farm": "9","userId": "8870193@N03","secret": "04846d1f50","title": "#olpsyouth at #TestifyToLove @joylovescris @theemirstrikesback @thatsajerome","loc": {"type": "Point","coordinates": [103.83514,1.324925]}} 
{"id": "8520036679","server": "8525","farm": "9","userId": "8870193@N03","secret": "711dd9aebd","title": "","loc": {"type": "Point","coordinates": [103.83514,1.324925]}} 
{"id": "8500698800","server": "8384","farm": "9","userId": "14932126@N08","secret": "5cb055d38f","title": "IMG_0079","loc": {"type": "Point","coordinates": [103.828,1.3215]}} 
{"id": "8457294265","server": "8109","farm": "9","userId": "74006149@N07","secret": "527dedf978","title": "This year like more food! #cny #reuniondinner!","loc": {"type": "Point","coordinates": [103.82742,1.321953]}} 
{"id": "8450175397","server": "8378","farm": "9","userId": "74006149@N07","secret": "d1986d155d","title": "Product of cleaning my dry cabi today. This is just the first deck. #NameTheCameras #cameraporn #drycabi","loc": {"type": "Point","coordinates": [103.82742,1.321953]}} 
{"id": "8448931625","server": "8502","farm": "9","userId": "74006149@N07","secret": "6a0f92c134","title": "Everything out.... maybe I should do a proper lay out lol #cameraporn #toomanycameras","loc": {"type": "Point","coordinates": [103.82742,1.321953]}} 
{"id": "8449971436","server": "8371","farm": "9","userId": "74006149@N07","secret": "e539899681","title": "Sony finally ended its MD line and I found my first MD walkman....  it is 11 years old and still working! #springcleaning #techrelics","loc": {"type": "Point","coordinates": [103.82742,1.321953]}} 
{"id": "8447541682","server": "8216","farm": "9","userId": "74006149@N07","secret": "b57ca94144","title": "Mine super discounted leather #cny shoes that came in one day from #zaiora @hiiragishi","loc": {"type": "Point","coordinates": [103.82742,1.321953]}} 
{"id": "8431318625","server": "8475","farm": "9","userId": "74006149@N07","secret": "e95c9de225","title": "Name those CPU parts! Man I can't believe I am still hoarding them after so many years... time to get rid of them... #springcleaning anyway if you want any of my old CPU parts... pm lol!","loc": {"type": "Point","coordinates": [103.82742,1.321953]}} 
{"id": "8291603866","server": "8081","farm": "9","userId": "74006149@N07","secret": "6c2df33c35","title": "#fieldpack for ops #comicfiesta all out and ready for inspection Sgt.... #nikon #d300s #50mm #f1.4 #17-50 #lomography #belair6x12 #lc-a+ #instaback #films #120 #provia #portra #velvia #delta #elitechrome #instaxmini","loc": {"type": "Point","coordinates": [103.82742,1.321953]}} 
{"id": "8238358706","server": "8480","farm": "9","userId": "74006149@N07","secret": "4d7f069640","title": "Another new pass to add to my pass collection.... #siggraphasia #sv","loc": {"type": "Point","coordinates": [103.82742,1.321953]}} 
{"id": "8186941454","server": "8206","farm": "9","userId": "74006149@N07","secret": "44fe1e2d60","title": "Good morning little snail","loc": {"type": "Point","coordinates": [103.82742,1.321953]}} 
{"id": "8127521307","server": "8051","farm": "9","userId": "65757632@N00","secret": "703a731685","title": "Knockdown c bords while naa pa sa bus, after spending his day in Legoland","loc": {"type": "Point","coordinates": [103.82672,1.3233]}} 
{"id": "8127167541","server": "8045","farm": "9","userId": "74006149@N07","secret": "7ba5900329","title": "Time to get to work! #pimpmypc","loc": {"type": "Point","coordinates": [103.82742,1.321953]}} 
{"id": "8121917292","server": "8049","farm": "9","userId": "74006149@N07","secret": "ee3fe47493","title": "came home just to unbox this moster!","loc": {"type": "Point","coordinates": [103.82742,1.321953]}} 
{"id": "8049401437","server": "8462","farm": "9","userId": "87827337@N08","secret": "b3e2737ab2","title": "Hornbill in Goldhill","loc": {"type": "Point","coordinates": [103.83234,1.321666]}} 
