{"id": "9345204721","server": "7390","farm": "8","userId": "54439245@N04","secret": "b5f8688436","title": "Selamat pagi, semoga semuanya akan baik-baik saja #love #tagsforlike #tweetgram #photooftheday #follow #followme #look #webstagram #follow4follow #landscape #sky #people #warga #photo #good #morning #wish","loc": {"type": "Point","coordinates": [103.64654,1.482295]}} 
{"id": "9252997467","server": "5336","farm": "6","userId": "95799632@N03","secret": "70f1faf707","title": "Happy Ramadan","loc": {"type": "Point","coordinates": [103.64716,1.4835]}} 
{"id": "8730095693","server": "7376","farm": "8","userId": "41933249@N08","secret": "354cea50ba","title": "Tea time!","loc": {"type": "Point","coordinates": [103.65006,1.478414]}} 
{"id": "8706261869","server": "8130","farm": "9","userId": "41933249@N08","secret": "d17ee7fb45","title": "Curtain Shop in Johor Bahru Bukit indah!  Checkout www.BellagioCurtain.com","loc": {"type": "Point","coordinates": [103.65068,1.478291]}} 
{"id": "8667218577","server": "8536","farm": "9","userId": "89260869@N06","secret": "6951cd29d1","title": "Suka diaa dapat jalan2...","loc": {"type": "Point","coordinates": [103.64741,1.48127]}} 
{"id": "8668311478","server": "8519","farm": "9","userId": "89260869@N06","secret": "26b1739bfe","title": "My wife &daughter... <3","loc": {"type": "Point","coordinates": [103.64741,1.48127]}} 
{"id": "8668317862","server": "8527","farm": "9","userId": "89260869@N06","secret": "1def77fe0f","title": "Shoping brg2 dapurr... :D","loc": {"type": "Point","coordinates": [103.64741,1.48127]}} 
