{"id": "8605251691","server": "8519","farm": "9","userId": "32342207@N04","secret": "1d23432f61","title": "Singapore Avril 2013","loc": {"type": "Point","coordinates": [103.81801,1.361747]}} 
{"id": "8604152336","server": "8399","farm": "9","userId": "94524471@N04","secret": "e90f6e546a","title": "Zebra - Singapore Zoo","loc": {"type": "Point","coordinates": [103.81993,1.362197]}} 
{"id": "8604155446","server": "8403","farm": "9","userId": "94524471@N04","secret": "18f156c1fe","title": "Orangutan - Singapore Zoo","loc": {"type": "Point","coordinates": [103.82214,1.36194]}} 
{"id": "8604149672","server": "8392","farm": "9","userId": "94524471@N04","secret": "89c3b26cff","title": "Crocodile - Singapore Zoo","loc": {"type": "Point","coordinates": [103.824745,1.362176]}} 
{"id": "8415263629","server": "8518","farm": "9","userId": "13947025@N04","secret": "afbb296b0a","title": "Pacific Swallow 002_2013","loc": {"type": "Point","coordinates": [103.82419,1.367131]}} 
{"id": "8416360130","server": "8234","farm": "9","userId": "13947025@N04","secret": "3c547dfbf8","title": "Pacific Swallow 001_2013","loc": {"type": "Point","coordinates": [103.824234,1.36711]}} 
{"id": "8415263543","server": "8510","farm": "9","userId": "13947025@N04","secret": "2a6d1183ab","title": "Pacific Swallow 003_2013","loc": {"type": "Point","coordinates": [103.82421,1.367045]}} 
{"id": "8157784502","server": "8068","farm": "9","userId": "60972409@N00","secret": "4bf007a390","title": "","loc": {"type": "Point","coordinates": [103.824165,1.365667]}} 
{"id": "8157755634","server": "8209","farm": "9","userId": "60972409@N00","secret": "4b9ab33323","title": "","loc": {"type": "Point","coordinates": [103.824165,1.365667]}} 
{"id": "8157768434","server": "8061","farm": "9","userId": "60972409@N00","secret": "f17cfdc60b","title": "","loc": {"type": "Point","coordinates": [103.824165,1.365667]}} 
{"id": "8157709781","server": "8349","farm": "9","userId": "60972409@N00","secret": "92da3c7f45","title": "","loc": {"type": "Point","coordinates": [103.824165,1.365667]}} 
