{"id": "9385082922","server": "3741","farm": "4","userId": "99485553@N03","secret": "33fe9c774f","title": "","loc": {"type": "Point","coordinates": [103.751114,1.403888]}} 
{"id": "9385070402","server": "2881","farm": "3","userId": "99485553@N03","secret": "ccff71c592","title": "","loc": {"type": "Point","coordinates": [103.75083,1.403333]}} 
{"id": "9385066030","server": "5340","farm": "6","userId": "99485553@N03","secret": "a4bc0cbbc6","title": "","loc": {"type": "Point","coordinates": [103.75083,1.403333]}} 
{"id": "9385096720","server": "5452","farm": "6","userId": "99485553@N03","secret": "5bb64131b1","title": "","loc": {"type": "Point","coordinates": [103.75139,1.403333]}} 
{"id": "9385080352","server": "3793","farm": "4","userId": "99485553@N03","secret": "ea86128450","title": "","loc": {"type": "Point","coordinates": [103.75083,1.403611]}} 
{"id": "9382308669","server": "5539","farm": "6","userId": "99485553@N03","secret": "4e3ab14ca6","title": "","loc": {"type": "Point","coordinates": [103.75083,1.403333]}} 
{"id": "9385074544","server": "2825","farm": "3","userId": "99485553@N03","secret": "024609df64","title": "","loc": {"type": "Point","coordinates": [103.75083,1.403611]}} 
{"id": "9385085342","server": "3766","farm": "4","userId": "99485553@N03","secret": "624e8f0c88","title": "","loc": {"type": "Point","coordinates": [103.751114,1.403888]}} 
{"id": "9382296543","server": "3682","farm": "4","userId": "99485553@N03","secret": "b4752b3920","title": "","loc": {"type": "Point","coordinates": [103.75083,1.403611]}} 
{"id": "9382294315","server": "2863","farm": "3","userId": "99485553@N03","secret": "b85748853b","title": "","loc": {"type": "Point","coordinates": [103.75083,1.403611]}} 
{"id": "9385086596","server": "3772","farm": "4","userId": "99485553@N03","secret": "1a7dbfe0b4","title": "","loc": {"type": "Point","coordinates": [103.751114,1.404444]}} 
{"id": "9382312489","server": "3679","farm": "4","userId": "99485553@N03","secret": "893994ee8c","title": "","loc": {"type": "Point","coordinates": [103.75083,1.403333]}} 
{"id": "9382319011","server": "3704","farm": "4","userId": "99485553@N03","secret": "0f23875a38","title": "","loc": {"type": "Point","coordinates": [103.75139,1.403333]}} 
{"id": "9382290563","server": "2888","farm": "3","userId": "99485553@N03","secret": "7bb4bed31b","title": "","loc": {"type": "Point","coordinates": [103.75083,1.403611]}} 
{"id": "9177033210","server": "5514","farm": "6","userId": "8659935@N03","secret": "ae2d0b5dcf","title": "Choa Chu Kang Park Connector","loc": {"type": "Point","coordinates": [103.750916,1.4056]}} 
{"id": "9174818819","server": "5524","farm": "6","userId": "8659935@N03","secret": "45e539abe2","title": "Choa Chu Kang Park Connector","loc": {"type": "Point","coordinates": [103.750916,1.4056]}} 
{"id": "9177040204","server": "3786","farm": "4","userId": "8659935@N03","secret": "d1ed87b459","title": "","loc": {"type": "Point","coordinates": [103.750885,1.405569]}} 
{"id": "9177044818","server": "2827","farm": "3","userId": "8659935@N03","secret": "4c22c2abf8","title": "Choa Chu Kang Park Connector","loc": {"type": "Point","coordinates": [103.75094,1.40558]}} 
{"id": "9174823089","server": "3785","farm": "4","userId": "8659935@N03","secret": "657d5fe231","title": "Choa Chu Kang Park Connector","loc": {"type": "Point","coordinates": [103.75094,1.40558]}} 
{"id": "8752375480","server": "8408","farm": "9","userId": "97948264@N00","secret": "95520d7291","title": "Rolling cottons","loc": {"type": "Point","coordinates": [103.75211,1.403369]}} 
{"id": "8651933458","server": "8390","farm": "9","userId": "36282183@N00","secret": "1b2b7065ba","title": "Hidup Jebat.","loc": {"type": "Point","coordinates": [103.75295,1.408292]}} 
{"id": "8500602670","server": "8244","farm": "9","userId": "71141369@N03","secret": "8a3a7eb789","title": "Product placement","loc": {"type": "Point","coordinates": [103.756874,1.407783]}} 
{"id": "8431877262","server": "8468","farm": "9","userId": "41933249@N08","secret": "ab85e323a1","title": "Getting ready! #mobilejobs  #primamediagroup  #primamedia","loc": {"type": "Point","coordinates": [103.758965,1.406359]}} 
{"id": "8419406038","server": "8475","farm": "9","userId": "8410127@N06","secret": "ec909f12a2","title": "My best friend's wedding car!","loc": {"type": "Point","coordinates": [103.755035,1.406044]}} 
{"id": "8230806935","server": "8345","farm": "9","userId": "57870624@N08","secret": "af8fc7340d","title": "Day 335: place, time, nothingness","loc": {"type": "Point","coordinates": [103.74983,1.402667]}} 
{"id": "8216244650","server": "8483","farm": "9","userId": "42223228@N04","secret": "35338e7509","title": "IMGP2725a","loc": {"type": "Point","coordinates": [103.752464,1.403599]}} 
{"id": "8214240094","server": "8343","farm": "9","userId": "54312202@N08","secret": "c1bda3a190","title": "A New Land","loc": {"type": "Point","coordinates": [103.756454,1.405835]}} 
{"id": "8041330973","server": "8451","farm": "9","userId": "58166221@N07","secret": "48582fa884","title": "Calm Morning Path","loc": {"type": "Point","coordinates": [103.74981,1.402623]}} 
