{"id": "9332884567","server": "5332","farm": "6","userId": "24356987@N08","secret": "49d560e924","title": "Common Flameback Woodpecker","loc": {"type": "Point","coordinates": [103.82567,1.359988]}} 
{"id": "9048633706","server": "3677","farm": "4","userId": "16225675@N00","secret": "4f1063e9d1","title": "Long-Tailed Macaque (Juv)","loc": {"type": "Point","coordinates": [103.82475,1.359486]}} 
{"id": "9048500742","server": "5489","farm": "6","userId": "16225675@N00","secret": "e4c41f9acd","title": "Long-Tailed Macaque","loc": {"type": "Point","coordinates": [103.82468,1.359582]}} 
{"id": "9045969979","server": "3721","farm": "4","userId": "16225675@N00","secret": "ab8ae2bc95","title": "Long-Tailed Macaque (Juv)","loc": {"type": "Point","coordinates": [103.82464,1.359468]}} 
{"id": "8992945196","server": "3699","farm": "4","userId": "57812023@N07","secret": "dbbfcb3452","title": "CG_SJ9C9333L","loc": {"type": "Point","coordinates": [103.825745,1.359548]}} 
{"id": "8991752149","server": "2832","farm": "3","userId": "57812023@N07","secret": "54ea9a3d4b","title": "CG_SJ9C9336L","loc": {"type": "Point","coordinates": [103.82535,1.359559]}} 
{"id": "8662469471","server": "8262","farm": "9","userId": "49301670@N08","secret": "86d737b86d","title": "This Curious Big Salticidae","loc": {"type": "Point","coordinates": [103.8257,1.360031]}} 
{"id": "8389362829","server": "8474","farm": "9","userId": "49301670@N08","secret": "f5d42edcaa","title": "Harmony Between Branded Imperial and Ants","loc": {"type": "Point","coordinates": [103.82602,1.359795]}} 
{"id": "8126046253","server": "8471","farm": "9","userId": "49301670@N08","secret": "cd3a46716a","title": "Elephant Weevil in Waiting [Orthorhinus cylindrirostris]","loc": {"type": "Point","coordinates": [103.82535,1.359537]}} 
{"id": "9218957761","server": "2832","farm": "3","userId": "13394179@N06","secret": "0bb7186f85","title": "IMAG0269","loc": {"type": "Point","coordinates": [103.819275,1.357738]}} 
{"id": "9218957719","server": "3674","farm": "4","userId": "13394179@N06","secret": "9550faf84e","title": "IMAG0270","loc": {"type": "Point","coordinates": [103.81925,1.357697]}} 
{"id": "8954189935","server": "3782","farm": "4","userId": "36163014@N00","secret": "9ee5e96706","title": "P1010520","loc": {"type": "Point","coordinates": [103.81645,1.356541]}} 
{"id": "8955364752","server": "5463","farm": "6","userId": "36163014@N00","secret": "745728bc5f","title": "P1010518","loc": {"type": "Point","coordinates": [103.81645,1.356541]}} 
{"id": "8955373504","server": "3780","farm": "4","userId": "36163014@N00","secret": "fdc7a32160","title": "P1010519","loc": {"type": "Point","coordinates": [103.81645,1.356541]}} 
{"id": "8897568367","server": "2832","farm": "3","userId": "51489026@N02","secret": "861337eefe","title": "A tree","loc": {"type": "Point","coordinates": [103.819084,1.357628]}} 
{"id": "8727643381","server": "7456","farm": "8","userId": "29049566@N07","secret": "b483192b87","title": "Valerie & Lucas","loc": {"type": "Point","coordinates": [103.819084,1.357628]}} 
{"id": "8727596517","server": "7357","farm": "8","userId": "29049566@N07","secret": "74762f341a","title": "Dinner","loc": {"type": "Point","coordinates": [103.81925,1.359602]}} 
{"id": "8719268960","server": "7314","farm": "8","userId": "49927005@N05","secret": "8190ffb91f","title": "20120715-0414-3600","loc": {"type": "Point","coordinates": [103.82149,1.35943]}} 
{"id": "8718147661","server": "7438","farm": "8","userId": "49927005@N05","secret": "749ff0bc28","title": "20120715-0314-0900","loc": {"type": "Point","coordinates": [103.82149,1.35943]}} 
{"id": "8719262910","server": "7289","farm": "8","userId": "49927005@N05","secret": "23590f223c","title": "20120715-0307-2100","loc": {"type": "Point","coordinates": [103.82149,1.35943]}} 
{"id": "8719261528","server": "7454","farm": "8","userId": "49927005@N05","secret": "898a6af149","title": "20120715-0306-0400","loc": {"type": "Point","coordinates": [103.82149,1.35943]}} 
{"id": "8719258700","server": "7316","farm": "8","userId": "49927005@N05","secret": "c8c4292b1a","title": "20120715-0303-5800","loc": {"type": "Point","coordinates": [103.82149,1.35943]}} 
{"id": "8719256246","server": "7335","farm": "8","userId": "49927005@N05","secret": "b1f28cf8fd","title": "20120715-0259-5300","loc": {"type": "Point","coordinates": [103.82149,1.35943]}} 
{"id": "8718149923","server": "7302","farm": "8","userId": "49927005@N05","secret": "f098c6de99","title": "20120715-0358-5000","loc": {"type": "Point","coordinates": [103.82149,1.35943]}} 
{"id": "8719259940","server": "7413","farm": "8","userId": "49927005@N05","secret": "710dc8db64","title": "20120715-0305-5500","loc": {"type": "Point","coordinates": [103.82149,1.35943]}} 
{"id": "8719253992","server": "7407","farm": "8","userId": "49927005@N05","secret": "c460321db8","title": "20120715-0253-2800","loc": {"type": "Point","coordinates": [103.82149,1.35943]}} 
{"id": "8718134515","server": "7299","farm": "8","userId": "49927005@N05","secret": "dbbfbe7d61","title": "20120715-0250-4100","loc": {"type": "Point","coordinates": [103.82149,1.35943]}} 
{"id": "8717070263","server": "7394","farm": "8","userId": "49927005@N05","secret": "8e20a2590c","title": "20120714-1612-2000","loc": {"type": "Point","coordinates": [103.82149,1.35943]}} 
{"id": "8718194908","server": "7441","farm": "8","userId": "49927005@N05","secret": "57474552c6","title": "20120714-1827-0400","loc": {"type": "Point","coordinates": [103.82149,1.35943]}} 
{"id": "8717077321","server": "7357","farm": "8","userId": "49927005@N05","secret": "01f29deaa9","title": "20120715-0250-1500","loc": {"type": "Point","coordinates": [103.82149,1.35943]}} 
{"id": "8500413255","server": "8085","farm": "9","userId": "49301670@N08","secret": "24cf72536c","title": "Pucker Up, Cactus Fly [Neriidae]","loc": {"type": "Point","coordinates": [103.8245,1.360267]}} 
{"id": "8345834594","server": "8495","farm": "9","userId": "26495703@N06","secret": "d28e4311e6","title": "Honeydew Sago topped with vanilla ice cream.","loc": {"type": "Point","coordinates": [103.819084,1.357628]}} 
{"id": "8345021018","server": "8353","farm": "9","userId": "26495703@N06","secret": "0f0595d7ee","title": "Singapore Island Country Club.","loc": {"type": "Point","coordinates": [103.819084,1.357628]}} 
{"id": "8294001052","server": "8211","farm": "9","userId": "41933249@N08","secret": "c8304915ec","title": "ICE Xmas party!","loc": {"type": "Point","coordinates": [103.819084,1.357628]}} 
{"id": "8224089562","server": "8200","farm": "9","userId": "77714914@N07","secret": "af092e989d","title": "Tee off","loc": {"type": "Point","coordinates": [103.81817,1.357489]}} 
{"id": "8223013051","server": "8058","farm": "9","userId": "77714914@N07","secret": "3598317ddd","title": "Rolex clocks","loc": {"type": "Point","coordinates": [103.81811,1.357532]}} 
{"id": "8223012837","server": "8197","farm": "9","userId": "77714914@N07","secret": "253398b972","title": "Clock at the golf course","loc": {"type": "Point","coordinates": [103.818214,1.357489]}} 
{"id": "8108778816","server": "8325","farm": "9","userId": "49301670@N08","secret": "e61c00e49d","title": "Bright Colored Four-Ridged Toad [Ingeroprynus quadriporcatus]","loc": {"type": "Point","coordinates": [103.824104,1.360588]}} 
{"id": "8108678613","server": "8332","farm": "9","userId": "49301670@N08","secret": "c5c501c0f4","title": "Cute Salticidae","loc": {"type": "Point","coordinates": [103.82522,1.360846]}} 
{"id": "8034865096","server": "8321","farm": "9","userId": "49301670@N08","secret": "e9403ae30d","title": "Fly, But What Kind?","loc": {"type": "Point","coordinates": [103.8249,1.359795]}} 
