{"id": "9424620006","server": "2887","farm": "3","userId": "46635911@N00","secret": "70da8030c0","title": "The xx","loc": {"type": "Point","coordinates": [103.791336,1.3035]}} 
{"id": "9424620642","server": "3786","farm": "4","userId": "46635911@N00","secret": "b45dc99a46","title": "The xx","loc": {"type": "Point","coordinates": [103.791336,1.3035]}} 
{"id": "9424617896","server": "7438","farm": "8","userId": "46635911@N00","secret": "b52587fdeb","title": "The xx","loc": {"type": "Point","coordinates": [103.791336,1.3035]}} 
{"id": "8976147692","server": "5453","farm": "6","userId": "63073819@N00","secret": "73af4c50b2","title": "Sinatra+synchrony for slow Rails apps #rdrc","loc": {"type": "Point","coordinates": [103.792336,1.3035]}} 
{"id": "8974954095","server": "5449","farm": "6","userId": "63073819@N00","secret": "fa7914a501","title": "Sinatra+synchrony for slow Rails apps #rdrc","loc": {"type": "Point","coordinates": [103.792336,1.303333]}} 
{"id": "8976148914","server": "8558","farm": "9","userId": "63073819@N00","secret": "8b45f6baf4","title": "Sinatra+synchrony for slow Rails apps #rdrc","loc": {"type": "Point","coordinates": [103.792336,1.303333]}} 
{"id": "8976148320","server": "3707","farm": "4","userId": "63073819@N00","secret": "94ba2e26de","title": "Sinatra+synchrony for slow Rails apps #rdrc","loc": {"type": "Point","coordinates": [103.792336,1.3035]}} 
{"id": "8727020263","server": "7379","farm": "8","userId": "19109134@N00","secret": "935ee9cd22","title": "Hope","loc": {"type": "Point","coordinates": [103.79034,1.302166]}} 
{"id": "8721608613","server": "7416","farm": "8","userId": "35619038@N00","secret": "82920193cf","title": "2012-10-18 20.33.23","loc": {"type": "Point","coordinates": [103.7825,1.301666]}} 
{"id": "8721608649","server": "7383","farm": "8","userId": "35619038@N00","secret": "1bf11f58bf","title": "2012-10-18 20.33.16","loc": {"type": "Point","coordinates": [103.78267,1.301166]}} 
{"id": "8721608605","server": "7304","farm": "8","userId": "35619038@N00","secret": "1c3aaf4568","title": "2012-10-18 20.33.25","loc": {"type": "Point","coordinates": [103.78267,1.301666]}} 
{"id": "8346973220","server": "8074","farm": "9","userId": "69379954@N08","secret": "e81115e5dd","title": "Simplicity; lines; coffee.","loc": {"type": "Point","coordinates": [103.79116,1.305998]}} 
{"id": "8346978788","server": "8493","farm": "9","userId": "69379954@N08","secret": "af70930359","title": "Simplicity; cup; coffee.","loc": {"type": "Point","coordinates": [103.789734,1.304874]}} 
{"id": "8143186580","server": "8473","farm": "9","userId": "25802865@N08","secret": "bd197467c1","title": "One North Park","loc": {"type": "Point","coordinates": [103.79059,1.305457]}} 
{"id": "8143184474","server": "8329","farm": "9","userId": "25802865@N08","secret": "4c20e6d7e7","title": "One North Park","loc": {"type": "Point","coordinates": [103.790565,1.30535]}} 
{"id": "8143152537","server": "8471","farm": "9","userId": "25802865@N08","secret": "fa176de03f","title": "One North Park","loc": {"type": "Point","coordinates": [103.790565,1.305393]}} 
{"id": "8045538573","server": "8453","farm": "9","userId": "25802865@N08","secret": "c95fa0a797","title": "MOE Building","loc": {"type": "Point","coordinates": [103.790504,1.30535]}} 
{"id": "8045546854","server": "8172","farm": "9","userId": "25802865@N08","secret": "1ee10120eb","title": "Sculpture","loc": {"type": "Point","coordinates": [103.790375,1.305286]}} 
{"id": "9424620428","server": "5524","farm": "6","userId": "46635911@N00","secret": "38a0776683","title": "The xx","loc": {"type": "Point","coordinates": [103.791336,1.3035]}} 
{"id": "9319918692","server": "3756","farm": "4","userId": "14385475@N05","secret": "db14c06d6d","title": "IMG_8989","loc": {"type": "Point","coordinates": [103.7885,1.304666]}} 
{"id": "9317126691","server": "2816","farm": "3","userId": "14385475@N05","secret": "a9ca013935","title": "IMG_8988","loc": {"type": "Point","coordinates": [103.7885,1.3045]}} 
{"id": "9288916114","server": "5343","farm": "6","userId": "25530545@N04","secret": "88dca86108","title": "2013-07-01 at 22-02-38","loc": {"type": "Point","coordinates": [103.78616,1.304]}} 
{"id": "9258941619","server": "5544","farm": "6","userId": "76804634@N00","secret": "75c2bcea29","title": "Diamonds in the rough","loc": {"type": "Point","coordinates": [103.7881,1.301896]}} 
{"id": "9246859558","server": "3689","farm": "4","userId": "60026216@N00","secret": "1230e6aab6","title": "Irza and BTPS friends, waiting for DSA selection trial.","loc": {"type": "Point","coordinates": [103.78436,1.301485]}} 
{"id": "9197746989","server": "7306","farm": "8","userId": "96364464@N05","secret": "efd36b1ee9","title": "My Chocolate Ice Cream Princess.  Never able to miss taking ice cream without her.","loc": {"type": "Point","coordinates": [103.79101,1.305213]}} 
{"id": "9014814032","server": "3737","farm": "4","userId": "11434986@N04","secret": "ca8f44c2a3","title": "Tuesday = Pink Diva","loc": {"type": "Point","coordinates": [103.78256,1.302917]}} 
{"id": "9003947829","server": "2888","farm": "3","userId": "41308271@N04","secret": "0dcdc6e3af","title": "RDRC 2013 ID Ruby","loc": {"type": "Point","coordinates": [103.792336,1.303166]}} 
{"id": "9003947735","server": "5348","farm": "6","userId": "41308271@N04","secret": "49ff9cc298","title": "RDRC 2013 ID Ruby","loc": {"type": "Point","coordinates": [103.792336,1.303166]}} 
{"id": "8996143846","server": "5445","farm": "6","userId": "97478728@N00","secret": "81c285308a","title": "upload","loc": {"type": "Point","coordinates": [103.78693,1.304169]}} 
{"id": "8994775554","server": "2876","farm": "3","userId": "25718534@N05","secret": "8998709f61","title": "wp82_130605_076","loc": {"type": "Point","coordinates": [103.78705,1.304363]}} 
{"id": "8993756896","server": "3713","farm": "4","userId": "63073819@N00","secret": "a030a2b46f","title": "#rdrc Singapore RedDotRuby","loc": {"type": "Point","coordinates": [103.792336,1.303333]}} 
{"id": "8993740408","server": "5464","farm": "6","userId": "63073819@N00","secret": "6cd1c889c0","title": "#rsrc RedDotRuby @id","loc": {"type": "Point","coordinates": [103.792336,1.303333]}} 
{"id": "8986054684","server": "5442","farm": "6","userId": "61587929@N06","secret": "5ea9e88bfb","title": "Yellow Palm Dart [Cephrenes trichopepla]","loc": {"type": "Point","coordinates": [103.79178,1.299794]}} 
{"id": "8975989610","server": "3770","farm": "4","userId": "63073819@N00","secret": "c266439c2b","title": "#RDRC In a Singapore Ruby on Rails conference","loc": {"type": "Point","coordinates": [103.792336,1.303333]}} 
{"id": "8935973350","server": "8269","farm": "9","userId": "30305407@N00","secret": "cb1e181a9c","title": "Omg. THAT is what I'm talking about. I think I just drooled on myself. at Triple O's by White Spot","loc": {"type": "Point","coordinates": [103.7885,1.306]}} 
{"id": "8884521214","server": "8541","farm": "9","userId": "10207694@N08","secret": "30cfe305bf","title": "Bird?","loc": {"type": "Point","coordinates": [103.782455,1.304413]}} 
{"id": "8855378098","server": "7409","farm": "8","userId": "22935808@N03","secret": "d1a6171475","title": "#singapore #ParkAvenue","loc": {"type": "Point","coordinates": [103.7887,1.304814]}} 
{"id": "8813197717","server": "3724","farm": "4","userId": "8129578@N08","secret": "10b37a74a6","title": "","loc": {"type": "Point","coordinates": [103.78533,1.305333]}} 
{"id": "8755560727","server": "8129","farm": "9","userId": "78686549@N00","secret": "c4694cb87c","title": "Tau Yu Bak at a small lil peranakan place at Star Vista.","loc": {"type": "Point","coordinates": [103.7889,1.305578]}} 
{"id": "8728376184","server": "7430","farm": "8","userId": "34811143@N00","secret": "b4c839734b","title": "Cycling around Singapore, 1st Attempt - 11 May 2013","loc": {"type": "Point","coordinates": [103.7875,1.305555]}} 
{"id": "8704882378","server": "8407","farm": "9","userId": "14932126@N08","secret": "58cb412a3e","title": "","loc": {"type": "Point","coordinates": [103.789,1.304833]}} 
{"id": "8623330609","server": "8384","farm": "9","userId": "34811143@N00","secret": "6f1b86fe62","title": "Cycling along Railway to Tanjong Pagar","loc": {"type": "Point","coordinates": [103.79291,1.304958]}} 
{"id": "8621869138","server": "8241","farm": "9","userId": "35109767@N05","secret": "68b2396ea5","title": "","loc": {"type": "Point","coordinates": [103.791374,1.302445]}} 
{"id": "8620765967","server": "8390","farm": "9","userId": "35109767@N05","secret": "c0d2abde3b","title": "","loc": {"type": "Point","coordinates": [103.792046,1.304222]}} 
{"id": "8620015087","server": "8386","farm": "9","userId": "85099882@N00","secret": "07df1c3fd5","title": "IMAG0938.jpg","loc": {"type": "Point","coordinates": [103.7924,1.303496]}} 
{"id": "8576505627","server": "8521","farm": "9","userId": "94512171@N00","secret": "d914e0aa2e","title": "Banana pecan pudding with roasted rice ice cream #foodporn #singapore #sg #igsg #foodphotography #asianfood #sgig #foodpornasia #instafood","loc": {"type": "Point","coordinates": [103.78785,1.304945]}} 
{"id": "8576479175","server": "8529","farm": "9","userId": "94512171@N00","secret": "416fe982e6","title": "Kurobuta Pork - Crispy pork belly with roasted pork fillet, apple and Madeira #foodporn #singapore #sg #igsg #foodphotography #asianfood #sgig #foodpornasia #instafood","loc": {"type": "Point","coordinates": [103.78785,1.304945]}} 
{"id": "8576433927","server": "8103","farm": "9","userId": "94512171@N00","secret": "b6d072906c","title": "Frozen Mojito anyone? #drinks #mojito #restaurantweek #foodporn #singapore #sg #igsg #foodphotography #asianfood #sgig #foodpornasia #instafood","loc": {"type": "Point","coordinates": [103.78785,1.304945]}} 
{"id": "8564269402","server": "8524","farm": "9","userId": "51073972@N02","secret": "e127e813bd","title": "Inside the Performing Arts Theatre at The Star.","loc": {"type": "Point","coordinates": [103.791336,1.3045]}} 
{"id": "8523887756","server": "8376","farm": "9","userId": "13236380@N00","secret": "4c1a8682ee","title": "Altobello - spicy beef, onions, bell peppers and mozerella pizza","loc": {"type": "Point","coordinates": [103.78977,1.303441]}} 
{"id": "8523883372","server": "8520","farm": "9","userId": "13236380@N00","secret": "44f0851da4","title": "Enzo - peking duck pizza with cucumbers and spring onions","loc": {"type": "Point","coordinates": [103.78977,1.303441]}} 
{"id": "8522766887","server": "8370","farm": "9","userId": "13236380@N00","secret": "16798447d4","title": "Afternoon dessert","loc": {"type": "Point","coordinates": [103.78977,1.303441]}} 
{"id": "8519818165","server": "8523","farm": "9","userId": "18673521@N00","secret": "515743503f","title": "See how much #perfectitaliano Mozzarella cheese is in each of our croquettes. #yum","loc": {"type": "Point","coordinates": [103.79125,1.303845]}} 
{"id": "8519749641","server": "8238","farm": "9","userId": "18673521@N00","secret": "d24d0c6d2f","title": "Deep fried potato with mozzarella cheese. #perfectitaliano Masterclass with Chef Lino Sauro.","loc": {"type": "Point","coordinates": [103.79125,1.303845]}} 
{"id": "8519746303","server": "8514","farm": "9","userId": "18673521@N00","secret": "4a4c24e599","title": "@cooksnapeatlove frying the potato cutlets stuffed with Mozzarella cheese. #latergram","loc": {"type": "Point","coordinates": [103.79125,1.303845]}} 
{"id": "8519696523","server": "8244","farm": "9","userId": "78686549@N00","secret": "8cc437127a","title": "3rd dish learnt today. Deep Fried Potato with 'Perfect Italiano' Mozzarella Cheese (served with sweet and sour sauce). This was the most delicious thing learnt today!","loc": {"type": "Point","coordinates": [103.79125,1.303845]}} 
{"id": "8519626737","server": "8529","farm": "9","userId": "78686549@N00","secret": "58b876463c","title": "We were also taught Rice Roll with 'Perfect Italiano' Mozzarella Cheese and Salmon. Never knew you can add cheese into sushi rolls and bake it.","loc": {"type": "Point","coordinates": [103.79125,1.303845]}} 
{"id": "8519585043","server": "8231","farm": "9","userId": "18673521@N00","secret": "cda89aeb40","title": "How does my roll look? #perfectitaliano Rice Roll with Mozzarella Cheese & Salmon","loc": {"type": "Point","coordinates": [103.79125,1.303845]}} 
{"id": "8519517015","server": "8093","farm": "9","userId": "18673521@N00","secret": "5481a51795","title": "Finished product: Wonton Ravioli with Soya Marinated Prawns & Parmesan Fondue. #perfectitaliano","loc": {"type": "Point","coordinates": [103.79125,1.303845]}} 
{"id": "8519501859","server": "8231","farm": "9","userId": "18673521@N00","secret": "2373b7fae1","title": "Chef Lino Sauro's Wonton Ravioli in #perfectitaliano Parmesan Fondue.","loc": {"type": "Point","coordinates": [103.79125,1.303845]}} 
{"id": "8520623334","server": "8527","farm": "9","userId": "18673521@N00","secret": "5d26df4402","title": "Mise én Place: Rice Roll with Mozzarella Cheese & Salmon. #perfectitaliano","loc": {"type": "Point","coordinates": [103.79125,1.303845]}} 
{"id": "8519513803","server": "8372","farm": "9","userId": "78686549@N00","secret": "403843d1f5","title": "Attending a Masterclass by Chef Lino Sauro using Perfect Italiano products.","loc": {"type": "Point","coordinates": [103.79125,1.303845]}} 
{"id": "8520585194","server": "8389","farm": "9","userId": "18673521@N00","secret": "33588aed21","title": "Chinese-style Ravioli. After all, the prawn's seasoned with soy. #perfectitaliano Masterclass.","loc": {"type": "Point","coordinates": [103.79125,1.303845]}} 
{"id": "8519440565","server": "8371","farm": "9","userId": "18673521@N00","secret": "b3cdd48032","title": "Mise en Place: Wonton Ravioli with Soya Marinated Prawns & #PerfectItaliano Parmesan Fondue","loc": {"type": "Point","coordinates": [103.79125,1.303845]}} 
{"id": "8519423169","server": "8251","farm": "9","userId": "18673521@N00","secret": "a5a708233f","title": "Guess who is my #cooking partner? @cooksnapeatlove! Ha ha! Jackpot! I got a trained chef in my team! #PerfectItaliano Masterclass.","loc": {"type": "Point","coordinates": [103.79125,1.303845]}} 
{"id": "8518676082","server": "8096","farm": "9","userId": "40948577@N06","secret": "1b716e768d","title": "The Best is Yet to Be.","loc": {"type": "Point","coordinates": [103.78637,1.30171]}} 
{"id": "8517499379","server": "8523","farm": "9","userId": "26007569@N03","secret": "c09323b957","title": "@billybasco this is how u serve fish realness lol","loc": {"type": "Point","coordinates": [103.78778,1.305775]}} 
{"id": "8518574048","server": "8107","farm": "9","userId": "66187127@N00","secret": "767409f52d","title": "yeeeehaaaaaa!!! :)","loc": {"type": "Point","coordinates": [103.78827,1.305479]}} 
{"id": "8514753674","server": "8103","farm": "9","userId": "64441505@N07","secret": "3397fe3d0f","title": "“I don't wanna die on my own here tonight, but here I lie on my own in a separate sky.”","loc": {"type": "Point","coordinates": [103.78523,1.30314]}} 
{"id": "8499566927","server": "8371","farm": "9","userId": "14932126@N08","secret": "6a55c34bb5","title": "IMG_0031","loc": {"type": "Point","coordinates": [103.78983,1.305833]}} 
{"id": "8495149268","server": "8107","farm": "9","userId": "14932126@N08","secret": "e67430685a","title": "","loc": {"type": "Point","coordinates": [103.78983,1.305833]}} 
{"id": "8494044109","server": "8230","farm": "9","userId": "14932126@N08","secret": "64df983aed","title": "","loc": {"type": "Point","coordinates": [103.79,1.3035]}} 
{"id": "8495142714","server": "8508","farm": "9","userId": "14932126@N08","secret": "f01df01146","title": "","loc": {"type": "Point","coordinates": [103.79,1.304]}} 
{"id": "8472514463","server": "8239","farm": "9","userId": "78686549@N00","secret": "dd4792f5fc","title": "Surprise! They gave heart stickers on our drinks at Starbucks today!","loc": {"type": "Point","coordinates": [103.78782,1.305286]}} 
{"id": "8455017120","server": "8516","farm": "9","userId": "28564685@N06","secret": "15ebf0d90d","title": "","loc": {"type": "Point","coordinates": [103.79098,1.304599]}} 
{"id": "8443278201","server": "8211","farm": "9","userId": "64441505@N07","secret": "4b522c4b81","title": "ACJC class of 2013 year badge/collar pin. ☺♥","loc": {"type": "Point","coordinates": [103.78523,1.30314]}} 
{"id": "8435092558","server": "8491","farm": "9","userId": "31118131@N07","secret": "a913ef8939","title": "IMAG2659","loc": {"type": "Point","coordinates": [103.78696,1.299311]}} 
{"id": "8434008533","server": "8184","farm": "9","userId": "31118131@N07","secret": "4d86143521","title": "IMAG2661","loc": {"type": "Point","coordinates": [103.78696,1.299311]}} 
{"id": "8434009623","server": "8219","farm": "9","userId": "31118131@N07","secret": "4a2347bbbb","title": "IMAG2660","loc": {"type": "Point","coordinates": [103.78696,1.299311]}} 
{"id": "8435093000","server": "8238","farm": "9","userId": "31118131@N07","secret": "063f38ee4a","title": "IMAG2662","loc": {"type": "Point","coordinates": [103.78696,1.299311]}} 
{"id": "8428405065","server": "8046","farm": "9","userId": "28564685@N06","secret": "0c960ee555","title": "Rise","loc": {"type": "Point","coordinates": [103.7878,1.299602]}} 
{"id": "8420110040","server": "8496","farm": "9","userId": "16863090@N00","secret": "cd02092ccf","title": "Christmas 2012","loc": {"type": "Point","coordinates": [103.788315,1.305972]}} 
{"id": "8415213919","server": "8190","farm": "9","userId": "60026216@N00","secret": "6aa096261f","title": "Vista Exchange area.","loc": {"type": "Point","coordinates": [103.78835,1.305521]}} 
{"id": "8410669959","server": "8507","farm": "9","userId": "19109134@N00","secret": "42ff08d167","title": "The Kitchen","loc": {"type": "Point","coordinates": [103.78713,1.304417]}} 
{"id": "8366527303","server": "8098","farm": "9","userId": "28564685@N06","secret": "0929a640b8","title": "Tips","loc": {"type": "Point","coordinates": [103.79278,1.301622]}} 
{"id": "8353268094","server": "8464","farm": "9","userId": "46535275@N00","secret": "2c89683706","title": "Just found the next location of any post-apocalyptic film","loc": {"type": "Point","coordinates": [103.79285,1.303913]}} 
{"id": "8345912527","server": "8074","farm": "9","userId": "69379954@N08","secret": "4d7e581f46","title": "Bones. Dirty look.","loc": {"type": "Point","coordinates": [103.79022,1.30426]}} 
{"id": "8345548624","server": "8216","farm": "9","userId": "69379954@N08","secret": "597936e3ab","title": "Christmas","loc": {"type": "Point","coordinates": [103.79163,1.303791]}} 
{"id": "8337394043","server": "8216","farm": "9","userId": "19109134@N00","secret": "d7e28deae5","title": "There It Was","loc": {"type": "Point","coordinates": [103.78723,1.304599]}} 
{"id": "8305932604","server": "8072","farm": "9","userId": "39824929@N00","secret": "8fbafd13f0","title": "Penne. Delicious. #igers #instagram #sgig #singapore...","loc": {"type": "Point","coordinates": [103.78785,1.305379]}} 
{"id": "8291955608","server": "8357","farm": "9","userId": "91339881@N06","secret": "e7fc673709","title": "All about my JJ's","loc": {"type": "Point","coordinates": [103.79265,1.303417]}} 
{"id": "8291950522","server": "8494","farm": "9","userId": "91339881@N06","secret": "3c667451e0","title": "All about my JJ's","loc": {"type": "Point","coordinates": [103.79265,1.303417]}} 
{"id": "8290903919","server": "8495","farm": "9","userId": "91339881@N06","secret": "1be258ef8f","title": "All about my JJ's","loc": {"type": "Point","coordinates": [103.79265,1.303417]}} 
{"id": "8291950158","server": "8361","farm": "9","userId": "91339881@N06","secret": "da71ae35c9","title": "All about my JJ's","loc": {"type": "Point","coordinates": [103.79265,1.303417]}} 
{"id": "8290904315","server": "8221","farm": "9","userId": "91339881@N06","secret": "eb8abf9aaf","title": "All about my JJ's","loc": {"type": "Point","coordinates": [103.79265,1.303417]}} 
{"id": "8291958112","server": "8081","farm": "9","userId": "91339881@N06","secret": "d529ca84e9","title": "All about my JJ's","loc": {"type": "Point","coordinates": [103.79265,1.303417]}} 
{"id": "8290897411","server": "8217","farm": "9","userId": "91339881@N06","secret": "b50a9fe9b8","title": "All about my JJ's","loc": {"type": "Point","coordinates": [103.79265,1.303417]}} 
{"id": "8290893323","server": "8212","farm": "9","userId": "91339881@N06","secret": "f20625f3cc","title": "All about my JJ's","loc": {"type": "Point","coordinates": [103.79265,1.303417]}} 
{"id": "8291955912","server": "8497","farm": "9","userId": "91339881@N06","secret": "1ee4e496c4","title": "All about my JJ's","loc": {"type": "Point","coordinates": [103.79265,1.303417]}} 
{"id": "8291961364","server": "8211","farm": "9","userId": "91339881@N06","secret": "40ed06cce9","title": "All about my JJ's","loc": {"type": "Point","coordinates": [103.79265,1.303417]}} 
{"id": "8290900627","server": "8502","farm": "9","userId": "91339881@N06","secret": "87f0dbeea6","title": "All about my JJ's","loc": {"type": "Point","coordinates": [103.79265,1.303417]}} 
{"id": "8290903433","server": "8224","farm": "9","userId": "91339881@N06","secret": "7ca873fb06","title": "All about my JJ's","loc": {"type": "Point","coordinates": [103.79265,1.303417]}} 
{"id": "8291959450","server": "8073","farm": "9","userId": "91339881@N06","secret": "83c8d6bc74","title": "All about my JJ's","loc": {"type": "Point","coordinates": [103.79265,1.303417]}} 
{"id": "8290896807","server": "8499","farm": "9","userId": "91339881@N06","secret": "06ab3851e1","title": "All about my JJ's","loc": {"type": "Point","coordinates": [103.79265,1.303417]}} 
{"id": "8291949290","server": "8077","farm": "9","userId": "91339881@N06","secret": "a51be5d51d","title": "All about my JJ's","loc": {"type": "Point","coordinates": [103.79265,1.303417]}} 
{"id": "8290895849","server": "8224","farm": "9","userId": "91339881@N06","secret": "e25fb31f98","title": "All about my JJ's","loc": {"type": "Point","coordinates": [103.79265,1.303417]}} 
{"id": "8290898329","server": "8357","farm": "9","userId": "91339881@N06","secret": "cf781602b2","title": "All about my JJ's","loc": {"type": "Point","coordinates": [103.79265,1.303417]}} 
{"id": "8290899741","server": "8355","farm": "9","userId": "91339881@N06","secret": "a0b9755d28","title": "All about my JJ's","loc": {"type": "Point","coordinates": [103.79265,1.303417]}} 
{"id": "8290896559","server": "8351","farm": "9","userId": "91339881@N06","secret": "feb56fff3f","title": "All about my JJ's","loc": {"type": "Point","coordinates": [103.79265,1.303417]}} 
{"id": "8290901911","server": "8220","farm": "9","userId": "91339881@N06","secret": "00df857f8b","title": "All about my JJ's","loc": {"type": "Point","coordinates": [103.79265,1.303417]}} 
{"id": "8291956858","server": "8358","farm": "9","userId": "91339881@N06","secret": "4f532329c0","title": "All about my JJ's","loc": {"type": "Point","coordinates": [103.79265,1.303417]}} 
{"id": "8290897971","server": "8212","farm": "9","userId": "91339881@N06","secret": "5d3fba8d98","title": "All about my JJ's","loc": {"type": "Point","coordinates": [103.79265,1.303417]}} 
{"id": "8290901063","server": "8214","farm": "9","userId": "91339881@N06","secret": "52ee62116a","title": "All about my JJ's","loc": {"type": "Point","coordinates": [103.79265,1.303417]}} 
{"id": "8290903071","server": "8360","farm": "9","userId": "91339881@N06","secret": "4eb0190ba2","title": "All about my JJ's","loc": {"type": "Point","coordinates": [103.79265,1.303417]}} 
{"id": "8291950954","server": "8213","farm": "9","userId": "91339881@N06","secret": "62c5c2782a","title": "All about my JJ's","loc": {"type": "Point","coordinates": [103.79265,1.303417]}} 
{"id": "8290895225","server": "8211","farm": "9","userId": "91339881@N06","secret": "6c545a991b","title": "All about my JJ's","loc": {"type": "Point","coordinates": [103.79265,1.303417]}} 
{"id": "8290898695","server": "8503","farm": "9","userId": "91339881@N06","secret": "b4c352d9e8","title": "All about my JJ's","loc": {"type": "Point","coordinates": [103.79265,1.303417]}} 
{"id": "8291959144","server": "8215","farm": "9","userId": "91339881@N06","secret": "d1070a7f34","title": "All about my JJ's","loc": {"type": "Point","coordinates": [103.79265,1.303417]}} 
{"id": "8291219686","server": "8359","farm": "9","userId": "89975165@N07","secret": "799364a91a","title": "Fantastic Tiramisu.","loc": {"type": "Point","coordinates": [103.7872,1.304214]}} 
{"id": "8290088103","server": "8354","farm": "9","userId": "89975165@N07","secret": "5ce70df2ca","title": "Crab Tagliatelle.","loc": {"type": "Point","coordinates": [103.7872,1.304214]}} 
{"id": "8291119386","server": "8082","farm": "9","userId": "89975165@N07","secret": "3b9e56417a","title": "Grilled Wagyu Beef Burger.","loc": {"type": "Point","coordinates": [103.7872,1.304214]}} 
{"id": "8269187808","server": "8494","farm": "9","userId": "60026216@N00","secret": "17eef43041","title": "BBQ chicken leg.","loc": {"type": "Point","coordinates": [103.78766,1.304494]}} 
{"id": "8269166964","server": "8220","farm": "9","userId": "60026216@N00","secret": "dabe5faf0d","title": "Beef salad.","loc": {"type": "Point","coordinates": [103.78766,1.304494]}} 
{"id": "8269147766","server": "8493","farm": "9","userId": "60026216@N00","secret": "f7d5635782","title": "Lunch.","loc": {"type": "Point","coordinates": [103.78766,1.304494]}} 
{"id": "8240319055","server": "8477","farm": "9","userId": "60026216@N00","secret": "0e1095ffa1","title": "Mango peach smoothie.","loc": {"type": "Point","coordinates": [103.787994,1.305695]}} 
{"id": "8234024952","server": "8337","farm": "9","userId": "36282183@N00","secret": "80cd7328b8","title": "My Wardah posing with the Lion mascot/statue.","loc": {"type": "Point","coordinates": [103.79098,1.304599]}} 
{"id": "8230011432","server": "8199","farm": "9","userId": "14544905@N08","secret": "d3a72b85cf","title": "新加坡孔子學院","loc": {"type": "Point","coordinates": [103.78967,1.302294]}} 
{"id": "8228944843","server": "8208","farm": "9","userId": "14544905@N08","secret": "b8711eb8e4","title": "新加坡孔子學院","loc": {"type": "Point","coordinates": [103.78967,1.302294]}} 
{"id": "8230010312","server": "8340","farm": "9","userId": "14544905@N08","secret": "ce011a8563","title": "新加坡孔子學院","loc": {"type": "Point","coordinates": [103.78967,1.302294]}} 
{"id": "8228945947","server": "8480","farm": "9","userId": "14544905@N08","secret": "71e7c486d8","title": "新加坡孔子學院","loc": {"type": "Point","coordinates": [103.78967,1.302294]}} 
{"id": "8228945247","server": "8068","farm": "9","userId": "14544905@N08","secret": "6026b5eb8b","title": "新加坡孔子學院","loc": {"type": "Point","coordinates": [103.78967,1.302294]}} 
{"id": "8230011590","server": "8205","farm": "9","userId": "14544905@N08","secret": "3536960ec7","title": "新加坡孔子學院","loc": {"type": "Point","coordinates": [103.78967,1.302294]}} 
{"id": "8230011194","server": "8061","farm": "9","userId": "14544905@N08","secret": "21ce7a9bac","title": "新加坡孔子學院","loc": {"type": "Point","coordinates": [103.78967,1.302294]}} 
{"id": "8228945499","server": "8210","farm": "9","userId": "14544905@N08","secret": "b7e79e413f","title": "新加坡孔子學院","loc": {"type": "Point","coordinates": [103.78967,1.302294]}} 
{"id": "8228945615","server": "8198","farm": "9","userId": "14544905@N08","secret": "e0d51074f8","title": "新加坡孔子學院","loc": {"type": "Point","coordinates": [103.78967,1.302294]}} 
{"id": "8230010104","server": "8058","farm": "9","userId": "14544905@N08","secret": "4558c700bd","title": "新加坡孔子學院","loc": {"type": "Point","coordinates": [103.78967,1.302294]}} 
{"id": "8228946425","server": "8487","farm": "9","userId": "14544905@N08","secret": "1818bc8c5c","title": "新加坡孔子學院","loc": {"type": "Point","coordinates": [103.78967,1.302294]}} 
{"id": "8230011720","server": "8068","farm": "9","userId": "14544905@N08","secret": "44df270d1e","title": "新加坡孔子學院","loc": {"type": "Point","coordinates": [103.78967,1.302294]}} 
{"id": "8228945781","server": "8341","farm": "9","userId": "14544905@N08","secret": "f027cd3742","title": "新加坡孔子學院","loc": {"type": "Point","coordinates": [103.78967,1.302294]}} 
{"id": "8212631027","server": "8339","farm": "9","userId": "28455224@N04","secret": "e16b1703cd","title": "Bangunan Kementerian Pendidikan • #genggua #my_genggua #oh_my_genggua #brunika #instasg #sgig #moe","loc": {"type": "Point","coordinates": [103.79061,1.305371]}} 
{"id": "8204613728","server": "8488","farm": "9","userId": "99942665@N00","secret": "7c462762f8","title": "IMG_20121120_181522","loc": {"type": "Point","coordinates": [103.78787,1.300195]}} 
{"id": "8204613238","server": "8341","farm": "9","userId": "99942665@N00","secret": "c1666032fe","title": "IMG_20121120_181633","loc": {"type": "Point","coordinates": [103.78787,1.300195]}} 
{"id": "8204612702","server": "8201","farm": "9","userId": "99942665@N00","secret": "77eceb20a6","title": "IMG_20121120_181714","loc": {"type": "Point","coordinates": [103.78787,1.300195]}} 
{"id": "8178903876","server": "8205","farm": "9","userId": "41298448@N08","secret": "9b9c9dec98","title": "Afternoon nap","loc": {"type": "Point","coordinates": [103.7918,1.304305]}} 
{"id": "8174936495","server": "8210","farm": "9","userId": "43225758@N03","secret": "33df9f59c3","title": "Roasted Chicken Breast - Nosh Restaurant and Bar","loc": {"type": "Point","coordinates": [103.78733,1.305167]}} 
{"id": "8174122603","server": "8489","farm": "9","userId": "69837833@N04","secret": "008be9608b","title": "IMG_1828","loc": {"type": "Point","coordinates": [103.791695,1.305747]}} 
{"id": "8172196294","server": "8486","farm": "9","userId": "68649150@N06","secret": "a3c4be062b","title": "","loc": {"type": "Point","coordinates": [103.787994,1.305695]}} 
{"id": "8172155216","server": "8341","farm": "9","userId": "68649150@N06","secret": "7f0d86a87d","title": "","loc": {"type": "Point","coordinates": [103.78782,1.305286]}} 
{"id": "8172123509","server": "8209","farm": "9","userId": "68649150@N06","secret": "8198bae7ef","title": "Hang back","loc": {"type": "Point","coordinates": [103.78782,1.305286]}} 
{"id": "8138336525","server": "8472","farm": "9","userId": "55070113@N08","secret": "523de56f40","title": "Suay Tuesday....  happens...","loc": {"type": "Point","coordinates": [103.791756,1.30432]}} 
{"id": "8130089945","server": "8194","farm": "9","userId": "48002955@N08","secret": "84c4d340fa","title": "","loc": {"type": "Point","coordinates": [103.78267,1.304833]}} 
{"id": "8129985257","server": "8055","farm": "9","userId": "32274859@N06","secret": "b98b7e6bc9","title": "Heineken Premium - Why wait for Skyfall?","loc": {"type": "Point","coordinates": [103.78973,1.302411]}} 
{"id": "8119153654","server": "8469","farm": "9","userId": "35468141938@N01","secret": "fd963e25d4","title": "Night snack: Matcha Milkshake and Chocolate Chip Cookies. Yup, I'm here again, sporting a bandage on my nose bridge... a real conversation starter. Behind:  The Tonino Lamborghini, the black/gold road foldie I seem to ride less ever since I got the Pugsle","loc": {"type": "Point","coordinates": [103.787994,1.305695]}} 
{"id": "8116321221","server": "8333","farm": "9","userId": "35468141938@N01","secret": "13837d3bc8","title": "Stopped by my new favorite cafe to get their cold banana milkshake and warm banana muffin, before they close at the ungodly hour of 11pm. Very nice of them!","loc": {"type": "Point","coordinates": [103.787994,1.305695]}} 
{"id": "8104142640","server": "8332","farm": "9","userId": "25802865@N08","secret": "fd0927d9cb","title": "The Rochester","loc": {"type": "Point","coordinates": [103.78782,1.304449]}} 
{"id": "8104143178","server": "8463","farm": "9","userId": "25802865@N08","secret": "f89207b4d0","title": "Rochester Mall","loc": {"type": "Point","coordinates": [103.78784,1.30535]}} 
{"id": "8089353546","server": "8334","farm": "9","userId": "24125024@N06","secret": "0781a968b7","title": "A big tree along a condominium","loc": {"type": "Point","coordinates": [103.79011,1.302003]}} 
{"id": "8059641627","server": "8170","farm": "9","userId": "30552649@N00","secret": "64910825aa","title": "聚餐日在Da Paolo Bistro","loc": {"type": "Point","coordinates": [103.787506,1.304427]}} 
