{"id": "8705234480","server": "8139","farm": "9","userId": "38594092@N07","secret": "4a2fe60b0e","title": "First trip to Hanoi","loc": {"type": "Point","coordinates": [103.82238,1.289124]}} 
{"id": "8693337732","server": "8122","farm": "9","userId": "95165424@N08","secret": "93b7f82a73","title": "Game","loc": {"type": "Point","coordinates": [103.82366,1.285979]}} 
{"id": "8692220799","server": "8253","farm": "9","userId": "95165424@N08","secret": "2fef125e26","title": "Game","loc": {"type": "Point","coordinates": [103.82362,1.286107]}} 
{"id": "8692220293","server": "8265","farm": "9","userId": "95165424@N08","secret": "0c444e716d","title": "Game","loc": {"type": "Point","coordinates": [103.82358,1.286236]}} 
{"id": "8692219721","server": "8264","farm": "9","userId": "95165424@N08","secret": "0037aa6214","title": "Game","loc": {"type": "Point","coordinates": [103.823685,1.286043]}} 
{"id": "8692219171","server": "8115","farm": "9","userId": "95165424@N08","secret": "140e531de5","title": "Game","loc": {"type": "Point","coordinates": [103.82339,1.285828]}} 
{"id": "8541657414","server": "8509","farm": "9","userId": "28137664@N03","secret": "6fbf6b227e","title": "Kids Train, Tiong Bahru Park, Singapore","loc": {"type": "Point","coordinates": [103.824875,1.287652]}} 
{"id": "8540555877","server": "8530","farm": "9","userId": "28137664@N03","secret": "124e66c78f","title": "Big Tree, Tiong Bahru Park, Singapore","loc": {"type": "Point","coordinates": [103.824875,1.287652]}} 
{"id": "8540556089","server": "8242","farm": "9","userId": "28137664@N03","secret": "c4630fee8c","title": "Kids Train, Tiong Bahru Park, Singapore","loc": {"type": "Point","coordinates": [103.824875,1.287652]}} 
{"id": "8493975707","server": "8230","farm": "9","userId": "91809533@N08","secret": "ca955983c3","title": "GESS","loc": {"type": "Point","coordinates": [103.82367,1.290166]}} 
{"id": "8495072616","server": "8376","farm": "9","userId": "91809533@N08","secret": "2c453cc6fe","title": "GESS","loc": {"type": "Point","coordinates": [103.82367,1.290166]}} 
{"id": "8495073172","server": "8251","farm": "9","userId": "91809533@N08","secret": "dcff34cca0","title": "47/365 building a library pod","loc": {"type": "Point","coordinates": [103.82383,1.290333]}} 
{"id": "8476560464","server": "8385","farm": "9","userId": "74332088@N00","secret": "a651012253","title": "An evening walk","loc": {"type": "Point","coordinates": [103.823204,1.292092]}} 
{"id": "8456479916","server": "8087","farm": "9","userId": "8410127@N06","secret": "0a8d97e18c","title": "A passing train.","loc": {"type": "Point","coordinates": [103.81851,1.288885]}} 
{"id": "8455429976","server": "8374","farm": "9","userId": "91809533@N08","secret": "6d63d34422","title": "Gan Eng Seng School New Library","loc": {"type": "Point","coordinates": [103.82383,1.290666]}} 
{"id": "8455419258","server": "8238","farm": "9","userId": "91809533@N08","secret": "51ecb2cf12","title": "Gan Eng Seng School New Library","loc": {"type": "Point","coordinates": [103.82367,1.290166]}} 
{"id": "8455420366","server": "8242","farm": "9","userId": "91809533@N08","secret": "ef050318c7","title": "Gan Eng Seng School New Library","loc": {"type": "Point","coordinates": [103.82383,1.2905]}} 
{"id": "8454324155","server": "8381","farm": "9","userId": "91809533@N08","secret": "cb4a093b43","title": "Gan Eng Seng School New Library","loc": {"type": "Point","coordinates": [103.82383,1.290333]}} 
{"id": "8454325503","server": "8523","farm": "9","userId": "91809533@N08","secret": "f93f3dcd6e","title": "Gan Eng Seng School New Library","loc": {"type": "Point","coordinates": [103.82383,1.290333]}} 
{"id": "8455419930","server": "8087","farm": "9","userId": "91809533@N08","secret": "1d0cfa23b0","title": "Gan Eng Seng School New Library","loc": {"type": "Point","coordinates": [103.82383,1.290333]}} 
{"id": "8455420124","server": "8093","farm": "9","userId": "91809533@N08","secret": "3ddb0acecc","title": "Gan Eng Seng School New Library","loc": {"type": "Point","coordinates": [103.82383,1.2905]}} 
{"id": "8454325365","server": "8090","farm": "9","userId": "91809533@N08","secret": "39e0a67c3f","title": "Gan Eng Seng School New Library","loc": {"type": "Point","coordinates": [103.82383,1.290333]}} 
{"id": "8454325113","server": "8512","farm": "9","userId": "91809533@N08","secret": "d59dd2af7e","title": "Gan Eng Seng School New Library","loc": {"type": "Point","coordinates": [103.82383,1.290666]}} 
{"id": "8455419516","server": "8090","farm": "9","userId": "91809533@N08","secret": "c1af3b72c9","title": "Gan Eng Seng School New Library","loc": {"type": "Point","coordinates": [103.82383,1.2905]}} 
{"id": "8455420018","server": "8225","farm": "9","userId": "91809533@N08","secret": "501150bafc","title": "Gan Eng Seng School New Library","loc": {"type": "Point","coordinates": [103.82383,1.290333]}} 
{"id": "8455419620","server": "8371","farm": "9","userId": "91809533@N08","secret": "8fa11e4cfb","title": "39/365 Gan Eng Seng School New Library","loc": {"type": "Point","coordinates": [103.82383,1.2905]}} 
{"id": "8454324351","server": "8101","farm": "9","userId": "91809533@N08","secret": "302cf89b13","title": "Gan Eng Seng School New Library","loc": {"type": "Point","coordinates": [103.82383,1.290166]}} 
{"id": "8453654634","server": "8231","farm": "9","userId": "74332088@N00","secret": "6904e9bb17","title": "Hanging brollies","loc": {"type": "Point","coordinates": [103.81663,1.289229]}} 
{"id": "8428719907","server": "8363","farm": "9","userId": "8410127@N06","secret": "596140cff5","title": "MRT","loc": {"type": "Point","coordinates": [103.81959,1.288842]}} 
{"id": "8250150553","server": "8069","farm": "9","userId": "8410127@N06","secret": "45ec3ca789","title": "All that's left.","loc": {"type": "Point","coordinates": [103.81836,1.288027]}} 
{"id": "8233505903","server": "8059","farm": "9","userId": "86377551@N04","secret": "8ac924cc21","title": "Sofia","loc": {"type": "Point","coordinates": [103.82411,1.287781]}} 
{"id": "8234567630","server": "8066","farm": "9","userId": "86377551@N04","secret": "e1cbe24081","title": "Sofia","loc": {"type": "Point","coordinates": [103.82411,1.287781]}} 
{"id": "8234566972","server": "8343","farm": "9","userId": "86377551@N04","secret": "966ace3ce7","title": "Amira","loc": {"type": "Point","coordinates": [103.82411,1.287781]}} 
{"id": "9318152760","server": "5452","farm": "6","userId": "24773033@N02","secret": "860e3d37a7","title": "Our sin is great but it doesn’t have a chance in competition with the aggressive forgiveness we call grace.  #thankyouLord #trainmoments #grace #forgiveness #hebreo12 #ocean #cross #love #proverbs31 #workingmom #singapore","loc": {"type": "Point","coordinates": [103.81692,1.290199]}} 
{"id": "9282969880","server": "3799","farm": "4","userId": "96909191@N06","secret": "497d4faaa8","title": "Even babies are glued to smartphone in singapore . Good parenting ? #mrt #urbansketchers #iPad #iPhone #smartphone #singaporeart #drawing #sketchoftheday #sketching #people #mrt #Singapore #commute #doodles #sketchbook #moleskine","loc": {"type": "Point","coordinates": [103.81683,1.289105]}} 
{"id": "9209825143","server": "5479","farm": "6","userId": "24773033@N02","secret": "87f3f93dcb","title": "Teach me your way, Oh LORD, that I may walk in your truth..... -Psalms 86:11  #trainmoments #hebreo12 #dream #goal #morning #breakfast #bread #road #pathway #blessed #storms #dark #past #present #fixingyoureyestoJesus #faith #childlikefaith #heart #flame","loc": {"type": "Point","coordinates": [103.81773,1.291763]}} 
{"id": "9153372294","server": "2857","farm": "3","userId": "98117409@N06","secret": "248c2d5cfc","title": "Press the button up","loc": {"type": "Point","coordinates": [103.82281,1.289507]}} 
{"id": "9151149729","server": "3666","farm": "4","userId": "98117409@N06","secret": "6bf6d84073","title": "Broken","loc": {"type": "Point","coordinates": [103.822784,1.290044]}} 
{"id": "9153370008","server": "2862","farm": "3","userId": "98117409@N06","secret": "69c179eafa","title": "Rusted Locks II","loc": {"type": "Point","coordinates": [103.82287,1.289786]}} 
{"id": "9153371166","server": "7388","farm": "8","userId": "98117409@N06","secret": "7d36a7ca1f","title": "Rusted Locks","loc": {"type": "Point","coordinates": [103.822914,1.290194]}} 
{"id": "9153099960","server": "2839","farm": "3","userId": "30456413@N00","secret": "03fb974b63","title": "Singapore Lion Head","loc": {"type": "Point","coordinates": [103.82433,1.290833]}} 
{"id": "9048504455","server": "2833","farm": "3","userId": "89260869@N06","secret": "933efd5679","title": "Ngada2 anak papa ni mintak urut dr nenek..nak manja2 lu dgn nenek bru boleh tidur... :D","loc": {"type": "Point","coordinates": [103.82019,1.286511]}} 
{"id": "9048052343","server": "5447","farm": "6","userId": "89260869@N06","secret": "d1ef100672","title": "Yeeah anak papa dapat bju  i <3 Singapore dari nenek&atuk.. :D","loc": {"type": "Point","coordinates": [103.82019,1.286511]}} 
{"id": "8730286357","server": "7403","farm": "8","userId": "60706658@N06","secret": "788f352256","title": "IMG_0743 Tanglin View condo","loc": {"type": "Point","coordinates": [103.8165,1.291499]}} 
{"id": "8728638772","server": "7439","farm": "8","userId": "89260869@N06","secret": "ecfa086258","title": "Brgambr brsama my love daughter...","loc": {"type": "Point","coordinates": [103.82019,1.286511]}} 
{"id": "8727254821","server": "7413","farm": "8","userId": "34811143@N00","secret": "b941676659","title": "Cycling around Singapore, 1st Attempt - 11 May 2013","loc": {"type": "Point","coordinates": [103.81694,1.292222]}} 
{"id": "8728374100","server": "7354","farm": "8","userId": "34811143@N00","secret": "049b9af7d7","title": "Cycling around Singapore, 1st Attempt - 11 May 2013","loc": {"type": "Point","coordinates": [103.81694,1.292222]}} 
{"id": "8710008726","server": "8404","farm": "9","userId": "95461212@N02","secret": "304c1a59c9","title": "","loc": {"type": "Point","coordinates": [103.824,1.287666]}} 
{"id": "8708886165","server": "8136","farm": "9","userId": "95461212@N02","secret": "62ffab39d7","title": "","loc": {"type": "Point","coordinates": [103.82383,1.287833]}} 
{"id": "8707026046","server": "8394","farm": "9","userId": "29834978@N04","secret": "eaa9ce3844","title": "upload","loc": {"type": "Point","coordinates": [103.82427,1.287528]}} 
{"id": "8692223331","server": "8402","farm": "9","userId": "95165424@N08","secret": "915f1d8d8f","title": "Du 21eme","loc": {"type": "Point","coordinates": [103.8239,1.285914]}} 
{"id": "8693339266","server": "8113","farm": "9","userId": "95165424@N08","secret": "34d2cfd0d9","title": "Du 21eme","loc": {"type": "Point","coordinates": [103.823875,1.285871]}} 
{"id": "8692221717","server": "8404","farm": "9","userId": "95165424@N08","secret": "f22f643e83","title": "Du 21eme","loc": {"type": "Point","coordinates": [103.823814,1.285635]}} 
{"id": "8693338790","server": "8264","farm": "9","userId": "95165424@N08","secret": "247d2989ce","title": "Du 21eme","loc": {"type": "Point","coordinates": [103.8239,1.285914]}} 
{"id": "8693340740","server": "8116","farm": "9","userId": "95165424@N08","secret": "2b8da7bb0f","title": "Du 21eme","loc": {"type": "Point","coordinates": [103.82403,1.285678]}} 
{"id": "8691636179","server": "8394","farm": "9","userId": "8832157@N02","secret": "1d8ae5bbc3","title": "The old Alexandra Clinic, now abandoned","loc": {"type": "Point","coordinates": [103.81872,1.289593]}} 
{"id": "8655017872","server": "8113","farm": "9","userId": "51489026@N02","secret": "a80cc08c7a","title": "Red hills","loc": {"type": "Point","coordinates": [103.817154,1.292216]}} 
{"id": "8650898943","server": "8256","farm": "9","userId": "8583503@N07","secret": "5f881595c2","title": "Huh? Why liddat?","loc": {"type": "Point","coordinates": [103.82049,1.290481]}} 
{"id": "8650831674","server": "8114","farm": "9","userId": "14385475@N05","secret": "a446b8e5bd","title": "IMG_4622","loc": {"type": "Point","coordinates": [103.8165,1.289166]}} 
{"id": "8648450168","server": "8253","farm": "9","userId": "94552937@N06","secret": "4772e55dcd","title": "","loc": {"type": "Point","coordinates": [103.816574,1.288994]}} 
{"id": "8633548237","server": "8395","farm": "9","userId": "24773033@N02","secret": "23125a1e82","title": "Message for every single ladies. A lesson which may have been too late to learn but never too late to share .   Be like Ruth who waited for her Boaz and did not settle for some broke-az, cheap-az, po-az, lyin-az, cheatin-az, dumb-a, drunk-az, cheap-az, lo","loc": {"type": "Point","coordinates": [103.81692,1.290199]}} 
{"id": "8620948968","server": "8406","farm": "9","userId": "8583503@N07","secret": "eefcb6cf5a","title": "I haven't eaten you for ages! Welcome to my tummy!!!","loc": {"type": "Point","coordinates": [103.81852,1.287693]}} 
{"id": "8615365286","server": "8262","farm": "9","userId": "8583503@N07","secret": "eea62bb817","title": "Breakfast!","loc": {"type": "Point","coordinates": [103.81824,1.287389]}} 
{"id": "8601388647","server": "8113","farm": "9","userId": "69316898@N00","secret": "d19566f2d3","title": "","loc": {"type": "Point","coordinates": [103.8175,1.287222]}} 
{"id": "8601387795","server": "8529","farm": "9","userId": "69316898@N00","secret": "923d425589","title": "","loc": {"type": "Point","coordinates": [103.8175,1.287222]}} 
{"id": "8585204485","server": "8515","farm": "9","userId": "21997205@N00","secret": "d2649e0345","title": "While helping out at Art Fresco, a joint event by NAC, NLB and many community groups including our Urban Sketchers at the Woodlands Regional Library this afternoon, I couldn't resist taking a quick moment to do this sketch from our booth.","loc": {"type": "Point","coordinates": [103.81817,1.2875]}} 
{"id": "8546038177","server": "8366","farm": "9","userId": "8583503@N07","secret": "fd87952ba2","title": "On Mondays when my favourite Dim Sum stall is closed, I'll get my Siew Mais from another stall where the Uncle hand-makes them. The little imperfections that makes them perfect!","loc": {"type": "Point","coordinates": [103.81824,1.287389]}} 
{"id": "8540555971","server": "8085","farm": "9","userId": "28137664@N03","secret": "47396bbe5d","title": "Kids Train, Tiong Bahru Park, Singapore","loc": {"type": "Point","coordinates": [103.824875,1.287652]}} 
{"id": "8540555475","server": "8104","farm": "9","userId": "28137664@N03","secret": "f1b6e98874","title": "F1010029","loc": {"type": "Point","coordinates": [103.824875,1.287652]}} 
{"id": "8540555723","server": "8372","farm": "9","userId": "28137664@N03","secret": "9ae17eebba","title": "F1010031","loc": {"type": "Point","coordinates": [103.824875,1.287652]}} 
{"id": "8540556345","server": "8102","farm": "9","userId": "28137664@N03","secret": "d6e336abff","title": "F1010036","loc": {"type": "Point","coordinates": [103.824875,1.287652]}} 
{"id": "8540555351","server": "8101","farm": "9","userId": "28137664@N03","secret": "224eb141f5","title": "F1010028","loc": {"type": "Point","coordinates": [103.824875,1.287652]}} 
{"id": "8541656776","server": "8505","farm": "9","userId": "28137664@N03","secret": "c006e13776","title": "F1010030","loc": {"type": "Point","coordinates": [103.824875,1.287652]}} 
{"id": "8497201912","server": "8509","farm": "9","userId": "8857720@N08","secret": "c03e6fe3f3","title": "Tiong Bahru - Singapore","loc": {"type": "Point","coordinates": [103.82513,1.28927]}} 
{"id": "8454382571","server": "8529","farm": "9","userId": "19256525@N00","secret": "df167d581d","title": "39/365 DareTo Display!","loc": {"type": "Point","coordinates": [103.82383,1.290333]}} 
{"id": "8450730964","server": "8516","farm": "9","userId": "25217916@N06","secret": "d29fc68917","title": "Beautiful Day #day #clouds #sky #singapore #instagood #photooftheday #instamood #igers #picoftheday #instadaily #instagramhub #bestoftheday #igdaily #iphonesia #webstagram #follow #instagramers #followme #statigram #instahub #photo #like #followback #tags","loc": {"type": "Point","coordinates": [103.815285,1.288703]}} 
{"id": "8422516910","server": "8496","farm": "9","userId": "74855524@N00","secret": "08e0e25c49","title": "Chinatown","loc": {"type": "Point","coordinates": [103.816574,1.288994]}} 
{"id": "8422513958","server": "8324","farm": "9","userId": "74855524@N00","secret": "8993f1c10d","title": "Chinatown","loc": {"type": "Point","coordinates": [103.816574,1.288994]}} 
{"id": "8421416319","server": "8193","farm": "9","userId": "74855524@N00","secret": "7fa498de36","title": "Chinatown","loc": {"type": "Point","coordinates": [103.816574,1.288994]}} 
{"id": "8422494306","server": "8360","farm": "9","userId": "74855524@N00","secret": "757304ce49","title": "Chinatown","loc": {"type": "Point","coordinates": [103.816574,1.288994]}} 
{"id": "8421392725","server": "8216","farm": "9","userId": "74855524@N00","secret": "b053126032","title": "Chinatown","loc": {"type": "Point","coordinates": [103.816574,1.288994]}} 
{"id": "8422491414","server": "8073","farm": "9","userId": "74855524@N00","secret": "cc1650f26f","title": "Chinatown","loc": {"type": "Point","coordinates": [103.816574,1.288994]}} 
{"id": "8421404899","server": "8364","farm": "9","userId": "74855524@N00","secret": "61c9fcdaa9","title": "Chinatown","loc": {"type": "Point","coordinates": [103.816574,1.288994]}} 
{"id": "8421406547","server": "8048","farm": "9","userId": "74855524@N00","secret": "ed6985fd82","title": "Chinatown","loc": {"type": "Point","coordinates": [103.816574,1.288994]}} 
{"id": "8421402035","server": "8186","farm": "9","userId": "74855524@N00","secret": "2cc22222a4","title": "Chinatown","loc": {"type": "Point","coordinates": [103.816574,1.288994]}} 
{"id": "8408944389","server": "8094","farm": "9","userId": "24773033@N02","secret": "09eeff24fd","title": "Wealth....","loc": {"type": "Point","coordinates": [103.81686,1.289359]}} 
{"id": "8382924673","server": "8324","farm": "9","userId": "8410127@N06","secret": "c4888212c7","title": "Random","loc": {"type": "Point","coordinates": [103.82175,1.29058]}} 
{"id": "8383716528","server": "8188","farm": "9","userId": "25217916@N06","secret": "98787749af","title": "Under the same sky #clouds #sky #singapore #urban #instagood #photooftheday #instamood #igers #picoftheday #instadaily #instagramhub #bestoftheday #igdaily #iphonesia #webstagram #follow #instagramers #followme #statigram #instahub #photo #like #followbac","loc": {"type": "Point","coordinates": [103.815285,1.288703]}} 
{"id": "8374436979","server": "8056","farm": "9","userId": "97478728@N00","secret": "98b760b580","title": "upload","loc": {"type": "Point","coordinates": [103.81841,1.287701]}} 
{"id": "8370671778","server": "8076","farm": "9","userId": "8410127@N06","secret": "d5a3095983","title": "Block 106 Henderson Crescent.","loc": {"type": "Point","coordinates": [103.82227,1.289454]}} 
{"id": "8354913628","server": "8497","farm": "9","userId": "91884254@N04","secret": "062efdbf6a","title": "'The Ne'er-do-well' • 22.22' x 16.67' • Redhill, Singapore • 6.7.2010 • f:4.9 • 1:30 sec • 800 ISO • 49.2 mm • Panasonic DMC-TZ10","loc": {"type": "Point","coordinates": [103.81816,1.287647]}} 
{"id": "8353887937","server": "8358","farm": "9","userId": "91884254@N04","secret": "3286202d39","title": "'A Song for the Hungry Ghosts' • 22.16' x 16.45' • Redhill, Singapore • 6.7.2010 • f:3.7 • 1:60 sec • 800 ISO • 7.3 mm • Panasonic DMC-TZ10","loc": {"type": "Point","coordinates": [103.81804,1.287577]}} 
{"id": "8353848235","server": "8513","farm": "9","userId": "91884254@N04","secret": "9460c24d7d","title": "'The Soloist' • 18.93' x 16.65' • Redhill, Singapore • 6.7.2010 • f:4.3 • 1:40 sec • 800 ISO • 17 mm • Panasonic DMC-TZ10","loc": {"type": "Point","coordinates": [103.818054,1.287577]}} 
{"id": "8354907796","server": "8082","farm": "9","userId": "91884254@N04","secret": "a6c4ea6dce","title": "'The Wary Mother' • 16.67' x 22.22' • Redhill, Singapore • 6.7.2010 • f:4.5 • 1:50 sec • 800 ISO • 22.5 mm • Panasonic DMC-TZ10","loc": {"type": "Point","coordinates": [103.818054,1.287577]}} 
{"id": "8353854285","server": "8193","farm": "9","userId": "91884254@N04","secret": "a43329ef52","title": "'The Patriarch' • 22.22' x 16.67' • Redhill, Singapore • 6.7.2010 • f:4.6 • 1:20 sec • 800 ISO • 37 mm • Panasonic DMC-TZ10","loc": {"type": "Point","coordinates": [103.81799,1.287491]}} 
{"id": "8324905563","server": "8223","farm": "9","userId": "21051211@N08","secret": "a1c8ec4685","title": "Upgrading of GTM","loc": {"type": "Point","coordinates": [103.825356,1.285838]}} 
{"id": "8309490758","server": "8075","farm": "9","userId": "42594504@N00","secret": "baafba3b58","title": "Didn't win but enjoyed the experience. :) @pohui","loc": {"type": "Point","coordinates": [103.8155,1.291527]}} 
{"id": "8308444803","server": "8223","farm": "9","userId": "42594504@N00","secret": "cdd305f5c3","title": "Lost in a whole new world?","loc": {"type": "Point","coordinates": [103.8197,1.28614]}} 
{"id": "8308424683","server": "8357","farm": "9","userId": "42594504@N00","secret": "7382651864","title": "#old school toy planes, somethings I used to buy","loc": {"type": "Point","coordinates": [103.8153,1.286378]}} 
{"id": "8308430167","server": "8223","farm": "9","userId": "42594504@N00","secret": "2cd1b67292","title": "#whatsmystream @froggyappleton :) My stream #zengliwei","loc": {"type": "Point","coordinates": [103.8161,1.289815]}} 
{"id": "8309483150","server": "8363","farm": "9","userId": "42594504@N00","secret": "f04f1d9229","title": "Such a chilly and gloomy day today.. so cozy sleep is hard to fight","loc": {"type": "Point","coordinates": [103.8163,1.289768]}} 
{"id": "8309476712","server": "8494","farm": "9","userId": "42594504@N00","secret": "878c1ac547","title": "sleeping beauty :)) @hisbelovedpig","loc": {"type": "Point","coordinates": [103.8153,1.285885]}} 
{"id": "8308430711","server": "8501","farm": "9","userId": "42594504@N00","secret": "fe3c29eaf0","title": "How much is the doggy in the window.. woof woof","loc": {"type": "Point","coordinates": [103.8167,1.289279]}} 
{"id": "8309485038","server": "8220","farm": "9","userId": "42594504@N00","secret": "1d8a9b264b","title": "My project today :) #zengliwei #iphoneography #iphoneonly #craft #papercraft","loc": {"type": "Point","coordinates": [103.8258,1.286383]}} 
{"id": "8309477694","server": "8074","farm": "9","userId": "42594504@N00","secret": "214611cffa","title": "all e children of the world, red n yellow black n white :)","loc": {"type": "Point","coordinates": [103.8154,1.286698]}} 
{"id": "8309482914","server": "8077","farm": "9","userId": "42594504@N00","secret": "dae53c9c5b","title": "#iamsingaporean because I follow rules and laws diligently","loc": {"type": "Point","coordinates": [103.8161,1.28968]}} 
{"id": "8308435723","server": "8219","farm": "9","userId": "42594504@N00","secret": "b507f71566","title": "A child looking at his mum and wondering why is she taking sooo long!","loc": {"type": "Point","coordinates": [103.8186,1.288351]}} 
{"id": "8309476676","server": "8501","farm": "9","userId": "42594504@N00","secret": "eed9b105fa","title": "finally lunch...","loc": {"type": "Point","coordinates": [103.8208,1.286377]}} 
{"id": "8293260884","server": "8497","farm": "9","userId": "8480000@N05","secret": "465e7afea9","title": "2nd last bowl of the day from the stall!  #singapore","loc": {"type": "Point","coordinates": [103.81824,1.287389]}} 
{"id": "8292208901","server": "8219","farm": "9","userId": "8480000@N05","secret": "d9803c6d8f","title": "Nice and bright #singapore","loc": {"type": "Point","coordinates": [103.81824,1.287389]}} 
{"id": "8275093190","server": "8490","farm": "9","userId": "26754630@N02","secret": "9cc3da204b","title": "","loc": {"type": "Point","coordinates": [103.81929,1.28888]}} 
{"id": "8263670084","server": "8349","farm": "9","userId": "25217916@N06","secret": "0d62e29107","title": "Finally got my olloclip after 10 years of waiting :s #olloclip #filtermania #snapseed #singapore #instagood #photooftheday #instamood #igers #picoftheday #instadaily #instagramhub #bestoftheday #igdaily #jj #webstagram #follow #instagramers #followme #sta","loc": {"type": "Point","coordinates": [103.81664,1.289384]}} 
{"id": "8241832600","server": "8058","farm": "9","userId": "24773033@N02","secret": "e5164b09ba","title": "The price which Jesus has to pay for me and everyone. I am under His mercy; His overflowing love and grace. #amazingJesus #awesomeGod","loc": {"type": "Point","coordinates": [103.81661,1.289583]}} 
{"id": "8238574080","server": "8342","farm": "9","userId": "8410127@N06","secret": "7a3ce635a3","title": "Home Sweet Home","loc": {"type": "Point","coordinates": [103.82047,1.28858]}} 
{"id": "8234568114","server": "8477","farm": "9","userId": "86377551@N04","secret": "5a7dacaa23","title": "Amira","loc": {"type": "Point","coordinates": [103.82411,1.287781]}} 
{"id": "8231671048","server": "8057","farm": "9","userId": "16105436@N00","secret": "619026a52e","title": "Germany fan on SMRT","loc": {"type": "Point","coordinates": [103.82066,1.287833]}} 
{"id": "8192215159","server": "8059","farm": "9","userId": "9454157@N08","secret": "5057982f52","title": "Akansha and Ranvir","loc": {"type": "Point","coordinates": [103.81641,1.290734]}} 
{"id": "8177428480","server": "8343","farm": "9","userId": "20687455@N00","secret": "e8ea85cc31","title": "IMG_2905","loc": {"type": "Point","coordinates": [103.82508,1.285516]}} 
{"id": "8177428920","server": "8206","farm": "9","userId": "20687455@N00","secret": "8b042e70f9","title": "IMG_2904","loc": {"type": "Point","coordinates": [103.82469,1.285905]}} 
{"id": "8150306216","server": "8336","farm": "9","userId": "69379954@N08","secret": "fee4e87bde","title": "Train arriving.","loc": {"type": "Point","coordinates": [103.820564,1.286586]}} 
{"id": "8107794806","server": "8335","farm": "9","userId": "99942665@N00","secret": "41b0059340","title": "IMG_20121020_182204","loc": {"type": "Point","coordinates": [103.82421,1.29184]}} 
{"id": "8059654674","server": "8173","farm": "9","userId": "34811143@N00","secret": "89e16bc526","title": "Cycling from Marina Bay to Alexandra PCN","loc": {"type": "Point","coordinates": [103.823135,1.291877]}} 
{"id": "8059655413","server": "8180","farm": "9","userId": "34811143@N00","secret": "ffe2dee0ff","title": "Cycling from Marina Bay to Alexandra PCN","loc": {"type": "Point","coordinates": [103.82418,1.291836]}} 
{"id": "8059654038","server": "8319","farm": "9","userId": "34811143@N00","secret": "5d0e77077b","title": "Cycling from Marina Bay to Alexandra PCN","loc": {"type": "Point","coordinates": [103.82188,1.291991]}} 
{"id": "8059656185","server": "8036","farm": "9","userId": "34811143@N00","secret": "06f89032e7","title": "Cycling from Marina Bay to Alexandra PCN","loc": {"type": "Point","coordinates": [103.824844,1.291994]}} 
{"id": "8056656581","server": "8454","farm": "9","userId": "21997205@N00","secret": "7594e0f861","title": "My completed watercolour sketch of the Tiong Bahru Park Playground.","loc": {"type": "Point","coordinates": [103.82526,1.288159]}} 
