{"id": "9357778590","server": "5535","farm": "6","userId": "24358066@N08","secret": "987bc9bd7e","title": "Acai berry powder vegan smoothie","loc": {"type": "Point","coordinates": [103.850296,1.276969]}} 
{"id": "9356403146","server": "3742","farm": "4","userId": "24358066@N08","secret": "b471953dfb","title": "Green coffee beans","loc": {"type": "Point","coordinates": [103.85053,1.277097]}} 
{"id": "9273111839","server": "5505","farm": "6","userId": "41894167963@N01","secret": "432d2b443f","title": "IMG_8269","loc": {"type": "Point","coordinates": [103.848335,1.278167]}} 
{"id": "9273112397","server": "7395","farm": "8","userId": "41894167963@N01","secret": "020f79fb88","title": "IMG_8270","loc": {"type": "Point","coordinates": [103.848335,1.278333]}} 
{"id": "8536202455","server": "8521","farm": "9","userId": "16105436@N00","secret": "1534a13af5","title": "4 weeks for lorry driver who killed cyclist","loc": {"type": "Point","coordinates": [103.8485,1.273333]}} 
{"id": "8518297366","server": "8526","farm": "9","userId": "63209542@N08","secret": "c081e646ea","title": "Kinder No Joy 3","loc": {"type": "Point","coordinates": [103.84817,1.277166]}} 
{"id": "8517185673","server": "8524","farm": "9","userId": "63209542@N08","secret": "fbf9a4a5ee","title": "Kinder Dog Stars","loc": {"type": "Point","coordinates": [103.84817,1.276666]}} 
{"id": "8442607289","server": "8096","farm": "9","userId": "27285361@N04","secret": "7be3c890eb","title": "","loc": {"type": "Point","coordinates": [103.84983,1.273666]}} 
{"id": "8311321420","server": "8360","farm": "9","userId": "46240877@N03","secret": "a63e4481ac","title": "Gardens by the bay - Giant trees","loc": {"type": "Point","coordinates": [103.857704,1.271906]}} 
{"id": "8171014082","server": "8068","farm": "9","userId": "79022843@N00","secret": "0b9ecb8673","title": "Marina Bay Financial Centre","loc": {"type": "Point","coordinates": [103.85481,1.278041]}} 
{"id": "8160330241","server": "8197","farm": "9","userId": "49605795@N05","secret": "d2760fa1aa","title": "banking isn't cheap","loc": {"type": "Point","coordinates": [103.85446,1.278497]}} 
{"id": "8153889972","server": "7138","farm": "8","userId": "79022843@N00","secret": "a871e9eeaf","title": "Asia Square. Tower 1 completed, tower 2 under construction","loc": {"type": "Point","coordinates": [103.85505,1.278127]}} 
{"id": "8122056360","server": "8190","farm": "9","userId": "69647866@N00","secret": "83da7d7091","title": "Burmese dance","loc": {"type": "Point","coordinates": [103.853676,1.275124]}} 
{"id": "8112438005","server": "8194","farm": "9","userId": "41298448@N08","secret": "24ee68deda","title": "City at night","loc": {"type": "Point","coordinates": [103.85467,1.2761]}} 
{"id": "8107736399","server": "8334","farm": "9","userId": "69647866@N00","secret": "dabe3e8c25","title": "The Grand Battle","loc": {"type": "Point","coordinates": [103.85353,1.27522]}} 
{"id": "8090466946","server": "8043","farm": "9","userId": "41298448@N08","secret": "deb9418b23","title": "Hi ! from Marina bay","loc": {"type": "Point","coordinates": [103.85467,1.2761]}} 
{"id": "8090131719","server": "8191","farm": "9","userId": "69647866@N00","secret": "33cafe700b","title": "Speaking in Strings","loc": {"type": "Point","coordinates": [103.853004,1.275038]}} 
{"id": "9398555213","server": "7299","farm": "8","userId": "24358066@N08","secret": "d2731d6844","title": "Pancakes for breakfast","loc": {"type": "Point","coordinates": [103.85066,1.276754]}} 
{"id": "9356415523","server": "7411","farm": "8","userId": "24358066@N08","secret": "323b2093f2","title": "Cucumber, carrot, red onion, turnip, green papaya","loc": {"type": "Point","coordinates": [103.85044,1.277033]}} 
{"id": "9356416203","server": "5465","farm": "6","userId": "24358066@N08","secret": "cb85722d1f","title": "Salad","loc": {"type": "Point","coordinates": [103.85066,1.277054]}} 
{"id": "9356402692","server": "5487","farm": "6","userId": "24358066@N08","secret": "433fbba6fd","title": "Roasted coffee beans","loc": {"type": "Point","coordinates": [103.85027,1.277226]}} 
{"id": "9325868156","server": "2885","farm": "3","userId": "88189322@N05","secret": "ffc7d76011","title": "2013-07-19 14.41.31","loc": {"type": "Point","coordinates": [103.855515,1.275313]}} 
{"id": "9306834344","server": "2892","farm": "3","userId": "96738935@N00","secret": "a944fc7e38","title": "IMG_2281","loc": {"type": "Point","coordinates": [103.85284,1.276333]}} 
{"id": "9306834542","server": "5327","farm": "6","userId": "96738935@N00","secret": "bc4e255ce4","title": "IMG_2280","loc": {"type": "Point","coordinates": [103.85233,1.276166]}} 
{"id": "9306521192","server": "7397","farm": "8","userId": "96738935@N00","secret": "09035a860f","title": "IMG_1500","loc": {"type": "Point","coordinates": [103.8555,1.277166]}} 
{"id": "9303739363","server": "2839","farm": "3","userId": "96738935@N00","secret": "7f4bdc9ef2","title": "IMG_1499","loc": {"type": "Point","coordinates": [103.85467,1.276833]}} 
{"id": "9303739641","server": "3750","farm": "4","userId": "96738935@N00","secret": "0aabcfc808","title": "IMG_1498","loc": {"type": "Point","coordinates": [103.852165,1.278]}} 
{"id": "9267961511","server": "7455","farm": "8","userId": "96573491@N04","secret": "5142510991","title": "","loc": {"type": "Point","coordinates": [103.85567,1.278333]}} 
{"id": "9269227726","server": "5523","farm": "6","userId": "92993390@N00","secret": "b80c5e1879","title": "Feeling nostalgic.","loc": {"type": "Point","coordinates": [103.848564,1.272768]}} 
{"id": "9222309681","server": "7378","farm": "8","userId": "67851013@N02","secret": "6738416123","title": "#Arty in the #city 06/07/13.","loc": {"type": "Point","coordinates": [103.8492,1.277022]}} 
{"id": "9158487147","server": "5480","farm": "6","userId": "68821750@N00","secret": "8084f4e198","title": "Singapore","loc": {"type": "Point","coordinates": [103.85333,1.278166]}} 
{"id": "9160710488","server": "7304","farm": "8","userId": "68821750@N00","secret": "48488ae51f","title": "Singapore","loc": {"type": "Point","coordinates": [103.85333,1.278166]}} 
{"id": "9158487495","server": "2835","farm": "3","userId": "68821750@N00","secret": "5791713452","title": "Singapore","loc": {"type": "Point","coordinates": [103.8535,1.278]}} 
{"id": "9112512663","server": "7344","farm": "8","userId": "24125024@N06","secret": "57075c1a21","title": "Project Continuation #203 'Hazy afternoon'","loc": {"type": "Point","coordinates": [103.8535,1.276333]}} 
{"id": "9072078175","server": "3834","farm": "4","userId": "92593934@N04","secret": "52baa409d7","title": "The 'Fat Elvis' burger--with crisp bacon, peanut butter and tempura banana!","loc": {"type": "Point","coordinates": [103.84891,1.273794]}} 
{"id": "9044956879","server": "5445","farm": "6","userId": "41894167963@N01","secret": "95ceb9a46d","title": "La Cantine","loc": {"type": "Point","coordinates": [103.852165,1.278333]}} 
{"id": "9047182056","server": "2890","farm": "3","userId": "41894167963@N01","secret": "e50c996fc7","title": "La Cantine","loc": {"type": "Point","coordinates": [103.852165,1.278333]}} 
{"id": "9040257278","server": "5534","farm": "6","userId": "92593934@N04","secret": "f7f3be2d59","title": "In the middle of nowhere. LOLS","loc": {"type": "Point","coordinates": [103.84866,1.273793]}} 
{"id": "9032019971","server": "5531","farm": "6","userId": "63369917@N05","secret": "cf8c166daa","title": "2013-05-31 14.00.31","loc": {"type": "Point","coordinates": [103.854996,1.277]}} 
{"id": "9034247988","server": "2814","farm": "3","userId": "63369917@N05","secret": "707b45e473","title": "2013-05-31 13.59.45","loc": {"type": "Point","coordinates": [103.84983,1.273833]}} 
{"id": "9020243261","server": "7283","farm": "8","userId": "40011875@N00","secret": "cc2cb529c4","title": "They've started #ndp #airforce rehearsals already. Thunder in #singapore city.","loc": {"type": "Point","coordinates": [103.850746,1.27747]}} 
{"id": "9019530592","server": "2868","farm": "3","userId": "88478367@N04","secret": "5f2a08a69e","title": "BW DSCN0855 Marina bay","loc": {"type": "Point","coordinates": [103.85467,1.2761]}} 
{"id": "8988721168","server": "5336","farm": "6","userId": "41894167963@N01","secret": "2e8df94480","title": "","loc": {"type": "Point","coordinates": [103.85433,1.277666]}} 
{"id": "8874913550","server": "3773","farm": "4","userId": "24125024@N06","secret": "a2647631a9","title": "IMG_9128","loc": {"type": "Point","coordinates": [103.85516,1.277]}} 
{"id": "8854624676","server": "3770","farm": "4","userId": "24668861@N08","secret": "9a745ba47e","title": "Garden by The Bay","loc": {"type": "Point","coordinates": [103.85501,1.278119]}} 
{"id": "8854612378","server": "2887","farm": "3","userId": "24668861@N08","secret": "21e7ea9c7a","title": "Garden by The Bay","loc": {"type": "Point","coordinates": [103.85501,1.278119]}} 
{"id": "8854004831","server": "3828","farm": "4","userId": "24668861@N08","secret": "da2a78bcef","title": "Garden by The Bay","loc": {"type": "Point","coordinates": [103.85501,1.278119]}} 
{"id": "8854002415","server": "3707","farm": "4","userId": "24668861@N08","secret": "3152fbef01","title": "Garden by The Bay","loc": {"type": "Point","coordinates": [103.85501,1.278119]}} 
{"id": "8853994287","server": "5326","farm": "6","userId": "24668861@N08","secret": "08988f5656","title": "Garden by The Bay","loc": {"type": "Point","coordinates": [103.85501,1.278119]}} 
{"id": "8854622180","server": "7437","farm": "8","userId": "24668861@N08","secret": "17efc699ba","title": "Garden by The Bay","loc": {"type": "Point","coordinates": [103.85501,1.278119]}} 
{"id": "8854635954","server": "3791","farm": "4","userId": "24668861@N08","secret": "de4cd2aa07","title": "Garden by The Bay","loc": {"type": "Point","coordinates": [103.85501,1.278119]}} 
{"id": "8854606496","server": "7418","farm": "8","userId": "24668861@N08","secret": "61ea702844","title": "Garden by The Bay","loc": {"type": "Point","coordinates": [103.85501,1.278119]}} 
{"id": "8854633418","server": "8122","farm": "9","userId": "24668861@N08","secret": "0dfba83553","title": "Garden by The Bay","loc": {"type": "Point","coordinates": [103.85501,1.278119]}} 
{"id": "8854630056","server": "3803","farm": "4","userId": "24668861@N08","secret": "8483d3f4b2","title": "Garden by The Bay","loc": {"type": "Point","coordinates": [103.85501,1.278119]}} 
{"id": "8854615046","server": "7381","farm": "8","userId": "24668861@N08","secret": "6e15397cdd","title": "Garden by The Bay","loc": {"type": "Point","coordinates": [103.85501,1.278119]}} 
{"id": "8854012519","server": "3834","farm": "4","userId": "24668861@N08","secret": "b8a7939ab8","title": "Garden by The Bay","loc": {"type": "Point","coordinates": [103.85501,1.278119]}} 
{"id": "8814320829","server": "8412","farm": "9","userId": "94986272@N08","secret": "6436ce8bcd","title": "Singapur","loc": {"type": "Point","coordinates": [103.8553,1.277398]}} 
{"id": "8784092592","server": "3821","farm": "4","userId": "63209542@N08","secret": "7260c32318","title": "Don't let the blues get you down.....","loc": {"type": "Point","coordinates": [103.8485,1.277333]}} 
{"id": "8744352072","server": "7292","farm": "8","userId": "36919220@N00","secret": "788286a887","title": "Go back home","loc": {"type": "Point","coordinates": [103.85468,1.2761]}} 
{"id": "8735801836","server": "7290","farm": "8","userId": "37147643@N02","secret": "b0b5a0c2f8","title": "13May2013s","loc": {"type": "Point","coordinates": [103.84833,1.276582]}} 
{"id": "8707732604","server": "8556","farm": "9","userId": "37147643@N02","secret": "59e55be3ea","title": "4May2013s","loc": {"type": "Point","coordinates": [103.84822,1.276389]}} 
{"id": "8687662268","server": "8406","farm": "9","userId": "39768287@N03","secret": "5fa91a5c33","title": "You see too","loc": {"type": "Point","coordinates": [103.855484,1.273789]}} 
{"id": "8687659276","server": "8393","farm": "9","userId": "39768287@N03","secret": "113f955f25","title": "You see","loc": {"type": "Point","coordinates": [103.85525,1.273542]}} 
{"id": "8675412468","server": "8394","farm": "9","userId": "86522321@N08","secret": "402bfcac5d","title": "DSC00705","loc": {"type": "Point","coordinates": [103.85475,1.278252]}} 
{"id": "8658090696","server": "8111","farm": "9","userId": "95464641@N00","secret": "16c31b3733","title": "Looks good! #instaraw","loc": {"type": "Point","coordinates": [103.85174,1.27846]}} 
{"id": "8644137021","server": "8396","farm": "9","userId": "51489026@N02","secret": "a742a12b46","title": "Downtown","loc": {"type": "Point","coordinates": [103.8543,1.278064]}} 
{"id": "8594561067","server": "8371","farm": "9","userId": "50667129@N00","secret": "a36138ef35","title": "day 86. good news my friend!","loc": {"type": "Point","coordinates": [103.85151,1.278545]}} 
{"id": "8570265119","server": "8111","farm": "9","userId": "18673521@N00","secret": "2786dc4ea5","title": "Singapore-style Ramen. A Noodle Story at Amoy St Hawker Centre. #yummy #sgshiok","loc": {"type": "Point","coordinates": [103.848465,1.27852]}} 
{"id": "8569218995","server": "8522","farm": "9","userId": "16105436@N00","secret": "3135cb13cd","title": "Stray mouse pointer","loc": {"type": "Point","coordinates": [103.854996,1.276166]}} 
{"id": "8543811659","server": "8510","farm": "9","userId": "60026216@N00","secret": "754dc58555","title": "Marina Bay MRT station is a busy interchange now. Last time it was a very quiet station.","loc": {"type": "Point","coordinates": [103.85468,1.2761]}} 
{"id": "8540735081","server": "8385","farm": "9","userId": "24125024@N06","secret": "951d1aa77b","title": "Project Continuation #99 'Development and growth'","loc": {"type": "Point","coordinates": [103.8525,1.276]}} 
{"id": "8538416013","server": "8508","farm": "9","userId": "74006149@N07","secret": "3f85b574c0","title": "Door spoilt. #smrt #street #potd","loc": {"type": "Point","coordinates": [103.85468,1.2761]}} 
{"id": "8538198749","server": "8098","farm": "9","userId": "7195567@N07","secret": "50f8f1c07e","title": "Singapore 2011","loc": {"type": "Point","coordinates": [103.85034,1.278288]}} 
{"id": "8536985438","server": "8249","farm": "9","userId": "37147643@N02","secret": "92306cdf00","title": "7Mar2013s","loc": {"type": "Point","coordinates": [103.848885,1.275832]}} 
{"id": "8524328182","server": "8384","farm": "9","userId": "48941525@N07","secret": "24036f2a89","title": "Grandpa's care","loc": {"type": "Point","coordinates": [103.855156,1.277183]}} 
{"id": "8521069218","server": "8228","farm": "9","userId": "48941525@N07","secret": "a79e7195d6","title": "whereto","loc": {"type": "Point","coordinates": [103.85514,1.277194]}} 
{"id": "8517182303","server": "8382","farm": "9","userId": "63209542@N08","secret": "57bdb73d64","title": "Kinder No Joy 2","loc": {"type": "Point","coordinates": [103.848335,1.276666]}} 
{"id": "8518296980","server": "8386","farm": "9","userId": "63209542@N08","secret": "a1f64fb05c","title": "Kinder No Joy 1","loc": {"type": "Point","coordinates": [103.8485,1.277]}} 
{"id": "8505656185","server": "8228","farm": "9","userId": "63209542@N08","secret": "904bb4ee8e","title": "Kinder Chimp","loc": {"type": "Point","coordinates": [103.84817,1.277]}} 
{"id": "8497688904","server": "8251","farm": "9","userId": "40011875@N00","secret": "d6afdd7bfb","title": "Truffle #fries","loc": {"type": "Point","coordinates": [103.85171,1.278563]}} 
{"id": "8474475643","server": "8367","farm": "9","userId": "21997205@N00","secret": "a022398c34","title": "Shenton Way, through a rose-tinted (and scratched) window from the overhead bridge. #nofilter","loc": {"type": "Point","coordinates": [103.849815,1.278577]}} 
{"id": "8454544367","server": "8517","farm": "9","userId": "73142903@N05","secret": "30bd81ac11","title": "Asia Square - 8 Feb 2013","loc": {"type": "Point","coordinates": [103.85183,1.278333]}} 
{"id": "8451549447","server": "8526","farm": "9","userId": "63209542@N08","secret": "5e8995c5be","title": "Sweet Birthday Greetings to a Special Person!!!","loc": {"type": "Point","coordinates": [103.84866,1.277]}} 
{"id": "8423587450","server": "8214","farm": "9","userId": "83340543@N04","secret": "62d37a6734","title": "","loc": {"type": "Point","coordinates": [103.85516,1.278166]}} 
{"id": "8419501748","server": "8236","farm": "9","userId": "23062498@N00","secret": "41d509154d","title": "I am lost in the #middle of #Singapore like really #lost","loc": {"type": "Point","coordinates": [103.8493,1.278317]}} 
{"id": "8419246098","server": "8463","farm": "9","userId": "73142903@N05","secret": "27a9d9caf9","title": "Marina Bay Projects Progress(27 Jan 2013)","loc": {"type": "Point","coordinates": [103.85567,1.277166]}} 
{"id": "8419246932","server": "8213","farm": "9","userId": "73142903@N05","secret": "2886019299","title": "Marina Bay Projects Progress(27 Jan 2013)","loc": {"type": "Point","coordinates": [103.85533,1.276833]}} 
{"id": "8413061752","server": "8190","farm": "9","userId": "14385475@N05","secret": "9e8f29bc81","title": "IMG_1511","loc": {"type": "Point","coordinates": [103.85167,1.276333]}} 
{"id": "8401878210","server": "8361","farm": "9","userId": "8857720@N08","secret": "86ee9f10c2","title": "MBFC - Singapore","loc": {"type": "Point","coordinates": [103.85432,1.278106]}} 
{"id": "8396662665","server": "8378","farm": "9","userId": "16941210@N07","secret": "d2f4eca769","title": "Singapore GP track","loc": {"type": "Point","coordinates": [103.85728,1.273325]}} 
{"id": "8382847478","server": "8184","farm": "9","userId": "63209542@N08","secret": "de73c17ecf","title": "Cookie Break at the Office","loc": {"type": "Point","coordinates": [103.84817,1.277167]}} 
{"id": "8379586707","server": "8226","farm": "9","userId": "92276767@N08","secret": "7a25e92428","title": "In Singapore","loc": {"type": "Point","coordinates": [103.85333,1.2785]}} 
{"id": "8376247975","server": "8332","farm": "9","userId": "41894167963@N01","secret": "75294a7ce2","title": "Loom","loc": {"type": "Point","coordinates": [103.855,1.278167]}} 
{"id": "8312727931","server": "8360","farm": "9","userId": "60514173@N00","secret": "e268acd75f","title": "SANY1196.JPG","loc": {"type": "Point","coordinates": [103.856415,1.27813]}} 
{"id": "8312728423","server": "8362","farm": "9","userId": "60514173@N00","secret": "7acebe3f29","title": "SANY1197.JPG","loc": {"type": "Point","coordinates": [103.856415,1.27813]}} 
{"id": "8312730453","server": "8492","farm": "9","userId": "60514173@N00","secret": "a7cd37fb09","title": "SANY1202.JPG","loc": {"type": "Point","coordinates": [103.856415,1.27813]}} 
{"id": "8312730089","server": "8212","farm": "9","userId": "60514173@N00","secret": "77b3902ba1","title": "SANY1201.JPG","loc": {"type": "Point","coordinates": [103.856415,1.27813]}} 
{"id": "8312729259","server": "8084","farm": "9","userId": "60514173@N00","secret": "6ec9468801","title": "SANY1199.JPG","loc": {"type": "Point","coordinates": [103.856415,1.27813]}} 
{"id": "8312728855","server": "8080","farm": "9","userId": "60514173@N00","secret": "052523dd39","title": "SANY1198.JPG","loc": {"type": "Point","coordinates": [103.856415,1.27813]}} 
{"id": "8313776868","server": "8078","farm": "9","userId": "60514173@N00","secret": "b84620092c","title": "SANY1195.JPG","loc": {"type": "Point","coordinates": [103.856415,1.27813]}} 
{"id": "8308974645","server": "8499","farm": "9","userId": "22262208@N07","secret": "e27e697eb9","title": "L1001285","loc": {"type": "Point","coordinates": [103.854614,1.276063]}} 
{"id": "8310024826","server": "8503","farm": "9","userId": "22262208@N07","secret": "b74b703ff6","title": "L1001286","loc": {"type": "Point","coordinates": [103.854614,1.276063]}} 
{"id": "8308974423","server": "8084","farm": "9","userId": "22262208@N07","secret": "419e8658bc","title": "L1001284","loc": {"type": "Point","coordinates": [103.85463,1.276186]}} 
{"id": "8299995232","server": "8354","farm": "9","userId": "41894167963@N01","secret": "9d5266fbbc","title": "Downtown #singapore #hipstamatic","loc": {"type": "Point","coordinates": [103.85433,1.277833]}} 
{"id": "8252961390","server": "8337","farm": "9","userId": "19109134@N00","secret": "959e1eca3f","title": "Flare","loc": {"type": "Point","coordinates": [103.84855,1.278437]}} 
{"id": "8244881335","server": "8069","farm": "9","userId": "15632697@N06","secret": "1dee8e9cfe","title": "singapore - singapore","loc": {"type": "Point","coordinates": [103.8493,1.273279]}} 
{"id": "8234959226","server": "8201","farm": "9","userId": "39489048@N04","secret": "6cb12f9231","title": "","loc": {"type": "Point","coordinates": [103.85183,1.2785]}} 
{"id": "8202969972","server": "8198","farm": "9","userId": "85252992@N06","secret": "a3165322ce","title": "Marina Bay MRT Station","loc": {"type": "Point","coordinates": [103.854805,1.276346]}} 
{"id": "8198080321","server": "8057","farm": "9","userId": "11008075@N00","secret": "8c79560807","title": "Chicken Curry with bread","loc": {"type": "Point","coordinates": [103.84865,1.278451]}} 
{"id": "8163947023","server": "8342","farm": "9","userId": "37147643@N02","secret": "9e74754373","title": "7Nov2012","loc": {"type": "Point","coordinates": [103.85252,1.275853]}} 
{"id": "8154115844","server": "8200","farm": "9","userId": "51489026@N02","secret": "48d2eee7ed","title": "The journalist","loc": {"type": "Point","coordinates": [103.84822,1.278409]}} 
{"id": "8143969298","server": "8053","farm": "9","userId": "51489026@N02","secret": "e4a040520d","title": "Crossing the District","loc": {"type": "Point","coordinates": [103.848595,1.27812]}} 
{"id": "8139950432","server": "8471","farm": "9","userId": "24125024@N06","secret": "b190c73b54","title": "Marina Blvd","loc": {"type": "Point","coordinates": [103.857666,1.278]}} 
{"id": "8112266436","server": "8326","farm": "9","userId": "41298448@N08","secret": "fccedebefb","title": "On the steps of light","loc": {"type": "Point","coordinates": [103.85467,1.2761]}} 
{"id": "8102273345","server": "8193","farm": "9","userId": "54079168@N05","secret": "001e2527a8","title": "The Helix Bridge","loc": {"type": "Point","coordinates": [103.8551,1.27714]}} 
{"id": "8102268605","server": "8467","farm": "9","userId": "54079168@N05","secret": "eff4b3d48d","title": "The Helix Bridge","loc": {"type": "Point","coordinates": [103.85519,1.277269]}} 
{"id": "8062084209","server": "8180","farm": "9","userId": "53463248@N03","secret": "da4ff0565c","title": "IMG_9383","loc": {"type": "Point","coordinates": [103.85702,1.276368]}} 
