{"id": "8243308864","server": "8346","farm": "9","userId": "65512718@N08","secret": "213a4a697a","title": "Angel","loc": {"type": "Point","coordinates": [103.81668,1.437684]}} 
{"id": "8102456074","server": "8193","farm": "9","userId": "85252992@N06","secret": "0eb29dd9ac","title": "Mercedes-Benz Citaro","loc": {"type": "Point","coordinates": [103.82444,1.441588]}} 
{"id": "9438417837","server": "7315","farm": "8","userId": "36834783@N00","secret": "88f978c06f","title": "Thank you my friends and my dear.","loc": {"type": "Point","coordinates": [103.82602,1.443413]}} 
{"id": "9364895868","server": "7295","farm": "8","userId": "14595242@N00","secret": "24cefdc025","title": "JC%2520Navy","loc": {"type": "Point","coordinates": [103.81994,1.438027]}} 
{"id": "9340430487","server": "5344","farm": "6","userId": "98261513@N08","secret": "7b4716b6b2","title": "Bismillahiramanirahim...","loc": {"type": "Point","coordinates": [103.824936,1.440538]}} 
{"id": "9220199261","server": "7310","farm": "8","userId": "29049566@N07","secret": "286b375f81","title": "Waiting for dinner","loc": {"type": "Point","coordinates": [103.82371,1.441463]}} 
{"id": "9220168353","server": "5498","farm": "6","userId": "29049566@N07","secret": "03858f1964","title": "The Wait","loc": {"type": "Point","coordinates": [103.82371,1.441463]}} 
{"id": "8866470238","server": "7446","farm": "8","userId": "14595242@N00","secret": "e5e1cd7491","title": "JC%2520Navy","loc": {"type": "Point","coordinates": [103.81994,1.438027]}} 
{"id": "8651513744","server": "8117","farm": "9","userId": "46577167@N00","secret": "afe65f28e8","title": "Durian","loc": {"type": "Point","coordinates": [103.82367,1.442]}} 
{"id": "8527368898","server": "8247","farm": "9","userId": "15170730@N07","secret": "7d58f66c35","title": "lunch treat","loc": {"type": "Point","coordinates": [103.824455,1.44161]}} 
{"id": "8420194070","server": "8190","farm": "9","userId": "8583503@N07","secret": "3cf724964b","title": "Hoe hoe hoe!","loc": {"type": "Point","coordinates": [103.82597,1.443409]}} 
{"id": "8385199579","server": "8191","farm": "9","userId": "36282183@N00","secret": "40a3ef88aa","title": "#16 2013 - Two things   Food and drinks.","loc": {"type": "Point","coordinates": [103.82432,1.441288]}} 
{"id": "8309930555","server": "8503","farm": "9","userId": "39926850@N04","secret": "7bded247fe","title": "Evening tea break - #tea #weekendspecial  #friends","loc": {"type": "Point","coordinates": [103.82448,1.441555]}} 
{"id": "8290810161","server": "8216","farm": "9","userId": "65512718@N08","secret": "0332b4486f","title": "说到爱 (Let's Sing It Out Of Love)","loc": {"type": "Point","coordinates": [103.82561,1.441116]}} 
{"id": "8300327810","server": "8492","farm": "9","userId": "8583503@N07","secret": "90042ca5f1","title": "Waking myself up...","loc": {"type": "Point","coordinates": [103.82448,1.441555]}} 
{"id": "8292600397","server": "8360","farm": "9","userId": "54696848@N00","secret": "0769b407e7","title": "Black Pepper Steak with Garden Veggies & Mac&Cheese!","loc": {"type": "Point","coordinates": [103.82453,1.441619]}} 
{"id": "8269882058","server": "8063","farm": "9","userId": "65512718@N08","secret": "efb3ae2daf","title": "Angel","loc": {"type": "Point","coordinates": [103.82149,1.441803]}} 
{"id": "8243310564","server": "8206","farm": "9","userId": "65512718@N08","secret": "084e8efb46","title": "知心朋友 (Best Friends)......","loc": {"type": "Point","coordinates": [103.822174,1.443176]}} 
{"id": "8046727618","server": "8321","farm": "9","userId": "86743793@N04","secret": "a18b86cf51","title": "Malay weddings","loc": {"type": "Point","coordinates": [103.82556,1.4394]}} 
{"id": "8046721923","server": "8035","farm": "9","userId": "86743793@N04","secret": "11bdc8590d","title": "Chinese wedding clothes","loc": {"type": "Point","coordinates": [103.82556,1.4394]}} 
{"id": "8046721843","server": "8309","farm": "9","userId": "86743793@N04","secret": "6a716f5b2e","title": "Chinese wedding clothes","loc": {"type": "Point","coordinates": [103.82556,1.4394]}} 
{"id": "8046727730","server": "8455","farm": "9","userId": "86743793@N04","secret": "f1ed18b368","title": "Eurasian weddings","loc": {"type": "Point","coordinates": [103.82556,1.4394]}} 
{"id": "8046721739","server": "8457","farm": "9","userId": "86743793@N04","secret": "3bb4465126","title": "Weddings show at Singapore","loc": {"type": "Point","coordinates": [103.82556,1.4394]}} 
{"id": "8046727220","server": "8173","farm": "9","userId": "86743793@N04","secret": "f8a1babc2f","title": "Chinese wedding clothes","loc": {"type": "Point","coordinates": [103.82556,1.4394]}} 
{"id": "8046722209","server": "8458","farm": "9","userId": "86743793@N04","secret": "b64b55d50d","title": "Indian weddings","loc": {"type": "Point","coordinates": [103.82556,1.4394]}} 
{"id": "8046722321","server": "8320","farm": "9","userId": "86743793@N04","secret": "52ec2292c0","title": "Chinese weddings","loc": {"type": "Point","coordinates": [103.82556,1.4394]}} 
{"id": "8038086500","server": "8035","farm": "9","userId": "50561663@N00","secret": "c5107f3ffa","title": "本人和芒果布丁一起祝大家中秋節快樂~","loc": {"type": "Point","coordinates": [103.8247,1.4416]}} 
