{"id": "8297070153","server": "8220","farm": "9","userId": "21230300@N04","secret": "565d5ee560","title": "Pelbagai pilihan #kadkahwin serendah 19 sen  #indonesia #readymade #hardcover #custommade","loc": {"type": "Point","coordinates": [103.70758,1.499905]}} 
{"id": "8274619115","server": "8069","farm": "9","userId": "21635155@N07","secret": "99505579de","title": "Abah Beriani House","loc": {"type": "Point","coordinates": [103.70833,1.499913]}} 
{"id": "9377341832","server": "3792","farm": "4","userId": "89260869@N06","secret": "c2aa7a7dd9","title": "Si kecik Bermanja dgn Moyang","loc": {"type": "Point","coordinates": [103.71154,1.501064]}} 
{"id": "9321169840","server": "3742","farm": "4","userId": "99169907@N08","secret": "7eb1900602","title": "Tampoi","loc": {"type": "Point","coordinates": [103.706055,1.500314]}} 
{"id": "8338530694","server": "8076","farm": "9","userId": "59489573@N05","secret": "6d266eab90","title": "002","loc": {"type": "Point","coordinates": [103.715675,1.501907]}} 
{"id": "8298120756","server": "8355","farm": "9","userId": "21230300@N04","secret": "3c3dc01322","title": "Tandori nan keju #mamak #malaysian #food","loc": {"type": "Point","coordinates": [103.70892,1.498804]}} 
{"id": "8298115630","server": "8217","farm": "9","userId": "21230300@N04","secret": "1aa83ce8cf","title": "Alcohol swab  #roland #printing","loc": {"type": "Point","coordinates": [103.70756,1.499781]}} 
{"id": "8298118332","server": "8078","farm": "9","userId": "21230300@N04","secret": "233233354f","title": "Kuew tiaw xpress #food #malaysian","loc": {"type": "Point","coordinates": [103.70998,1.501791]}} 
