{"id": "9276460144","server": "7418","farm": "8","userId": "96289040@N00","secret": "6fd63d4010","title": "Fruit salad","loc": {"type": "Point","coordinates": [103.76669,1.469466]}} 
{"id": "8839416912","server": "3687","farm": "4","userId": "31283968@N02","secret": "13c6b0bd5e","title": "Johor Premium Outlet","loc": {"type": "Point","coordinates": [103.76517,1.464166]}} 
{"id": "8486961908","server": "8505","farm": "9","userId": "14385475@N05","secret": "19d86c0dcf","title": "IMG_3041","loc": {"type": "Point","coordinates": [103.7665,1.464666]}} 
{"id": "8485868521","server": "8099","farm": "9","userId": "14385475@N05","secret": "0694de34de","title": "IMG_3040","loc": {"type": "Point","coordinates": [103.76666,1.464666]}} 
{"id": "8314045075","server": "8358","farm": "9","userId": "31283968@N02","secret": "956343cfc4","title": "Trip to JPO","loc": {"type": "Point","coordinates": [103.76517,1.464166]}} 
{"id": "8268110925","server": "8199","farm": "9","userId": "32250366@N05","secret": "24369eccf9","title": "Kastam...","loc": {"type": "Point","coordinates": [103.767296,1.465152]}} 
{"id": "9297040350","server": "7377","farm": "8","userId": "24773033@N02","secret": "2c4199f848","title": "It's good to wait.  #hebreo12 #proverbs31 #Instagram #instacard #trainmoments #singapore #beach #walk #expectant #waituponthelord","loc": {"type": "Point","coordinates": [103.76669,1.469466]}} 
{"id": "8941284257","server": "8405","farm": "9","userId": "63117526@N04","secret": "51e615e6d2","title": "#morning #morninggreeting #love #instagood #photooftheday #instamood #iphonesia #picoftheday #instadaily #instagramhub #igdaily #bestoftheday #happy #life #instahub #like #instalove #instagram_sg #igsg #jjsgig #iphoneasia #daily #dailyphoto #project365 #p","loc": {"type": "Point","coordinates": [103.7613,1.46554]}} 
{"id": "8260676921","server": "8217","farm": "9","userId": "23479286@N07","secret": "13c91f4f28","title": "Atas langit dari penang ke kl..","loc": {"type": "Point","coordinates": [103.76548,1.467678]}} 
{"id": "8112295907","server": "8053","farm": "9","userId": "20998987@N00","secret": "ace5e5abd0","title": "_MG_7540","loc": {"type": "Point","coordinates": [103.76997,1.468222]}} 
{"id": "8079056275","server": "8048","farm": "9","userId": "63081656@N02","secret": "25d3b5cd94","title": "Johor Roof tops -30Sept","loc": {"type": "Point","coordinates": [103.76157,1.469002]}} 
