{"id": "8559759040","server": "8086","farm": "9","userId": "25076731@N05","secret": "556062564d","title": "Sumo wrestler figures at Haw Par Villa","loc": {"type": "Point","coordinates": [103.78211,1.283919]}} 
{"id": "8533248481","server": "8380","farm": "9","userId": "58623059@N06","secret": "34e20abaed","title": "into the flames","loc": {"type": "Point","coordinates": [103.781845,1.283554]}} 
{"id": "8456099932","server": "8506","farm": "9","userId": "91171136@N03","secret": "7736a19e40","title": "Goddess","loc": {"type": "Point","coordinates": [103.782394,1.284917]}} 
{"id": "8454944409","server": "8513","farm": "9","userId": "91171136@N03","secret": "a7b583acbb","title": "Psycho Kittens","loc": {"type": "Point","coordinates": [103.782394,1.284917]}} 
{"id": "8456117820","server": "8373","farm": "9","userId": "91171136@N03","secret": "73f35ea479","title": "Manly Warrior Armor","loc": {"type": "Point","coordinates": [103.782394,1.284917]}} 
{"id": "8454952171","server": "8526","farm": "9","userId": "91171136@N03","secret": "c30ce22eaf","title": "Monkey Ruler","loc": {"type": "Point","coordinates": [103.782394,1.284917]}} 
{"id": "8456064962","server": "8236","farm": "9","userId": "91171136@N03","secret": "9aa994fe2a","title": "Grip","loc": {"type": "Point","coordinates": [103.782394,1.284917]}} 
{"id": "8456052888","server": "8513","farm": "9","userId": "91171136@N03","secret": "d603db2130","title": "Mad Mammal","loc": {"type": "Point","coordinates": [103.782394,1.284917]}} 
{"id": "8454928177","server": "8531","farm": "9","userId": "91171136@N03","secret": "70030222a6","title": "Peaceful Temple","loc": {"type": "Point","coordinates": [103.782394,1.284917]}} 
{"id": "8456007214","server": "8102","farm": "9","userId": "91171136@N03","secret": "b2ddf8ec90","title": "Light Warriors","loc": {"type": "Point","coordinates": [103.782394,1.284917]}} 
{"id": "8272655778","server": "8072","farm": "9","userId": "24141292@N02","secret": "02ae2f0ba1","title": "The Odd Couple","loc": {"type": "Point","coordinates": [103.78208,1.284455]}} 
{"id": "8271586725","server": "8356","farm": "9","userId": "24141292@N02","secret": "b16f6b769a","title": "Sumo","loc": {"type": "Point","coordinates": [103.78188,1.28408]}} 
{"id": "8272654712","server": "8362","farm": "9","userId": "24141292@N02","secret": "6becb7383f","title": "Cartoony Dragon","loc": {"type": "Point","coordinates": [103.78205,1.283619]}} 
{"id": "8272654464","server": "8211","farm": "9","userId": "24141292@N02","secret": "263151ce87","title": "Pigsy, Cartoon Style","loc": {"type": "Point","coordinates": [103.78205,1.283619]}} 
{"id": "8271584793","server": "8058","farm": "9","userId": "24141292@N02","secret": "67163fb5c3","title": "Entrance to Tiger Balm Gardens","loc": {"type": "Point","coordinates": [103.78143,1.283554]}} 
{"id": "8272653910","server": "8478","farm": "9","userId": "24141292@N02","secret": "9cd3dd000f","title": "Ox Romance","loc": {"type": "Point","coordinates": [103.78238,1.282954]}} 
{"id": "8272655510","server": "8480","farm": "9","userId": "24141292@N02","secret": "a4659676bf","title": "Chinese Lady","loc": {"type": "Point","coordinates": [103.78208,1.284455]}} 
{"id": "8271585101","server": "8491","farm": "9","userId": "24141292@N02","secret": "3175bfb619","title": "Concrete Cliffs","loc": {"type": "Point","coordinates": [103.78143,1.283554]}} 
{"id": "8269719893","server": "8337","farm": "9","userId": "24141292@N02","secret": "39f66a2abc","title": "Surrealist Animals","loc": {"type": "Point","coordinates": [103.78238,1.282954]}} 
{"id": "8269719185","server": "8498","farm": "9","userId": "24141292@N02","secret": "d5ab1d32d8","title": "Pastoral Tableau","loc": {"type": "Point","coordinates": [103.78238,1.282954]}} 
{"id": "8269719547","server": "8201","farm": "9","userId": "24141292@N02","secret": "2033a69668","title": "Merry go Round?","loc": {"type": "Point","coordinates": [103.78238,1.282954]}} 
{"id": "8269723219","server": "8484","farm": "9","userId": "24141292@N02","secret": "4189e2b96d","title": "Scary Sheep","loc": {"type": "Point","coordinates": [103.78205,1.283619]}} 
{"id": "8269718755","server": "8343","farm": "9","userId": "24141292@N02","secret": "425c1ae04a","title": "Panda (wearing Lipstick?)","loc": {"type": "Point","coordinates": [103.78188,1.28408]}} 
{"id": "8265734483","server": "8341","farm": "9","userId": "24141292@N02","secret": "682d7c7802","title": "Gates of Hell","loc": {"type": "Point","coordinates": [103.78238,1.282954]}} 
{"id": "8265734653","server": "8503","farm": "9","userId": "24141292@N02","secret": "2176bb0642","title": "Judgement Group","loc": {"type": "Point","coordinates": [103.78238,1.282954]}} 
{"id": "8265169590","server": "8070","farm": "9","userId": "24141292@N02","secret": "f705440c81","title": "Shou","loc": {"type": "Point","coordinates": [103.78188,1.28408]}} 
{"id": "8265169274","server": "8222","farm": "9","userId": "24141292@N02","secret": "b275a8e5c9","title": "Fu & Lu","loc": {"type": "Point","coordinates": [103.78188,1.28408]}} 
{"id": "8265168298","server": "8063","farm": "9","userId": "24141292@N02","secret": "729bb1e939","title": "Swimming Water Buffalo","loc": {"type": "Point","coordinates": [103.78188,1.28408]}} 
{"id": "8264106135","server": "8351","farm": "9","userId": "24141292@N02","secret": "63521e4998","title": "Evil Sheep","loc": {"type": "Point","coordinates": [103.78205,1.283619]}} 
{"id": "8264100745","server": "8203","farm": "9","userId": "24141292@N02","secret": "a7cb5fd20d","title": "Tiger","loc": {"type": "Point","coordinates": [103.78188,1.28408]}} 
{"id": "8265177468","server": "8499","farm": "9","userId": "24141292@N02","secret": "26d50c0be2","title": "Garuda","loc": {"type": "Point","coordinates": [103.78188,1.28408]}} 
{"id": "8265175864","server": "8210","farm": "9","userId": "24141292@N02","secret": "ffa151840d","title": "Freaky Owls","loc": {"type": "Point","coordinates": [103.78188,1.28408]}} 
{"id": "8264108607","server": "8497","farm": "9","userId": "24141292@N02","secret": "b8410c17b7","title": "Sumo Wrestlers","loc": {"type": "Point","coordinates": [103.78188,1.28408]}} 
{"id": "8264108915","server": "8206","farm": "9","userId": "24141292@N02","secret": "127b6e58fb","title": "Garuda or Gonzo?","loc": {"type": "Point","coordinates": [103.78188,1.28408]}} 
{"id": "8262869855","server": "8224","farm": "9","userId": "24141292@N02","secret": "23c2f424ff","title": "Fu Lu Shou Deities","loc": {"type": "Point","coordinates": [103.78188,1.28408]}} 
{"id": "8262868833","server": "8062","farm": "9","userId": "24141292@N02","secret": "8c7ff0660a","title": "Pagoda, Tiger Balm Gardens","loc": {"type": "Point","coordinates": [103.78188,1.28408]}} 
{"id": "8262864595","server": "8060","farm": "9","userId": "24141292@N02","secret": "30a0ef4f93","title": "Pagodas, Haw Par Villa","loc": {"type": "Point","coordinates": [103.78188,1.28408]}} 
{"id": "8262346348","server": "8084","farm": "9","userId": "24141292@N02","secret": "fec9f909ec","title": "Abandon all Sanity ye who Enter Here","loc": {"type": "Point","coordinates": [103.78208,1.284455]}} 
{"id": "8262348142","server": "8500","farm": "9","userId": "24141292@N02","secret": "3c936585e5","title": "Amidst the Waves","loc": {"type": "Point","coordinates": [103.78208,1.284455]}} 
{"id": "8262361266","server": "8205","farm": "9","userId": "24141292@N02","secret": "31c2e1ac37","title": "Battling the Beast","loc": {"type": "Point","coordinates": [103.78208,1.284455]}} 
{"id": "8262346720","server": "8082","farm": "9","userId": "24141292@N02","secret": "8fa056581c","title": "Laughing Buddha","loc": {"type": "Point","coordinates": [103.78208,1.284455]}} 
{"id": "8261289397","server": "8341","farm": "9","userId": "24141292@N02","secret": "9c2569d31e","title": "Serene Pagodas, Haw Par Villa","loc": {"type": "Point","coordinates": [103.78188,1.28408]}} 
{"id": "8261277141","server": "8081","farm": "9","userId": "24141292@N02","secret": "e2fe57451c","title": "Wolves?","loc": {"type": "Point","coordinates": [103.78208,1.284455]}} 
{"id": "8257330896","server": "8059","farm": "9","userId": "24141292@N02","secret": "e0ac817ef5","title": "King Kong","loc": {"type": "Point","coordinates": [103.782104,1.284874]}} 
{"id": "8256267383","server": "8344","farm": "9","userId": "24141292@N02","secret": "3f0ed8469b","title": "Confucius","loc": {"type": "Point","coordinates": [103.78208,1.284455]}} 
{"id": "8256264399","server": "8059","farm": "9","userId": "24141292@N02","secret": "9c07604b36","title": "Colourful Bird","loc": {"type": "Point","coordinates": [103.78208,1.284455]}} 
{"id": "8256262185","server": "8498","farm": "9","userId": "24141292@N02","secret": "188dc21634","title": "Giraffe & Buffalo","loc": {"type": "Point","coordinates": [103.78208,1.284455]}} 
{"id": "8257331452","server": "8486","farm": "9","userId": "24141292@N02","secret": "4d4fca849f","title": "Water Buffalo","loc": {"type": "Point","coordinates": [103.78208,1.284455]}} 
{"id": "8256261575","server": "8480","farm": "9","userId": "24141292@N02","secret": "0237c17891","title": "Court of The Monkey King","loc": {"type": "Point","coordinates": [103.78208,1.284455]}} 
{"id": "8250041359","server": "8059","farm": "9","userId": "24141292@N02","secret": "cb09c8942b","title": "Tiger Balm Gardens","loc": {"type": "Point","coordinates": [103.782104,1.284874]}} 
{"id": "8250029511","server": "8057","farm": "9","userId": "24141292@N02","secret": "2ec33b8fa9","title": "Kangaroo Statue","loc": {"type": "Point","coordinates": [103.782104,1.284874]}} 
{"id": "8250027569","server": "8481","farm": "9","userId": "24141292@N02","secret": "2539015cee","title": "Shell Woman","loc": {"type": "Point","coordinates": [103.782104,1.284874]}} 
{"id": "8251098498","server": "8204","farm": "9","userId": "24141292@N02","secret": "40ecbc6ae9","title": "Ostrich Jockeys","loc": {"type": "Point","coordinates": [103.782104,1.284874]}} 
{"id": "8250041115","server": "8203","farm": "9","userId": "24141292@N02","secret": "38a6395ac1","title": "'Come on in, the Water's Lovely!'","loc": {"type": "Point","coordinates": [103.782104,1.284874]}} 
{"id": "8251099376","server": "8486","farm": "9","userId": "24141292@N02","secret": "ced2779dcd","title": "Armed Monkeys on Patrol","loc": {"type": "Point","coordinates": [103.78208,1.284455]}} 
{"id": "8250026937","server": "8488","farm": "9","userId": "24141292@N02","secret": "82a4bae90b","title": "Gorilla, Tiger Balm Gardens","loc": {"type": "Point","coordinates": [103.782104,1.284874]}} 
{"id": "8251097620","server": "8198","farm": "9","userId": "24141292@N02","secret": "7e6682058b","title": "Chinese Sage","loc": {"type": "Point","coordinates": [103.782104,1.284874]}} 
{"id": "8250028099","server": "8347","farm": "9","userId": "24141292@N02","secret": "daa41138b3","title": "Pagoda, Tiger Balm Gardens","loc": {"type": "Point","coordinates": [103.782104,1.284874]}} 
{"id": "8251110988","server": "8057","farm": "9","userId": "24141292@N02","secret": "94584cb943","title": "Gorilla Statues","loc": {"type": "Point","coordinates": [103.782104,1.284874]}} 
{"id": "8250027829","server": "8349","farm": "9","userId": "24141292@N02","secret": "c11c79fcc8","title": "Chinese Sage's Boat","loc": {"type": "Point","coordinates": [103.782104,1.284874]}} 
{"id": "8250029843","server": "8490","farm": "9","userId": "24141292@N02","secret": "1dd183cfaf","title": "A Tortoise riding an Ostrich","loc": {"type": "Point","coordinates": [103.782104,1.284874]}} 
{"id": "8251096454","server": "8477","farm": "9","userId": "24141292@N02","secret": "9f31c159ed","title": "Big Guy","loc": {"type": "Point","coordinates": [103.782104,1.284874]}} 
{"id": "8245781258","server": "8059","farm": "9","userId": "24141292@N02","secret": "c19a6bfca7","title": "Tableaux, Tiger Balm Gardens","loc": {"type": "Point","coordinates": [103.78148,1.284552]}} 
{"id": "8245781604","server": "8208","farm": "9","userId": "24141292@N02","secret": "aaab00c0e4","title": "Tableaux, Tiger Balm Gardens","loc": {"type": "Point","coordinates": [103.78148,1.284552]}} 
{"id": "8241680585","server": "8338","farm": "9","userId": "24141292@N02","secret": "71d88ac154","title": "Fu Lu Shou Deities, Tiger Balm Gardens, Singapore","loc": {"type": "Point","coordinates": [103.78148,1.284552]}} 
{"id": "8241665683","server": "8063","farm": "9","userId": "24141292@N02","secret": "c1197b4cb8","title": "Haw Par Brothers Memorial, Singapore","loc": {"type": "Point","coordinates": [103.78143,1.283554]}} 
{"id": "8241665357","server": "8202","farm": "9","userId": "24141292@N02","secret": "523e6efb3c","title": "Entrance, Tiger Balm Gardens, Singapore","loc": {"type": "Point","coordinates": [103.78143,1.283554]}} 
{"id": "8241679109","server": "8350","farm": "9","userId": "24141292@N02","secret": "8510df0cc0","title": "Tableaux, Tiger Balm Gardens, Singapore","loc": {"type": "Point","coordinates": [103.78148,1.284552]}} 
{"id": "8242748770","server": "8490","farm": "9","userId": "24141292@N02","secret": "815cd837a8","title": "Undersea Battle of the 8 Immortals, Tigerbalm Gardens, Singapore","loc": {"type": "Point","coordinates": [103.78148,1.284552]}} 
{"id": "8241666005","server": "8490","farm": "9","userId": "24141292@N02","secret": "c78e7e6478","title": "Tiger Balm Gardens, Singapore","loc": {"type": "Point","coordinates": [103.78143,1.283554]}} 
{"id": "8993520696","server": "5331","farm": "6","userId": "60026216@N00","secret": "a6f330aeaf","title": "Handling the noodles.","loc": {"type": "Point","coordinates": [103.77951,1.283088]}} 
{"id": "8975482236","server": "2816","farm": "3","userId": "78686549@N00","secret": "d63c77f769","title": "All of us had the beef rib soup. Quite good!","loc": {"type": "Point","coordinates": [103.78083,1.283379]}} 
{"id": "8975413372","server": "5445","farm": "6","userId": "78686549@N00","secret": "1d55dc32b1","title": "Celebrating colleague's birthday at his favourite korean beef soup place.","loc": {"type": "Point","coordinates": [103.78083,1.283379]}} 
{"id": "8891516588","server": "2860","farm": "3","userId": "59911625@N03","secret": "fa8045fc02","title": "#igsg #igersasia #noedit #nofilter #fatmumslim #photoaday #fmsphotoaday #jj #iluvsg #beepss_photography #gf_india #daily_captures #ig_watchers #obw_myworld #igersmalaysia #igtube #photoshare_everything #mytravelgram #igerssingapore #love #tagsforlikes #ph","loc": {"type": "Point","coordinates": [103.78162,1.28402]}} 
{"id": "8889424884","server": "3804","farm": "4","userId": "59911625@N03","secret": "0c2c8d418d","title": "#igsg #igersasia #noedit #nofilter #fatmumslim #photoaday #fmsphotoaday #jj #iluvsg #beepss_photography #gf_india #daily_captures #ig_watchers #obw_myworld #igersmalaysia #igtube #photoshare_everything #mytravelgram #igerssingapore #love #tagsforlikes #ph","loc": {"type": "Point","coordinates": [103.78162,1.28402]}} 
{"id": "8879663286","server": "3741","farm": "4","userId": "59911625@N03","secret": "e1df9e18fd","title": "Haw Par Villa - Singapore #love #TagsForLikes #TFLers #tweegram #photooftheday #20likes #amazing #followme #follow4follow #like4like #look #instalike #igers #picoftheday #instadaily #instafollow #like #instagood #bestoftheday #instacool #instago #all_shot","loc": {"type": "Point","coordinates": [103.78162,1.28402]}} 
{"id": "8878621220","server": "2844","farm": "3","userId": "59911625@N03","secret": "370df810fe","title": "Haw Par Villa -Singapore","loc": {"type": "Point","coordinates": [103.78162,1.28402]}} 
{"id": "8868430516","server": "7301","farm": "8","userId": "59911625@N03","secret": "140e0b9090","title": "Haw Par Villa - Singapore","loc": {"type": "Point","coordinates": [103.78162,1.28402]}} 
{"id": "8867212575","server": "8394","farm": "9","userId": "59911625@N03","secret": "f811c12105","title": "Haw Par Villa - Singapore !!!","loc": {"type": "Point","coordinates": [103.78162,1.28402]}} 
{"id": "8866614726","server": "5333","farm": "6","userId": "59911625@N03","secret": "4b1cbd82ba","title": "Haw Par Villa -Singapore","loc": {"type": "Point","coordinates": [103.78162,1.28402]}} 
{"id": "8862901185","server": "2855","farm": "3","userId": "60026216@N00","secret": "5bb81dc008","title": "The remains of Vista office.","loc": {"type": "Point","coordinates": [103.77951,1.283088]}} 
{"id": "8861009295","server": "5334","farm": "6","userId": "59911625@N03","secret": "770b054526","title": "At Haw Par Villa - Singapore !!!","loc": {"type": "Point","coordinates": [103.78162,1.28402]}} 
{"id": "8858230695","server": "8277","farm": "9","userId": "59911625@N03","secret": "5efd520178","title": "At Haw Par Villa - Singapore","loc": {"type": "Point","coordinates": [103.78162,1.28402]}} 
{"id": "8854598149","server": "5456","farm": "6","userId": "59911625@N03","secret": "0c3c7c7cd7","title": "At Haw Par Villa -Singapore !!!","loc": {"type": "Point","coordinates": [103.78162,1.28402]}} 
{"id": "8853896089","server": "8560","farm": "9","userId": "59911625@N03","secret": "0a5fa04163","title": "At Haw Par Villa - Singapore !!!","loc": {"type": "Point","coordinates": [103.78162,1.28402]}} 
{"id": "8850842181","server": "7399","farm": "8","userId": "59911625@N03","secret": "e9ced9a594","title": "Haw Par Villa - Singapore","loc": {"type": "Point","coordinates": [103.78162,1.28402]}} 
{"id": "8772727489","server": "3747","farm": "4","userId": "94896001@N06","secret": "4020e122aa","title": "Chinese Dragon","loc": {"type": "Point","coordinates": [103.78179,1.283769]}} 
{"id": "8772399445","server": "7428","farm": "8","userId": "94896001@N06","secret": "286c94e63e","title": "Decapitated couple","loc": {"type": "Point","coordinates": [103.78225,1.283597]}} 
{"id": "8761600886","server": "5325","farm": "6","userId": "94896001@N06","secret": "8d42b08c70","title": "Pandas on Acid","loc": {"type": "Point","coordinates": [103.78174,1.283479]}} 
{"id": "8679141113","server": "8381","farm": "9","userId": "78686549@N00","secret": "0f1d32cf2d","title": "Pajun. Seafood and Green Onion Pancake.","loc": {"type": "Point","coordinates": [103.78083,1.283379]}} 
{"id": "8680231886","server": "8394","farm": "9","userId": "78686549@N00","secret": "49ab6ef8bb","title": "Because I saw someone had  luncheon meat this morning....","loc": {"type": "Point","coordinates": [103.78083,1.283379]}} 
{"id": "8651517598","server": "8104","farm": "9","userId": "46577167@N00","secret": "18b2d7da02","title": "IMG_7459","loc": {"type": "Point","coordinates": [103.78183,1.283499]}} 
{"id": "8650416887","server": "8248","farm": "9","userId": "46577167@N00","secret": "17e2314218","title": "IMG_7545","loc": {"type": "Point","coordinates": [103.7815,1.284666]}} 
{"id": "8650415315","server": "8100","farm": "9","userId": "46577167@N00","secret": "a1be340dce","title": "IMG_7533","loc": {"type": "Point","coordinates": [103.78183,1.283833]}} 
{"id": "8650418695","server": "8520","farm": "9","userId": "46577167@N00","secret": "cd3951182a","title": "IMG_7424","loc": {"type": "Point","coordinates": [103.781334,1.284333]}} 
{"id": "8651518006","server": "8383","farm": "9","userId": "46577167@N00","secret": "cf56b87568","title": "IMG_7469","loc": {"type": "Point","coordinates": [103.78183,1.283499]}} 
{"id": "8651513474","server": "8110","farm": "9","userId": "46577167@N00","secret": "c113db2df2","title": "IMG_7537","loc": {"type": "Point","coordinates": [103.7815,1.284833]}} 
{"id": "8651517306","server": "8541","farm": "9","userId": "46577167@N00","secret": "36728c25d9","title": "IMG_7456","loc": {"type": "Point","coordinates": [103.78183,1.283833]}} 
{"id": "8650419021","server": "8526","farm": "9","userId": "46577167@N00","secret": "2ee13645bb","title": "IMG_7440","loc": {"type": "Point","coordinates": [103.7815,1.284166]}} 
{"id": "8651514776","server": "8380","farm": "9","userId": "46577167@N00","secret": "fbf6b67cde","title": "Chicken domestic squabble","loc": {"type": "Point","coordinates": [103.782,1.285166]}} 
{"id": "8651516148","server": "8243","farm": "9","userId": "46577167@N00","secret": "dc97d974fe","title": "Haw Par Villa Gates","loc": {"type": "Point","coordinates": [103.781334,1.284166]}} 
{"id": "8650419231","server": "8529","farm": "9","userId": "46577167@N00","secret": "c65262370d","title": "IMG_7446","loc": {"type": "Point","coordinates": [103.7815,1.283999]}} 
{"id": "8558647597","server": "8237","farm": "9","userId": "25076731@N05","secret": "1c2c991805","title": "Haw Par VIlla tiger mascot with Tiger Balm products in their hand","loc": {"type": "Point","coordinates": [103.782265,1.283898]}} 
{"id": "8558651633","server": "8527","farm": "9","userId": "25076731@N05","secret": "54ccc67276","title": "Lin Zexu, the famous Qing Dynasty official during the First Opium War (1839 - 1842)","loc": {"type": "Point","coordinates": [103.78222,1.283898]}} 
{"id": "8558649873","server": "8252","farm": "9","userId": "25076731@N05","secret": "140ee0cdd3","title": "Memorial to Aw Boon Haw at Haw Par Villa","loc": {"type": "Point","coordinates": [103.78211,1.283576]}} 
{"id": "8558647051","server": "8381","farm": "9","userId": "25076731@N05","secret": "31b4494495","title": "Vintage 'Tiger Car' at Haw Par Villa","loc": {"type": "Point","coordinates": [103.782135,1.28379]}} 
{"id": "8559757164","server": "8528","farm": "9","userId": "25076731@N05","secret": "89e709b593","title": "Engraving of rocks at Haw Par Villa","loc": {"type": "Point","coordinates": [103.78222,1.283941]}} 
{"id": "8559760952","server": "8384","farm": "9","userId": "25076731@N05","secret": "dfe9c7e0ba","title": "The Haw Par Villa entrance, with the tiger logo","loc": {"type": "Point","coordinates": [103.782135,1.283833]}} 
{"id": "8559759934","server": "8101","farm": "9","userId": "25076731@N05","secret": "f251aab510","title": "Panda figures at Haw Par Villa","loc": {"type": "Point","coordinates": [103.78232,1.283983]}} 
{"id": "8558652217","server": "8390","farm": "9","userId": "25076731@N05","secret": "24f96357cb","title": "Chinese figures at Haw Par Vila","loc": {"type": "Point","coordinates": [103.78207,1.284026]}} 
{"id": "8558646105","server": "8109","farm": "9","userId": "25076731@N05","secret": "49b9859c36","title": "Ten Courts of Hell at Haw Par Villa","loc": {"type": "Point","coordinates": [103.78237,1.283554]}} 
{"id": "8558648207","server": "8518","farm": "9","userId": "25076731@N05","secret": "f4b5571b41","title": "Dragon designs on the walls of Haw Par VIlla","loc": {"type": "Point","coordinates": [103.781876,1.283855]}} 
{"id": "8558649363","server": "8369","farm": "9","userId": "25076731@N05","secret": "55db4059b6","title": "Memorial to the the parents of the Aw brothers","loc": {"type": "Point","coordinates": [103.78207,1.283276]}} 
{"id": "8558650935","server": "8390","farm": "9","userId": "25076731@N05","secret": "2b18c69a4b","title": "A pagoda-style building at Haw Par VIlla","loc": {"type": "Point","coordinates": [103.78203,1.283898]}} 
{"id": "8558647973","server": "8530","farm": "9","userId": "25076731@N05","secret": "3b7182bd61","title": "One of the pagodas at Haw Par VIlla","loc": {"type": "Point","coordinates": [103.78222,1.283705]}} 
{"id": "8559760794","server": "8231","farm": "9","userId": "25076731@N05","secret": "f27f8d6eab","title": "Statue near Haw Par Villa entrance","loc": {"type": "Point","coordinates": [103.78216,1.283554]}} 
{"id": "8558646767","server": "8390","farm": "9","userId": "25076731@N05","secret": "e5f951c8d2","title": "Wishing Well at Haw Par Villa","loc": {"type": "Point","coordinates": [103.782196,1.283855]}} 
{"id": "8559761286","server": "8388","farm": "9","userId": "25076731@N05","secret": "96f93802d1","title": "Near the entrance of Haw Par Villa","loc": {"type": "Point","coordinates": [103.78209,1.283898]}} 
{"id": "8559756622","server": "8244","farm": "9","userId": "25076731@N05","secret": "7b5294a668","title": "A quiet and rather uneventful day at Haw Par Villa","loc": {"type": "Point","coordinates": [103.782135,1.283898]}} 
{"id": "8558650427","server": "8230","farm": "9","userId": "25076731@N05","secret": "7d065216eb","title": "Chinese-style gates at Haw Par VIlla","loc": {"type": "Point","coordinates": [103.782135,1.283619]}} 
{"id": "8558645945","server": "8389","farm": "9","userId": "25076731@N05","secret": "9df0a484ce","title": "One of the pagodas at Haw Par Villa","loc": {"type": "Point","coordinates": [103.78224,1.283726]}} 
{"id": "8559755746","server": "8109","farm": "9","userId": "25076731@N05","secret": "6783665e36","title": "Goddess of Mercy statue at Haw Par Villa","loc": {"type": "Point","coordinates": [103.78222,1.283662]}} 
{"id": "8558648385","server": "8245","farm": "9","userId": "25076731@N05","secret": "05a70fbd2b","title": "One of the exhibits at Haw Par Villa","loc": {"type": "Point","coordinates": [103.7819,1.283919]}} 
{"id": "8558650259","server": "8105","farm": "9","userId": "25076731@N05","secret": "65f6bc7178","title": "The Laughing Buddha at Haw Par Villa","loc": {"type": "Point","coordinates": [103.78205,1.28379]}} 
{"id": "8558256029","server": "8106","farm": "9","userId": "44065876@N03","secret": "ef241db746","title": "Bubbling Mushroom","loc": {"type": "Point","coordinates": [103.78083,1.283499]}} 
{"id": "8537560821","server": "8246","farm": "9","userId": "90343499@N04","secret": "32e50c74d8","title": "Doesn't look very 'Boon Haw' to me!","loc": {"type": "Point","coordinates": [103.78157,1.283732]}} 
{"id": "8489866401","server": "8092","farm": "9","userId": "93005346@N02","secret": "af66cb4aea","title": "MPA_28","loc": {"type": "Point","coordinates": [103.779175,1.283243]}} 
{"id": "8490966484","server": "8107","farm": "9","userId": "93005346@N02","secret": "3d087a61f1","title": "Vessel Traffic Management","loc": {"type": "Point","coordinates": [103.779175,1.283243]}} 
{"id": "8490965756","server": "8519","farm": "9","userId": "93005346@N02","secret": "28509c8727","title": "Port Operations Control Centre (POCC) - Vista","loc": {"type": "Point","coordinates": [103.779175,1.283243]}} 
{"id": "8489866919","server": "8521","farm": "9","userId": "93005346@N02","secret": "20eefac22c","title": "MPA_24","loc": {"type": "Point","coordinates": [103.779175,1.283243]}} 
{"id": "8490966270","server": "8250","farm": "9","userId": "93005346@N02","secret": "4c75ec486b","title": "Vessel Traffic Management B","loc": {"type": "Point","coordinates": [103.779175,1.283243]}} 
{"id": "8490966144","server": "8239","farm": "9","userId": "93005346@N02","secret": "c34dfe675e","title": "Vessel Traffic Management C","loc": {"type": "Point","coordinates": [103.779175,1.283243]}} 
{"id": "8461337260","server": "8231","farm": "9","userId": "24773033@N02","secret": "aa59e8f459","title": "My cute nephew :)","loc": {"type": "Point","coordinates": [103.78106,1.284755]}} 
{"id": "8457923112","server": "8106","farm": "9","userId": "58623059@N06","secret": "8f510611a6","title": "judgement","loc": {"type": "Point","coordinates": [103.781845,1.283554]}} 
{"id": "8454947927","server": "8104","farm": "9","userId": "91171136@N03","secret": "a6541a6051","title": "Psycho Pandas","loc": {"type": "Point","coordinates": [103.782394,1.284917]}} 
{"id": "8419136354","server": "8186","farm": "9","userId": "58623059@N06","secret": "0621cb8f79","title": "is it time?","loc": {"type": "Point","coordinates": [103.781845,1.283554]}} 
{"id": "8382210903","server": "8184","farm": "9","userId": "8875882@N02","secret": "fb366339d1","title": "","loc": {"type": "Point","coordinates": [103.78157,1.283732]}} 
{"id": "8383293352","server": "8219","farm": "9","userId": "8875882@N02","secret": "e08149c05b","title": "","loc": {"type": "Point","coordinates": [103.78157,1.283732]}} 
{"id": "8383293532","server": "8045","farm": "9","userId": "8875882@N02","secret": "dd4ae68b9e","title": "","loc": {"type": "Point","coordinates": [103.78157,1.283732]}} 
{"id": "8383292576","server": "8351","farm": "9","userId": "8875882@N02","secret": "02dab18b6c","title": "","loc": {"type": "Point","coordinates": [103.78157,1.283732]}} 
{"id": "8382211333","server": "8370","farm": "9","userId": "8875882@N02","secret": "bbbe88d753","title": "","loc": {"type": "Point","coordinates": [103.78157,1.283732]}} 
{"id": "8383292978","server": "8091","farm": "9","userId": "8875882@N02","secret": "6ba6827fd2","title": "","loc": {"type": "Point","coordinates": [103.78157,1.283732]}} 
{"id": "8360758421","server": "8336","farm": "9","userId": "58623059@N06","secret": "7b74886cb2","title": "keep away?","loc": {"type": "Point","coordinates": [103.781654,1.283726]}} 
{"id": "8344037161","server": "8222","farm": "9","userId": "91501450@N04","secret": "ca2a14c172","title": "","loc": {"type": "Point","coordinates": [103.78183,1.283833]}} 
{"id": "8344031799","server": "8364","farm": "9","userId": "91501450@N04","secret": "fe703f963a","title": "","loc": {"type": "Point","coordinates": [103.7815,1.283999]}} 
{"id": "8345089116","server": "8494","farm": "9","userId": "91501450@N04","secret": "a36e0ed925","title": "","loc": {"type": "Point","coordinates": [103.7815,1.284666]}} 
{"id": "8310565129","server": "8364","farm": "9","userId": "91501450@N04","secret": "ee165618cf","title": "","loc": {"type": "Point","coordinates": [103.7815,1.284833]}} 
{"id": "8305646275","server": "8215","farm": "9","userId": "24773033@N02","secret": "52685e4161","title": "Jay-r trying his new cap ^_^","loc": {"type": "Point","coordinates": [103.78106,1.284755]}} 
{"id": "8290912183","server": "8077","farm": "9","userId": "8875882@N02","secret": "c73352d55a","title": "","loc": {"type": "Point","coordinates": [103.78157,1.283732]}} 
{"id": "8287798716","server": "8493","farm": "9","userId": "91223673@N06","secret": "53ff42c095","title": "Tiger","loc": {"type": "Point","coordinates": [103.78182,1.283276]}} 
{"id": "8287800618","server": "8067","farm": "9","userId": "91223673@N06","secret": "1f00104654","title": "I See You","loc": {"type": "Point","coordinates": [103.78236,1.283404]}} 
{"id": "8287799788","server": "8355","farm": "9","userId": "91223673@N06","secret": "005ca35c97","title": "Buddha","loc": {"type": "Point","coordinates": [103.78201,1.283597]}} 
{"id": "8283955729","server": "8478","farm": "9","userId": "8875882@N02","secret": "422bfbf5f3","title": "","loc": {"type": "Point","coordinates": [103.78157,1.283732]}} 
{"id": "8283961061","server": "8078","farm": "9","userId": "8875882@N02","secret": "cfed5b4da7","title": "","loc": {"type": "Point","coordinates": [103.78157,1.283732]}} 
{"id": "8285001906","server": "8203","farm": "9","userId": "8875882@N02","secret": "81c2f3b39d","title": "","loc": {"type": "Point","coordinates": [103.78157,1.283732]}} 
{"id": "8284991870","server": "8210","farm": "9","userId": "8875882@N02","secret": "a61c873f86","title": "","loc": {"type": "Point","coordinates": [103.78157,1.283732]}} 
{"id": "8283946817","server": "8486","farm": "9","userId": "8875882@N02","secret": "f15a8224af","title": "","loc": {"type": "Point","coordinates": [103.78157,1.283732]}} 
{"id": "8284986600","server": "8343","farm": "9","userId": "8875882@N02","secret": "2958cda9a5","title": "childhood time grandma applied a lot tiger balm whenever we get bitten by mosquito ~","loc": {"type": "Point","coordinates": [103.78157,1.283732]}} 
{"id": "8283936795","server": "8083","farm": "9","userId": "8875882@N02","secret": "a0ed874ef9","title": "","loc": {"type": "Point","coordinates": [103.78157,1.283732]}} 
{"id": "8283900549","server": "8343","farm": "9","userId": "8875882@N02","secret": "c88281e827","title": "","loc": {"type": "Point","coordinates": [103.78157,1.283732]}} 
{"id": "8284949720","server": "8501","farm": "9","userId": "8875882@N02","secret": "ee4e3a2770","title": "Haw Par Villa ( 虎豹别墅 )","loc": {"type": "Point","coordinates": [103.78157,1.283732]}} 
{"id": "8271586457","server": "8204","farm": "9","userId": "24141292@N02","secret": "4fdb0709ff","title": "Buddha","loc": {"type": "Point","coordinates": [103.78188,1.28408]}} 
{"id": "8269720205","server": "8352","farm": "9","userId": "24141292@N02","secret": "aa91337235","title": "Hell's Gloomy Cavern","loc": {"type": "Point","coordinates": [103.78238,1.282954]}} 
{"id": "8269720829","server": "8209","farm": "9","userId": "24141292@N02","secret": "800174c884","title": "Denizens of Hell","loc": {"type": "Point","coordinates": [103.78238,1.282954]}} 
{"id": "8270786106","server": "8222","farm": "9","userId": "24141292@N02","secret": "77a4d9749f","title": "Court of Hell","loc": {"type": "Point","coordinates": [103.78238,1.282954]}} 
{"id": "8270787392","server": "8076","farm": "9","userId": "24141292@N02","secret": "093289a40a","title": "Evil Equine","loc": {"type": "Point","coordinates": [103.78238,1.282954]}} 
{"id": "8270786800","server": "8499","farm": "9","userId": "24141292@N02","secret": "c0b77d1018","title": "Caverns of Hell","loc": {"type": "Point","coordinates": [103.78238,1.282954]}} 
{"id": "8268492373","server": "8487","farm": "9","userId": "24141292@N02","secret": "95884e0771","title": "Hell's Guardians","loc": {"type": "Point","coordinates": [103.78238,1.282954]}} 
{"id": "8268492177","server": "8497","farm": "9","userId": "24141292@N02","secret": "8cab98550a","title": "Horse of Hell","loc": {"type": "Point","coordinates": [103.78238,1.282954]}} 
{"id": "8265737657","server": "8200","farm": "9","userId": "24141292@N02","secret": "48bcfc1210","title": "'Ox-Head', Guardian of Hell","loc": {"type": "Point","coordinates": [103.78238,1.282954]}} 
{"id": "8266806700","server": "8071","farm": "9","userId": "24141292@N02","secret": "1b3c0868ce","title": "'Horse-Face', Guardian of Hell","loc": {"type": "Point","coordinates": [103.78238,1.282954]}} 
{"id": "8265735145","server": "8066","farm": "9","userId": "24141292@N02","secret": "33fb9d785f","title": "Horse Demon","loc": {"type": "Point","coordinates": [103.78238,1.282954]}} 
{"id": "8265169926","server": "8499","farm": "9","userId": "24141292@N02","secret": "f98492ffe8","title": "Colourful Warriors","loc": {"type": "Point","coordinates": [103.78188,1.28408]}} 
{"id": "8264106703","server": "8224","farm": "9","userId": "24141292@N02","secret": "d18552ff49","title": "Colourful Ladies","loc": {"type": "Point","coordinates": [103.78188,1.28408]}} 
{"id": "8265168668","server": "8076","farm": "9","userId": "24141292@N02","secret": "f16ee26020","title": "Frog","loc": {"type": "Point","coordinates": [103.78188,1.28408]}} 
{"id": "8265188936","server": "8497","farm": "9","userId": "24141292@N02","secret": "dace738cf0","title": "Tigermobile","loc": {"type": "Point","coordinates": [103.78205,1.283619]}} 
{"id": "8262347362","server": "8073","farm": "9","userId": "24141292@N02","secret": "ddac5f9f78","title": "That's what I Thought!","loc": {"type": "Point","coordinates": [103.78208,1.284455]}} 
{"id": "8262347014","server": "8348","farm": "9","userId": "24141292@N02","secret": "1a083f0aae","title": "Memorial Obelisk","loc": {"type": "Point","coordinates": [103.78208,1.284455]}} 
{"id": "8261281453","server": "8060","farm": "9","userId": "24141292@N02","secret": "6bd92ca515","title": "Aaarrrgh!!!!!","loc": {"type": "Point","coordinates": [103.78208,1.284455]}} 
{"id": "8261279081","server": "8503","farm": "9","userId": "24141292@N02","secret": "c8aef9bb39","title": "That's just Plain Wrong!","loc": {"type": "Point","coordinates": [103.78208,1.284455]}} 
{"id": "8256260175","server": "8204","farm": "9","userId": "24141292@N02","secret": "f6feaaf60b","title": "Tortoise Waitering Service","loc": {"type": "Point","coordinates": [103.78208,1.284455]}} 
{"id": "8257330616","server": "8198","farm": "9","userId": "24141292@N02","secret": "e5b49520ca","title": "Stag-Man fancies a Cup of Tea","loc": {"type": "Point","coordinates": [103.78208,1.284455]}} 
{"id": "8257330054","server": "8347","farm": "9","userId": "24141292@N02","secret": "aca71516dd","title": "Cold-Call Salesmen are Rats!","loc": {"type": "Point","coordinates": [103.78208,1.284455]}} 
{"id": "8250028929","server": "8062","farm": "9","userId": "24141292@N02","secret": "c5d01a6a4c","title": "The Amazing Crab-Lady","loc": {"type": "Point","coordinates": [103.782104,1.284874]}} 
{"id": "8251110264","server": "8481","farm": "9","userId": "24141292@N02","secret": "cd5c9cf4fe","title": "Crab-Woman!","loc": {"type": "Point","coordinates": [103.782104,1.284874]}} 
{"id": "8241664967","server": "8478","farm": "9","userId": "24141292@N02","secret": "bf7ab25643","title": "Entrance Gate, Tiger Balm Gardens, Singapore","loc": {"type": "Point","coordinates": [103.78143,1.283554]}} 
{"id": "8242737978","server": "8342","farm": "9","userId": "24141292@N02","secret": "53fc56b9b4","title": "Haw Par Villa, Singapore","loc": {"type": "Point","coordinates": [103.78143,1.283554]}} 
{"id": "8237868502","server": "8339","farm": "9","userId": "30634959@N00","secret": "48031417af","title": "","loc": {"type": "Point","coordinates": [103.781525,1.284658]}} 
{"id": "8236798805","server": "8490","farm": "9","userId": "30634959@N00","secret": "c4c33c2dc5","title": "","loc": {"type": "Point","coordinates": [103.78158,1.284919]}} 
{"id": "8127525816","server": "8187","farm": "9","userId": "74531255@N03","secret": "ee459083a6","title": "image","loc": {"type": "Point","coordinates": [103.7819,1.283726]}} 
{"id": "8127180735","server": "8463","farm": "9","userId": "74531255@N03","secret": "cb4560f0c0","title": "image","loc": {"type": "Point","coordinates": [103.7819,1.283726]}} 
{"id": "8124746925","server": "8330","farm": "9","userId": "74531255@N03","secret": "2faea673d7","title": "image","loc": {"type": "Point","coordinates": [103.7819,1.283726]}} 
{"id": "8124475432","server": "8465","farm": "9","userId": "74531255@N03","secret": "49148881c5","title": "image","loc": {"type": "Point","coordinates": [103.7819,1.283726]}} 
{"id": "8119607991","server": "8183","farm": "9","userId": "74531255@N03","secret": "e4a1cfef01","title": "image","loc": {"type": "Point","coordinates": [103.7819,1.283726]}} 
