{"id": "9283946379","server": "5529","farm": "6","userId": "94595774@N08","secret": "91548b36e0","title": "","loc": {"type": "Point","coordinates": [103.79265,1.331521]}} 
{"id": "9283950641","server": "3668","farm": "4","userId": "94595774@N08","secret": "d410cee738","title": "","loc": {"type": "Point","coordinates": [103.79265,1.331521]}} 
{"id": "9283938663","server": "2831","farm": "3","userId": "94595774@N08","secret": "9e4c698323","title": "","loc": {"type": "Point","coordinates": [103.79265,1.331522]}} 
{"id": "9286720696","server": "7339","farm": "8","userId": "94595774@N08","secret": "c85db9d231","title": "","loc": {"type": "Point","coordinates": [103.79265,1.331521]}} 
{"id": "9283948613","server": "3761","farm": "4","userId": "94595774@N08","secret": "5680017294","title": "","loc": {"type": "Point","coordinates": [103.79265,1.331521]}} 
{"id": "9283940333","server": "5499","farm": "6","userId": "94595774@N08","secret": "d7dc56a59a","title": "","loc": {"type": "Point","coordinates": [103.79265,1.331521]}} 
{"id": "9286718828","server": "7306","farm": "8","userId": "94595774@N08","secret": "fd521681a5","title": "","loc": {"type": "Point","coordinates": [103.79265,1.331521]}} 
{"id": "9283925023","server": "5331","farm": "6","userId": "94595774@N08","secret": "92562e8c1a","title": "","loc": {"type": "Point","coordinates": [103.79265,1.331522]}} 
{"id": "9286682346","server": "7291","farm": "8","userId": "94595774@N08","secret": "3bfa2147b3","title": "","loc": {"type": "Point","coordinates": [103.79265,1.331522]}} 
{"id": "9286707772","server": "3758","farm": "4","userId": "94595774@N08","secret": "48b6b485c4","title": "","loc": {"type": "Point","coordinates": [103.79265,1.331522]}} 
{"id": "9286697932","server": "2865","farm": "3","userId": "94595774@N08","secret": "90657a5ef8","title": "","loc": {"type": "Point","coordinates": [103.79265,1.331522]}} 
{"id": "9286705658","server": "5486","farm": "6","userId": "94595774@N08","secret": "ee31323d3f","title": "","loc": {"type": "Point","coordinates": [103.79265,1.331522]}} 
{"id": "9283916957","server": "2825","farm": "3","userId": "94595774@N08","secret": "936db802c7","title": "","loc": {"type": "Point","coordinates": [103.79265,1.331522]}} 
{"id": "9283918907","server": "5476","farm": "6","userId": "94595774@N08","secret": "346b94df9d","title": "","loc": {"type": "Point","coordinates": [103.79265,1.331522]}} 
{"id": "9283915165","server": "3767","farm": "4","userId": "94595774@N08","secret": "d72d55d894","title": "","loc": {"type": "Point","coordinates": [103.79265,1.331522]}} 
{"id": "9286709448","server": "7318","farm": "8","userId": "94595774@N08","secret": "d66f741b1c","title": "","loc": {"type": "Point","coordinates": [103.79265,1.331522]}} 
{"id": "9283910779","server": "5456","farm": "6","userId": "94595774@N08","secret": "d538188a0b","title": "","loc": {"type": "Point","coordinates": [103.79265,1.331522]}} 
{"id": "9283922911","server": "2807","farm": "3","userId": "94595774@N08","secret": "455903b7c5","title": "","loc": {"type": "Point","coordinates": [103.79265,1.331522]}} 
{"id": "9286689386","server": "7438","farm": "8","userId": "94595774@N08","secret": "b092717fa8","title": "","loc": {"type": "Point","coordinates": [103.79265,1.331522]}} 
{"id": "9283936429","server": "7299","farm": "8","userId": "94595774@N08","secret": "7c7f957eab","title": "","loc": {"type": "Point","coordinates": [103.79265,1.331522]}} 
{"id": "9286684156","server": "3683","farm": "4","userId": "94595774@N08","secret": "d1b0fdd2d0","title": "","loc": {"type": "Point","coordinates": [103.79265,1.331522]}} 
{"id": "9286703902","server": "3709","farm": "4","userId": "94595774@N08","secret": "53a56d9826","title": "","loc": {"type": "Point","coordinates": [103.79265,1.331522]}} 
{"id": "9286685986","server": "7292","farm": "8","userId": "94595774@N08","secret": "b8258c590d","title": "","loc": {"type": "Point","coordinates": [103.79265,1.331522]}} 
{"id": "9286711412","server": "3748","farm": "4","userId": "94595774@N08","secret": "287ef7cdcb","title": "","loc": {"type": "Point","coordinates": [103.79265,1.331522]}} 
{"id": "9283765095","server": "3706","farm": "4","userId": "94595774@N08","secret": "39779945a3","title": "","loc": {"type": "Point","coordinates": [103.79265,1.331521]}} 
{"id": "9286554504","server": "7286","farm": "8","userId": "94595774@N08","secret": "42a362e618","title": "","loc": {"type": "Point","coordinates": [103.79265,1.331522]}} 
{"id": "9283770325","server": "3694","farm": "4","userId": "94595774@N08","secret": "6dfca765cc","title": "","loc": {"type": "Point","coordinates": [103.79265,1.331521]}} 
{"id": "9283716553","server": "7364","farm": "8","userId": "94595774@N08","secret": "a81d000942","title": "","loc": {"type": "Point","coordinates": [103.79265,1.331521]}} 
{"id": "9286536912","server": "2829","farm": "3","userId": "94595774@N08","secret": "b9f6a8cc50","title": "","loc": {"type": "Point","coordinates": [103.79265,1.331521]}} 
{"id": "9286503734","server": "2823","farm": "3","userId": "94595774@N08","secret": "e1631d6f59","title": "","loc": {"type": "Point","coordinates": [103.79265,1.331521]}} 
{"id": "9283768327","server": "3668","farm": "4","userId": "94595774@N08","secret": "1c53c1a09f","title": "","loc": {"type": "Point","coordinates": [103.79265,1.331521]}} 
{"id": "9286496954","server": "3724","farm": "4","userId": "94595774@N08","secret": "b46f2e3932","title": "","loc": {"type": "Point","coordinates": [103.79265,1.331521]}} 
{"id": "9286509356","server": "7361","farm": "8","userId": "94595774@N08","secret": "1d25c50f9d","title": "","loc": {"type": "Point","coordinates": [103.79265,1.331521]}} 
{"id": "9286501608","server": "2878","farm": "3","userId": "94595774@N08","secret": "fe4be98c2d","title": "","loc": {"type": "Point","coordinates": [103.79265,1.331521]}} 
{"id": "9283732787","server": "3718","farm": "4","userId": "94595774@N08","secret": "0b8547493e","title": "","loc": {"type": "Point","coordinates": [103.79265,1.331521]}} 
{"id": "9283737321","server": "5481","farm": "6","userId": "94595774@N08","secret": "2c47fbebd3","title": "","loc": {"type": "Point","coordinates": [103.79265,1.331521]}} 
{"id": "9283720265","server": "3816","farm": "4","userId": "94595774@N08","secret": "9f8686a539","title": "","loc": {"type": "Point","coordinates": [103.79265,1.331521]}} 
{"id": "9286507580","server": "2841","farm": "3","userId": "94595774@N08","secret": "a149118827","title": "","loc": {"type": "Point","coordinates": [103.79265,1.331521]}} 
{"id": "9286541320","server": "7451","farm": "8","userId": "94595774@N08","secret": "f3c7626b84","title": "","loc": {"type": "Point","coordinates": [103.79265,1.331521]}} 
{"id": "9286517818","server": "7341","farm": "8","userId": "94595774@N08","secret": "ff168562fd","title": "","loc": {"type": "Point","coordinates": [103.79265,1.331521]}} 
{"id": "9286545234","server": "5495","farm": "6","userId": "94595774@N08","secret": "63b70fb5ed","title": "","loc": {"type": "Point","coordinates": [103.79265,1.331521]}} 
{"id": "9286513698","server": "7293","farm": "8","userId": "94595774@N08","secret": "1a34d621a0","title": "","loc": {"type": "Point","coordinates": [103.79265,1.331521]}} 
{"id": "9283760327","server": "7391","farm": "8","userId": "94595774@N08","secret": "8d0f4a5515","title": "","loc": {"type": "Point","coordinates": [103.79265,1.331521]}} 
{"id": "9083082038","server": "5466","farm": "6","userId": "60645055@N07","secret": "44cd4f7cce","title": "Video streaming training @ inmarsat lab","loc": {"type": "Point","coordinates": [103.789764,1.333275]}} 
{"id": "8820550314","server": "2809","farm": "3","userId": "85522272@N06","secret": "1f446f9a99","title": "Toffee in the morning!","loc": {"type": "Point","coordinates": [103.790504,1.3318]}} 
{"id": "8820567432","server": "8130","farm": "9","userId": "85522272@N06","secret": "2026f3692f","title": "In the bananas go!","loc": {"type": "Point","coordinates": [103.790504,1.3318]}} 
{"id": "8774201305","server": "7372","farm": "8","userId": "85522272@N06","secret": "f66f7b17b5","title": "Piper","loc": {"type": "Point","coordinates": [103.790665,1.333]}} 
{"id": "8677115269","server": "8256","farm": "9","userId": "92593934@N04","secret": "454da3d51f","title": "Chili Crab Pizza","loc": {"type": "Point","coordinates": [103.79132,1.332701]}} 
{"id": "8678063684","server": "8256","farm": "9","userId": "92593934@N04","secret": "cfb14d4b09","title": "Have a party? Let Violet Oon take care of it with her fabulous canapés.","loc": {"type": "Point","coordinates": [103.79132,1.332701]}} 
{"id": "8678049242","server": "8392","farm": "9","userId": "92593934@N04","secret": "43de1def2d","title": "Delightful mango, strawberry & mint soda! #sgfood","loc": {"type": "Point","coordinates": [103.79132,1.332701]}} 
{"id": "8678008688","server": "8114","farm": "9","userId": "92593934@N04","secret": "c8e06fe0be","title": "Above You Vol. 92","loc": {"type": "Point","coordinates": [103.79132,1.332701]}} 
{"id": "8667893993","server": "8379","farm": "9","userId": "14385475@N05","secret": "0ddd3ced1f","title": "IMG_4997","loc": {"type": "Point","coordinates": [103.79266,1.3305]}} 
{"id": "8584709303","server": "8246","farm": "9","userId": "78686549@N00","secret": "fce2ea0f92","title": "Assam Fish Head. Slurp!","loc": {"type": "Point","coordinates": [103.791016,1.332978]}} 
{"id": "8585547532","server": "8101","farm": "9","userId": "7310714@N06","secret": "da8f2de5f3","title": "","loc": {"type": "Point","coordinates": [103.78933,1.333166]}} 
{"id": "8585550450","server": "8088","farm": "9","userId": "7310714@N06","secret": "7b22ba739e","title": "","loc": {"type": "Point","coordinates": [103.791336,1.331166]}} 
{"id": "8584448919","server": "8386","farm": "9","userId": "7310714@N06","secret": "aaee720a2d","title": "","loc": {"type": "Point","coordinates": [103.791336,1.331166]}} 
{"id": "8585551040","server": "8390","farm": "9","userId": "7310714@N06","secret": "3ac18da9e9","title": "","loc": {"type": "Point","coordinates": [103.791336,1.331166]}} 
{"id": "8585551738","server": "8097","farm": "9","userId": "7310714@N06","secret": "3444851fc5","title": "","loc": {"type": "Point","coordinates": [103.7915,1.3295]}} 
{"id": "8585552992","server": "8386","farm": "9","userId": "7310714@N06","secret": "c59f2737c0","title": "","loc": {"type": "Point","coordinates": [103.7925,1.330166]}} 
{"id": "8582504654","server": "8100","farm": "9","userId": "10451744@N06","secret": "d6fb0773f8","title": "Coffee time!","loc": {"type": "Point","coordinates": [103.79265,1.331521]}} 
{"id": "8564391378","server": "8391","farm": "9","userId": "48889054224@N01","secret": "95546e07cc","title": "Sunday just got lazier","loc": {"type": "Point","coordinates": [103.79132,1.332701]}} 
{"id": "8480256751","server": "8520","farm": "9","userId": "92593934@N04","secret": "198fa74e82","title": "One of the best Ngor Hiongs I've had! Tips from Violet herself soon on Six&Seven. #VioletOon","loc": {"type": "Point","coordinates": [103.79132,1.332701]}} 
{"id": "8478644974","server": "8102","farm": "9","userId": "27578890@N07","secret": "d862d30ed2","title": "Spider.","loc": {"type": "Point","coordinates": [103.78283,1.332333]}} 
{"id": "8477558429","server": "8241","farm": "9","userId": "27578890@N07","secret": "6dcf1dbf25","title": "Iridescent fly.","loc": {"type": "Point","coordinates": [103.7825,1.332666]}} 
{"id": "8477559353","server": "8092","farm": "9","userId": "27578890@N07","secret": "5d1beddda7","title": "Translucent Spider.","loc": {"type": "Point","coordinates": [103.783165,1.333166]}} 
{"id": "8478602018","server": "8104","farm": "9","userId": "27578890@N07","secret": "da13a49619","title": "Dragonfly on ficus trunk.","loc": {"type": "Point","coordinates": [103.783165,1.333166]}} 
{"id": "8478250318","server": "8366","farm": "9","userId": "92593934@N04","secret": "cf5a4ceb3b","title": "Have a break.","loc": {"type": "Point","coordinates": [103.79132,1.332701]}} 
{"id": "8404546585","server": "8225","farm": "9","userId": "86380881@N08","secret": "b71f07b177","title": "a8","loc": {"type": "Point","coordinates": [103.78616,1.332833]}} 
{"id": "8405639200","server": "8050","farm": "9","userId": "86380881@N08","secret": "baa56ca86c","title": "a7","loc": {"type": "Point","coordinates": [103.786,1.332666]}} 
{"id": "8404540551","server": "8077","farm": "9","userId": "86380881@N08","secret": "4c5fd80eb8","title": "a1","loc": {"type": "Point","coordinates": [103.7865,1.332833]}} 
{"id": "8383487502","server": "8230","farm": "9","userId": "27578890@N07","secret": "02d0be3b51","title": "Skipper butterfly taken with iPhone 4S","loc": {"type": "Point","coordinates": [103.783165,1.332]}} 
{"id": "8287196674","server": "8076","farm": "9","userId": "91235570@N04","secret": "10cb216b3a","title": "","loc": {"type": "Point","coordinates": [103.792,1.333166]}} 
{"id": "8257697072","server": "8337","farm": "9","userId": "23436061@N00","secret": "0d986d6b25","title": "<コ:彡 #squid #mediterranean #greek #foodporn #nofilter #sizzle #fresh","loc": {"type": "Point","coordinates": [103.79057,1.333176]}} 
{"id": "8198501316","server": "8062","farm": "9","userId": "82016883@N04","secret": "5f7fdc9e7b","title": "","loc": {"type": "Point","coordinates": [103.791,1.327167]}} 
{"id": "8197405905","server": "8482","farm": "9","userId": "82016883@N04","secret": "3b6c9e9df2","title": "","loc": {"type": "Point","coordinates": [103.79083,1.327167]}} 
{"id": "8198499122","server": "8207","farm": "9","userId": "82016883@N04","secret": "2e60a03b95","title": "","loc": {"type": "Point","coordinates": [103.791,1.327167]}} 
{"id": "8153427029","server": "7112","farm": "8","userId": "36618918@N07","secret": "a1d5a1fa2a","title": "Dinner malam ni yang dibeli tengah hari tadi. Stok yang terakhir dan petang ini juga hujan turun.","loc": {"type": "Point","coordinates": [103.790375,1.333173]}} 
{"id": "8152122511","server": "8200","farm": "9","userId": "36618918@N07","secret": "2868f9bea4","title": "Selamat pagi!","loc": {"type": "Point","coordinates": [103.78732,1.332143]}} 
{"id": "8150527348","server": "8323","farm": "9","userId": "36618918@N07","secret": "6a23a1dbbd","title": "Patut la download asyik laju je. Hewhewhew...","loc": {"type": "Point","coordinates": [103.78732,1.332143]}} 
{"id": "8130584938","server": "8326","farm": "9","userId": "61670399@N07","secret": "d910fc84bd","title": "The deserts rock!","loc": {"type": "Point","coordinates": [103.79132,1.332701]}} 
{"id": "8130525130","server": "8475","farm": "9","userId": "61670399@N07","secret": "41f96e9f37","title": "Lovely Perenakan Grub! Slurp.","loc": {"type": "Point","coordinates": [103.79132,1.332701]}} 
{"id": "8130086619","server": "8050","farm": "9","userId": "36618918@N07","secret": "64f2a1b8c8","title": "Aktiviti petang Ahad, membaca buku yang ditulis oleh seorang rakan.","loc": {"type": "Point","coordinates": [103.78732,1.332143]}} 
{"id": "8127241250","server": "8466","farm": "9","userId": "10451744@N06","secret": "8fb9ebb654","title": "Sparkles time!","loc": {"type": "Point","coordinates": [103.78717,1.333167]}} 
{"id": "8084444291","server": "8054","farm": "9","userId": "36618918@N07","secret": "6268239b3d","title": "Sarapan pagi. Nak cari Ajihs Nasi Lemak kat sini memang tak jumpa la...","loc": {"type": "Point","coordinates": [103.78732,1.332143]}} 
{"id": "8079730127","server": "8191","farm": "9","userId": "36618918@N07","secret": "8f33c3ae69","title": "Ubat yang bos bagi","loc": {"type": "Point","coordinates": [103.78808,1.332208]}} 
{"id": "8061983276","server": "8169","farm": "9","userId": "36618918@N07","secret": "bb68d81805","title": "Santai waktu petang","loc": {"type": "Point","coordinates": [103.78732,1.332143]}} 
{"id": "8061907439","server": "8454","farm": "9","userId": "36618918@N07","secret": "2e1b2f8921","title": "Ayuh kita isi waktu petang ini dengan aktiviti yang berfaedah","loc": {"type": "Point","coordinates": [103.78732,1.332143]}} 
{"id": "8034148019","server": "8169","farm": "9","userId": "36618918@N07","secret": "a45dd7b3a3","title": "Hari ini hari Sabtu!","loc": {"type": "Point","coordinates": [103.78808,1.332208]}} 
