{"id": "8994611519","server": "8263","farm": "9","userId": "62158995@N08","secret": "1159570367","title": "afternoon jog","loc": {"type": "Point","coordinates": [103.84625,1.362219]}} 
{"id": "8874812597","server": "5461","farm": "6","userId": "43225758@N03","secret": "b048d8e111","title": "Bishan Park | IMG_4226","loc": {"type": "Point","coordinates": [103.838165,1.364]}} 
{"id": "8753592525","server": "3729","farm": "4","userId": "36993742@N00","secret": "747cd0a43e","title": "ONA Brixton","loc": {"type": "Point","coordinates": [103.845474,1.362776]}} 
{"id": "8754443006","server": "5454","farm": "6","userId": "36993742@N00","secret": "80db777935","title": "Nikon FM2","loc": {"type": "Point","coordinates": [103.845474,1.362776]}} 
{"id": "8753362763","server": "5325","farm": "6","userId": "36993742@N00","secret": "e6d7a7f7f7","title": "Nikon FM2","loc": {"type": "Point","coordinates": [103.845474,1.362776]}} 
{"id": "8735347482","server": "7298","farm": "8","userId": "74006149@N07","secret": "110e3b29ab","title": "Prayers..... #street #igsg #singapore #temples","loc": {"type": "Point","coordinates": [103.83797,1.361896]}} 
{"id": "8730302677","server": "7393","farm": "8","userId": "21438119@N07","secret": "58b7d89f20","title": "Singapore Cows 2","loc": {"type": "Point","coordinates": [103.84216,1.364]}} 
{"id": "8730288561","server": "7311","farm": "8","userId": "21438119@N07","secret": "ae33894306","title": "Singapore Cows","loc": {"type": "Point","coordinates": [103.84146,1.364021]}} 
{"id": "8728095240","server": "7432","farm": "8","userId": "90402353@N06","secret": "80b675aa5b","title": "IMG_4501","loc": {"type": "Point","coordinates": [103.84354,1.364932]}} 
{"id": "8728091404","server": "7451","farm": "8","userId": "90402353@N06","secret": "af99831d71","title": "Teck Ghee Vista","loc": {"type": "Point","coordinates": [103.84354,1.364932]}} 
{"id": "8726984339","server": "7401","farm": "8","userId": "90402353@N06","secret": "d0d04817bc","title": "IMG_4500","loc": {"type": "Point","coordinates": [103.84354,1.364932]}} 
{"id": "8709702610","server": "8261","farm": "9","userId": "23436061@N00","secret": "d2ed415177","title": "#Rain delay #golf #drivingrange #sunday #green #water #vanishingpoint","loc": {"type": "Point","coordinates": [103.83995,1.36228]}} 
{"id": "8701909520","server": "8558","farm": "9","userId": "23436061@N00","secret": "27766109a1","title": "Range time #golf #drivingrange #night #practice #green","loc": {"type": "Point","coordinates": [103.83995,1.36228]}} 
{"id": "8604783130","server": "8388","farm": "9","userId": "8583503@N07","secret": "91a11dfac9","title": "Ancestral Day Part 2","loc": {"type": "Point","coordinates": [103.83797,1.361896]}} 
{"id": "8439838323","server": "8230","farm": "9","userId": "29049566@N07","secret": "c046d928d8","title": "Dinner Time!","loc": {"type": "Point","coordinates": [103.84776,1.363745]}} 
{"id": "9381646141","server": "3760","farm": "4","userId": "74980912@N08","secret": "cc5bdec59e","title": "Bishan Park at dusk, nice !","loc": {"type": "Point","coordinates": [103.844444,1.363077]}} 
{"id": "9324980165","server": "7349","farm": "8","userId": "67851013@N02","secret": "7af87ec759","title": "#Park-ing time 20/07/13.","loc": {"type": "Point","coordinates": [103.84625,1.362219]}} 
{"id": "9327497426","server": "3751","farm": "4","userId": "67851013@N02","secret": "e43bf0d899","title": "#Shaolin #soccer 29/07/13.","loc": {"type": "Point","coordinates": [103.84625,1.362219]}} 
{"id": "9315881763","server": "3731","farm": "4","userId": "30908892@N08","secret": "fd068fb779","title": "IMG_4941","loc": {"type": "Point","coordinates": [103.83783,1.364166]}} 
{"id": "9286770083","server": "2879","farm": "3","userId": "30908892@N08","secret": "cea5607d15","title": "IMG_3395","loc": {"type": "Point","coordinates": [103.84417,1.363166]}} 
{"id": "9194896079","server": "2812","farm": "3","userId": "60706658@N06","secret": "9862908ef5","title": "","loc": {"type": "Point","coordinates": [103.84233,1.366833]}} 
{"id": "9163627376","server": "3788","farm": "4","userId": "60706658@N06","secret": "252b3744e4","title": "","loc": {"type": "Point","coordinates": [103.84233,1.3665]}} 
{"id": "9061881943","server": "5540","farm": "6","userId": "50872446@N05","secret": "4012096bd6","title": "sunset","loc": {"type": "Point","coordinates": [103.84625,1.362219]}} 
{"id": "9061901663","server": "3794","farm": "4","userId": "50872446@N05","secret": "9de9cd299e","title": "the bridge","loc": {"type": "Point","coordinates": [103.84625,1.362219]}} 
{"id": "9061851091","server": "3739","farm": "4","userId": "60706658@N06","secret": "5a36c604e6","title": "","loc": {"type": "Point","coordinates": [103.84216,1.366833]}} 
{"id": "9038500444","server": "7281","farm": "8","userId": "60706658@N06","secret": "7d73f4520e","title": "Rolex oyster explorer","loc": {"type": "Point","coordinates": [103.84216,1.366666]}} 
{"id": "9011859865","server": "2854","farm": "3","userId": "60706658@N06","secret": "5ce1c60d90","title": "","loc": {"type": "Point","coordinates": [103.84216,1.3665]}} 
{"id": "8992641400","server": "5462","farm": "6","userId": "60706658@N06","secret": "8a2cd2eddd","title": "Siena new launch","loc": {"type": "Point","coordinates": [103.84216,1.366666]}} 
{"id": "8965164750","server": "5443","farm": "6","userId": "96364464@N05","secret": "c4c9c79c81","title": "My usual hairstyles is coming back!","loc": {"type": "Point","coordinates": [103.846725,1.367824]}} 
{"id": "8919883935","server": "2836","farm": "3","userId": "23436061@N00","secret": "2d91187233","title": "Showed up an hour early for golf lessons. Might as well have a #beer and watch people catch #prawns. #tiger #shrimping #sunday #singapore #beergarden","loc": {"type": "Point","coordinates": [103.84111,1.3615]}} 
{"id": "8919486415","server": "3766","farm": "4","userId": "44065876@N03","secret": "4f681b59ea","title": "Pig Trotters","loc": {"type": "Point","coordinates": [103.848,1.363666]}} 
{"id": "8920089696","server": "3832","farm": "4","userId": "44065876@N03","secret": "e87d989c8c","title": "Brunch : Bak Kut Teh","loc": {"type": "Point","coordinates": [103.848,1.363833]}} 
{"id": "8911878471","server": "5339","farm": "6","userId": "35468141938@N01","secret": "cf388b35c7","title": "RI ODAC girls tying up each other's hair before the 60km overnight ride. Looks like a hundred bikes prepped and ready to roll!","loc": {"type": "Point","coordinates": [103.84726,1.362307]}} 
{"id": "8908094403","server": "8545","farm": "9","userId": "60706658@N06","secret": "2588673c55","title": "Affiniti residences","loc": {"type": "Point","coordinates": [103.84216,1.3665]}} 
{"id": "8907865499","server": "3681","farm": "4","userId": "60706658@N06","secret": "2d8a5ab29a","title": "Violet arrowana","loc": {"type": "Point","coordinates": [103.84216,1.366666]}} 
{"id": "8875426478","server": "8273","farm": "9","userId": "43225758@N03","secret": "41e0039e46","title": "Bishan Park | IMG_4227","loc": {"type": "Point","coordinates": [103.838,1.363833]}} 
{"id": "8865350606","server": "5461","farm": "6","userId": "33156839@N00","secret": "90565d27f4","title": "Toast with cream cheese","loc": {"type": "Point","coordinates": [103.83867,1.367833]}} 
{"id": "8813646527","server": "5341","farm": "6","userId": "60706658@N06","secret": "cbab641eeb","title": "","loc": {"type": "Point","coordinates": [103.84333,1.363833]}} 
{"id": "8753565371","server": "5334","farm": "6","userId": "36993742@N00","secret": "2655621cde","title": "ONA Brixton","loc": {"type": "Point","coordinates": [103.845474,1.362776]}} 
{"id": "8753579533","server": "3752","farm": "4","userId": "36993742@N00","secret": "ce73c3d1f3","title": "ONA Brixton","loc": {"type": "Point","coordinates": [103.845474,1.362776]}} 
{"id": "8753334115","server": "8128","farm": "9","userId": "36993742@N00","secret": "5b731eb630","title": "ONA Brixton","loc": {"type": "Point","coordinates": [103.845474,1.362776]}} 
{"id": "8754537468","server": "5342","farm": "6","userId": "36993742@N00","secret": "d44b53292a","title": "ONA Brixton","loc": {"type": "Point","coordinates": [103.845474,1.362776]}} 
{"id": "8753423605","server": "5349","farm": "6","userId": "36993742@N00","secret": "86110a713c","title": "ONA Brixton","loc": {"type": "Point","coordinates": [103.845474,1.362776]}} 
{"id": "8754471362","server": "3811","farm": "4","userId": "36993742@N00","secret": "5292f2a0ef","title": "ONA Brixton","loc": {"type": "Point","coordinates": [103.845474,1.362776]}} 
{"id": "8754599982","server": "5335","farm": "6","userId": "36993742@N00","secret": "756dd9ff40","title": "ONA Brixton","loc": {"type": "Point","coordinates": [103.845474,1.362776]}} 
{"id": "8753278997","server": "7426","farm": "8","userId": "36993742@N00","secret": "259beb9064","title": "Family","loc": {"type": "Point","coordinates": [103.845474,1.362776]}} 
{"id": "8753252461","server": "8139","farm": "9","userId": "36993742@N00","secret": "820453f805","title": "Nikon FM2","loc": {"type": "Point","coordinates": [103.845474,1.362776]}} 
{"id": "8753424423","server": "2828","farm": "3","userId": "36993742@N00","secret": "c5a564ac6c","title": "ONA Brixton","loc": {"type": "Point","coordinates": [103.845474,1.362776]}} 
{"id": "8754628440","server": "2893","farm": "3","userId": "36993742@N00","secret": "c69ab5bc69","title": "ONA Brixton","loc": {"type": "Point","coordinates": [103.845474,1.362776]}} 
{"id": "8754370686","server": "3764","farm": "4","userId": "36993742@N00","secret": "076dfbb819","title": "Nikon FM2","loc": {"type": "Point","coordinates": [103.845474,1.362776]}} 
{"id": "8753264837","server": "3684","farm": "4","userId": "36993742@N00","secret": "9d2f6fa71c","title": "Nikon FM2","loc": {"type": "Point","coordinates": [103.845474,1.362776]}} 
{"id": "8754444172","server": "5442","farm": "6","userId": "36993742@N00","secret": "82f47fb848","title": "ONA Brixton","loc": {"type": "Point","coordinates": [103.845474,1.362776]}} 
{"id": "8754655336","server": "3701","farm": "4","userId": "36993742@N00","secret": "afd1c7502e","title": "ONA Brixton","loc": {"type": "Point","coordinates": [103.845474,1.362776]}} 
{"id": "8754362882","server": "2872","farm": "3","userId": "36993742@N00","secret": "a4215111f8","title": "Nikon FM2","loc": {"type": "Point","coordinates": [103.845474,1.362776]}} 
{"id": "8753334215","server": "3722","farm": "4","userId": "36993742@N00","secret": "1d12d54d64","title": "ONA Brixton","loc": {"type": "Point","coordinates": [103.845474,1.362776]}} 
{"id": "8751712389","server": "7441","farm": "8","userId": "35468141938@N01","secret": "440848e92d","title": "RI ODAC Overnight Recce Ride","loc": {"type": "Point","coordinates": [103.8475,1.362666]}} 
{"id": "8749749909","server": "8409","farm": "9","userId": "47971089@N00","secret": "443f51cd8a","title": "The lamb rack is super tender - just the way I love it... the mash is delicious  too but they forgotten 2 orders...#restaurant #dining #lamb #singapore","loc": {"type": "Point","coordinates": [103.84714,1.362436]}} 
{"id": "8749747493","server": "5451","farm": "6","userId": "35468141938@N01","secret": "042e3323a6","title": "And so it begins... The 'Gear Up!' overnight ride where we take 50 Raffles Institution students on a recce for a massive 100+ student ride in June. Photo by Adrian Loo.","loc": {"type": "Point","coordinates": [103.84625,1.362219]}} 
{"id": "8738483908","server": "7282","farm": "8","userId": "60706658@N06","secret": "7d28d435f9","title": "","loc": {"type": "Point","coordinates": [103.84216,1.366666]}} 
{"id": "8712481205","server": "8396","farm": "9","userId": "60706658@N06","secret": "f48666067c","title": "photo","loc": {"type": "Point","coordinates": [103.84216,1.366666]}} 
{"id": "8708911459","server": "8552","farm": "9","userId": "33156839@N00","secret": "939bcf615d","title": "Rent day","loc": {"type": "Point","coordinates": [103.8385,1.367333]}} 
{"id": "8710033372","server": "8539","farm": "9","userId": "33156839@N00","secret": "a7373c8989","title": "Blk 224, Ang Mo Kio","loc": {"type": "Point","coordinates": [103.83783,1.3665]}} 
{"id": "8690365401","server": "7050","farm": "8","userId": "59527979@N06","secret": "2aea9e0aa0","title": "Water Droplet","loc": {"type": "Point","coordinates": [103.84724,1.367324]}} 
{"id": "8617843605","server": "8116","farm": "9","userId": "37647353@N00","secret": "ac0bd53a00","title": "Mid-autumn","loc": {"type": "Point","coordinates": [103.84625,1.362219]}} 
{"id": "8604978615","server": "8242","farm": "9","userId": "23062498@N00","secret": "cfa367da75","title": "A #Walk in a #Park","loc": {"type": "Point","coordinates": [103.84625,1.362219]}} 
{"id": "8604830756","server": "8530","farm": "9","userId": "8583503@N07","secret": "fa9bd3494d","title": "The Offerings.","loc": {"type": "Point","coordinates": [103.83791,1.361843]}} 
{"id": "8583707913","server": "8369","farm": "9","userId": "83137894@N06","secret": "07e58f2b34","title": "Bishan Park Bridge","loc": {"type": "Point","coordinates": [103.84625,1.362219]}} 
{"id": "8561193510","server": "8246","farm": "9","userId": "15170730@N07","secret": "a37540ee3f","title": "slorider","loc": {"type": "Point","coordinates": [103.84625,1.362219]}} 
{"id": "8541556636","server": "8365","farm": "9","userId": "46159483@N00","secret": "8d6a50fc2b","title": "Meow!","loc": {"type": "Point","coordinates": [103.84019,1.361796]}} 
{"id": "8520998902","server": "8102","farm": "9","userId": "60706658@N06","secret": "ecf1f8ae6a","title": "Life is full of miracles","loc": {"type": "Point","coordinates": [103.84216,1.366833]}} 
{"id": "8469865211","server": "8531","farm": "9","userId": "60706658@N06","secret": "bf36d9d89b","title": "Solar light jar .","loc": {"type": "Point","coordinates": [103.842,1.366833]}} 
{"id": "8464377684","server": "8386","farm": "9","userId": "60706658@N06","secret": "00f274dd23","title": "Wish u fa fa fa 2013 !","loc": {"type": "Point","coordinates": [103.842,1.366666]}} 
{"id": "8457085897","server": "8507","farm": "9","userId": "78037110@N03","secret": "fe388a0139","title": "20130209-0856-08","loc": {"type": "Point","coordinates": [103.84686,1.361652]}} 
{"id": "8458186466","server": "8247","farm": "9","userId": "78037110@N03","secret": "2035858932","title": "20130209-0903-15","loc": {"type": "Point","coordinates": [103.84686,1.361652]}} 
{"id": "8458186378","server": "8514","farm": "9","userId": "78037110@N03","secret": "811de8e985","title": "20130209-0907-03","loc": {"type": "Point","coordinates": [103.8465,1.3619]}} 
{"id": "8458184162","server": "8510","farm": "9","userId": "78037110@N03","secret": "30e17106bf","title": "20130209-1032-26","loc": {"type": "Point","coordinates": [103.84475,1.361797]}} 
{"id": "8458187778","server": "8368","farm": "9","userId": "78037110@N03","secret": "6d3ac87465","title": "20130209-0838-30","loc": {"type": "Point","coordinates": [103.847115,1.361475]}} 
{"id": "8457084097","server": "8246","farm": "9","userId": "78037110@N03","secret": "81a884e83b","title": "20130209-1005-27","loc": {"type": "Point","coordinates": [103.84587,1.361663]}} 
{"id": "8457085371","server": "8529","farm": "9","userId": "78037110@N03","secret": "ac89d98aea","title": "20130209-0911-11","loc": {"type": "Point","coordinates": [103.8465,1.3619]}} 
{"id": "8458187016","server": "8243","farm": "9","userId": "78037110@N03","secret": "62549b1b89","title": "20130209-0839-40","loc": {"type": "Point","coordinates": [103.847115,1.361475]}} 
{"id": "8457086731","server": "8528","farm": "9","userId": "78037110@N03","secret": "eebfea488f","title": "20130209-0838-38","loc": {"type": "Point","coordinates": [103.847115,1.361475]}} 
{"id": "8457087135","server": "8241","farm": "9","userId": "78037110@N03","secret": "390588fedb","title": "20130209-0836-32","loc": {"type": "Point","coordinates": [103.847115,1.361475]}} 
{"id": "8458186920","server": "8505","farm": "9","userId": "78037110@N03","secret": "f205c377ea","title": "20130209-0846-01","loc": {"type": "Point","coordinates": [103.847115,1.361475]}} 
{"id": "8457086961","server": "8377","farm": "9","userId": "78037110@N03","secret": "56212c2141","title": "20130209-0836-48","loc": {"type": "Point","coordinates": [103.847115,1.361475]}} 
{"id": "8457084979","server": "8387","farm": "9","userId": "78037110@N03","secret": "533c60c119","title": "20130209-0933-53","loc": {"type": "Point","coordinates": [103.84587,1.361663]}} 
{"id": "8457086367","server": "8092","farm": "9","userId": "78037110@N03","secret": "7ce9fa8ac0","title": "20130209-0839-22","loc": {"type": "Point","coordinates": [103.847115,1.361475]}} 
{"id": "8457084209","server": "8233","farm": "9","userId": "78037110@N03","secret": "20fb15eb3e","title": "20130209-0958-38","loc": {"type": "Point","coordinates": [103.84587,1.361663]}} 
{"id": "8458185494","server": "8374","farm": "9","userId": "78037110@N03","secret": "469fe16551","title": "20130209-0934-46","loc": {"type": "Point","coordinates": [103.84587,1.361663]}} 
{"id": "8457083911","server": "8389","farm": "9","userId": "78037110@N03","secret": "9da1813f7a","title": "20130209-1005-34","loc": {"type": "Point","coordinates": [103.84587,1.361663]}} 
{"id": "8457085719","server": "8248","farm": "9","userId": "78037110@N03","secret": "ed849b5f99","title": "20130209-0902-32","loc": {"type": "Point","coordinates": [103.84686,1.361652]}} 
{"id": "8457084725","server": "8104","farm": "9","userId": "78037110@N03","secret": "4106e22d9f","title": "20130209-0934-25","loc": {"type": "Point","coordinates": [103.84587,1.361663]}} 
{"id": "8458185404","server": "8527","farm": "9","userId": "78037110@N03","secret": "19ec9b3fbc","title": "20130209-0935-21","loc": {"type": "Point","coordinates": [103.84587,1.361663]}} 
{"id": "8458185762","server": "8384","farm": "9","userId": "78037110@N03","secret": "96fd37b295","title": "20130209-0934-18","loc": {"type": "Point","coordinates": [103.84587,1.361663]}} 
{"id": "8457083339","server": "8532","farm": "9","userId": "78037110@N03","secret": "7177733aee","title": "20130209-1030-44","loc": {"type": "Point","coordinates": [103.84475,1.361797]}} 
{"id": "8458187460","server": "8091","farm": "9","userId": "78037110@N03","secret": "a9bd6c0eef","title": "20130209-0838-58","loc": {"type": "Point","coordinates": [103.847115,1.361475]}} 
{"id": "8458186164","server": "8111","farm": "9","userId": "78037110@N03","secret": "4cb159ae05","title": "20130209-0911-14","loc": {"type": "Point","coordinates": [103.8465,1.3619]}} 
{"id": "8458185286","server": "8110","farm": "9","userId": "78037110@N03","secret": "1683e20549","title": "20130209-0935-38","loc": {"type": "Point","coordinates": [103.84587,1.361663]}} 
{"id": "8458184708","server": "8110","farm": "9","userId": "78037110@N03","secret": "8bfbca68f7","title": "20130209-1007-58","loc": {"type": "Point","coordinates": [103.84491,1.362527]}} 
{"id": "8457083467","server": "8518","farm": "9","userId": "78037110@N03","secret": "8572bbe603","title": "20130209-1029-45","loc": {"type": "Point","coordinates": [103.84475,1.361797]}} 
{"id": "8457083583","server": "8389","farm": "9","userId": "78037110@N03","secret": "a53abab74a","title": "20130209-1029-35","loc": {"type": "Point","coordinates": [103.84475,1.361797]}} 
{"id": "8458187314","server": "8388","farm": "9","userId": "78037110@N03","secret": "995bdf5a59","title": "20130209-0839-03","loc": {"type": "Point","coordinates": [103.847115,1.361475]}} 
{"id": "8457086261","server": "8379","farm": "9","userId": "78037110@N03","secret": "b8162bd0ce","title": "20130209-0839-35","loc": {"type": "Point","coordinates": [103.847115,1.361475]}} 
{"id": "8449908821","server": "8233","farm": "9","userId": "28343507@N07","secret": "c06a5f9660","title": "Long tailed shrike","loc": {"type": "Point","coordinates": [103.84761,1.362433]}} 
{"id": "8369612243","server": "8053","farm": "9","userId": "88189322@N05","secret": "21933d6f20","title": "WP_20130110_068","loc": {"type": "Point","coordinates": [103.8469,1.36128]}} 
{"id": "8369612019","server": "8373","farm": "9","userId": "88189322@N05","secret": "abcf5b7f97","title": "WP_20130110_069","loc": {"type": "Point","coordinates": [103.8469,1.36128]}} 
{"id": "8370676546","server": "8356","farm": "9","userId": "88189322@N05","secret": "0b1f7d6326","title": "WP_20130110_079","loc": {"type": "Point","coordinates": [103.845,1.361458]}} 
{"id": "8370677062","server": "8334","farm": "9","userId": "88189322@N05","secret": "fb06fe96e8","title": "WP_20130110_072","loc": {"type": "Point","coordinates": [103.8469,1.36128]}} 
{"id": "8369610121","server": "8512","farm": "9","userId": "88189322@N05","secret": "4994a6c6ed","title": "WP_20130110_080","loc": {"type": "Point","coordinates": [103.845,1.361458]}} 
{"id": "8370677250","server": "8371","farm": "9","userId": "88189322@N05","secret": "f95d14905d","title": "WP_20130110_071","loc": {"type": "Point","coordinates": [103.8469,1.36128]}} 
{"id": "8369611811","server": "8054","farm": "9","userId": "88189322@N05","secret": "9165683433","title": "WP_20130110_070","loc": {"type": "Point","coordinates": [103.8469,1.36128]}} 
{"id": "8333875298","server": "8499","farm": "9","userId": "28035800@N08","secret": "4f47a58b92","title": "Sky Blue","loc": {"type": "Point","coordinates": [103.84763,1.362036]}} 
{"id": "8303681781","server": "8364","farm": "9","userId": "88189322@N05","secret": "719d89e2a1","title": "2012-08-01-0140","loc": {"type": "Point","coordinates": [103.84692,1.361372]}} 
{"id": "8303681223","server": "8221","farm": "9","userId": "88189322@N05","secret": "d8acd46c83","title": "2012-08-01-0142","loc": {"type": "Point","coordinates": [103.84677,1.361275]}} 
{"id": "8303651861","server": "8354","farm": "9","userId": "88189322@N05","secret": "9c2b9ed9f5","title": "2012-08-01-0079","loc": {"type": "Point","coordinates": [103.846855,1.361261]}} 
{"id": "8304697728","server": "8494","farm": "9","userId": "88189322@N05","secret": "4c7deacb7b","title": "2012-08-01-0085","loc": {"type": "Point","coordinates": [103.84728,1.361091]}} 
{"id": "8303653633","server": "8084","farm": "9","userId": "88189322@N05","secret": "0f7549a492","title": "2012-08-01-0077","loc": {"type": "Point","coordinates": [103.84667,1.361191]}} 
{"id": "8303680937","server": "8500","farm": "9","userId": "88189322@N05","secret": "c575f7a5dc","title": "2012-08-01-0143","loc": {"type": "Point","coordinates": [103.84677,1.361275]}} 
{"id": "8304730502","server": "8360","farm": "9","userId": "88189322@N05","secret": "a9cec2d32e","title": "2012-08-01-0141","loc": {"type": "Point","coordinates": [103.84692,1.361372]}} 
{"id": "8303656435","server": "8217","farm": "9","userId": "88189322@N05","secret": "10f304e7b5","title": "2012-08-01-0073","loc": {"type": "Point","coordinates": [103.84656,1.361094]}} 
{"id": "8304698712","server": "8220","farm": "9","userId": "88189322@N05","secret": "7719851999","title": "2012-08-01-0083","loc": {"type": "Point","coordinates": [103.846985,1.361338]}} 
{"id": "8304704212","server": "8071","farm": "9","userId": "88189322@N05","secret": "f54689bc93","title": "2012-08-01-0075","loc": {"type": "Point","coordinates": [103.84667,1.361191]}} 
{"id": "8304698112","server": "8354","farm": "9","userId": "88189322@N05","secret": "f1643bfcde","title": "2012-08-01-0084","loc": {"type": "Point","coordinates": [103.84724,1.361275]}} 
{"id": "8304704960","server": "8212","farm": "9","userId": "88189322@N05","secret": "91a5a85657","title": "2012-08-01-0074","loc": {"type": "Point","coordinates": [103.84667,1.361191]}} 
{"id": "8303648221","server": "8078","farm": "9","userId": "88189322@N05","secret": "0e7be334bf","title": "2012-08-01-0086","loc": {"type": "Point","coordinates": [103.84728,1.361091]}} 
{"id": "8303654761","server": "8492","farm": "9","userId": "88189322@N05","secret": "207522a87b","title": "2012-08-01-0076","loc": {"type": "Point","coordinates": [103.84667,1.361191]}} 
{"id": "8304711774","server": "8220","farm": "9","userId": "88189322@N05","secret": "f5626afa55","title": "2012-08-01-0050","loc": {"type": "Point","coordinates": [103.84656,1.361094]}} 
{"id": "8304699560","server": "8215","farm": "9","userId": "88189322@N05","secret": "6b31281b79","title": "2012-08-01-0081","loc": {"type": "Point","coordinates": [103.846855,1.361261]}} 
{"id": "8303682075","server": "8504","farm": "9","userId": "88189322@N05","secret": "585c19a0e7","title": "2012-08-01-0139","loc": {"type": "Point","coordinates": [103.84689,1.361483]}} 
{"id": "8304701496","server": "8076","farm": "9","userId": "88189322@N05","secret": "d482171b50","title": "2012-08-01-0078","loc": {"type": "Point","coordinates": [103.84667,1.361191]}} 
{"id": "8292246379","server": "8497","farm": "9","userId": "44124475113@N01","secret": "b5dd5e511e","title": "Lunch at Sin Ming Drive","loc": {"type": "Point","coordinates": [103.83836,1.361192]}} 
{"id": "8253277898","server": "8348","farm": "9","userId": "32204075@N08","secret": "34894185ed","title": "My Dad & My Two Sons","loc": {"type": "Point","coordinates": [103.8478,1.361457]}} 
{"id": "8252208119","server": "8059","farm": "9","userId": "32204075@N08","secret": "4171901b0a","title": "My Two Sons & My Dad","loc": {"type": "Point","coordinates": [103.84755,1.361758]}} 
{"id": "8252207619","server": "8199","farm": "9","userId": "32204075@N08","secret": "622457c1c1","title": "Beautiful Memories","loc": {"type": "Point","coordinates": [103.84806,1.361286]}} 
{"id": "8228665705","server": "8207","farm": "9","userId": "60972409@N00","secret": "7f19aee44c","title": "","loc": {"type": "Point","coordinates": [103.84634,1.3625]}} 
{"id": "8228666379","server": "8482","farm": "9","userId": "60972409@N00","secret": "7a57aec60e","title": "","loc": {"type": "Point","coordinates": [103.84634,1.3625]}} 
{"id": "8229731464","server": "8348","farm": "9","userId": "60972409@N00","secret": "94ce8b02e2","title": "","loc": {"type": "Point","coordinates": [103.84634,1.3625]}} 
{"id": "8210634587","server": "8198","farm": "9","userId": "60972409@N00","secret": "d6204e56e7","title": "","loc": {"type": "Point","coordinates": [103.84634,1.3625]}} 
{"id": "8210631725","server": "8059","farm": "9","userId": "60972409@N00","secret": "ed3bbc0824","title": "","loc": {"type": "Point","coordinates": [103.84634,1.3625]}} 
{"id": "8177840754","server": "8348","farm": "9","userId": "37987018@N07","secret": "cc52e88705","title": "Fashion","loc": {"type": "Point","coordinates": [103.844666,1.362667]}} 
{"id": "8177703632","server": "8205","farm": "9","userId": "37987018@N07","secret": "b3eab6b481","title": "Fashion","loc": {"type": "Point","coordinates": [103.844604,1.362403]}} 
{"id": "8161197707","server": "8061","farm": "9","userId": "13212559@N07","secret": "c654a95963","title": "Nearly Rotten","loc": {"type": "Point","coordinates": [103.83958,1.363894]}} 
{"id": "8150095085","server": "8188","farm": "9","userId": "67370375@N02","secret": "04c860f33d","title": "Prawning session! Time for good food!","loc": {"type": "Point","coordinates": [103.84152,1.361474]}} 
{"id": "8127339212","server": "8185","farm": "9","userId": "95464641@N00","secret": "af4e037be2","title": "Can't believe I saw this in Singapore","loc": {"type": "Point","coordinates": [103.84625,1.362219]}} 
{"id": "8084729090","server": "8046","farm": "9","userId": "97842199@N00","secret": "403a6ce515","title": "French toast turkey bacon","loc": {"type": "Point","coordinates": [103.84492,1.3625]}} 
{"id": "8083248149","server": "8326","farm": "9","userId": "99942665@N00","secret": "0194b025b1","title": "_DSC3729","loc": {"type": "Point","coordinates": [103.844086,1.362773]}} 
{"id": "8083243584","server": "8472","farm": "9","userId": "99942665@N00","secret": "51c9394db3","title": "_DSC3724","loc": {"type": "Point","coordinates": [103.844086,1.362773]}} 
{"id": "8083239930","server": "8193","farm": "9","userId": "99942665@N00","secret": "239c9f6188","title": "_DSC3732","loc": {"type": "Point","coordinates": [103.844086,1.362773]}} 
{"id": "8083239352","server": "8185","farm": "9","userId": "99942665@N00","secret": "a1a7a19c5a","title": "_DSC3735","loc": {"type": "Point","coordinates": [103.844086,1.362773]}} 
{"id": "8083249069","server": "8194","farm": "9","userId": "99942665@N00","secret": "b2c016114b","title": "_DSC3727","loc": {"type": "Point","coordinates": [103.844086,1.362773]}} 
{"id": "8062361370","server": "8042","farm": "9","userId": "38662956@N00","secret": "62c1d79f3a","title": "Cycling in the Park","loc": {"type": "Point","coordinates": [103.84689,1.36203]}} 
