{"id": "8686949529","server": "8399","farm": "9","userId": "91809533@N08","secret": "e94e9028f0","title": "highlighting the top readers in schools","loc": {"type": "Point","coordinates": [103.8095,1.319666]}} 
{"id": "8626460744","server": "8255","farm": "9","userId": "8262083@N02","secret": "24ed232297","title": "Party","loc": {"type": "Point","coordinates": [103.81333,1.314223]}} 
{"id": "8527936768","server": "8505","farm": "9","userId": "39528643@N06","secret": "0faac3bdeb","title": "Baby","loc": {"type": "Point","coordinates": [103.813515,1.313011]}} 
{"id": "9435248172","server": "7352","farm": "8","userId": "39786378@N04","secret": "d574efdc03","title": "At Shaw Foundation Symphony Stage","loc": {"type": "Point","coordinates": [103.815094,1.313447]}} 
{"id": "9322618253","server": "5339","farm": "6","userId": "37305800@N00","secret": "65864d83f1","title": "Pearlyn & Rongzhao's Wedding 11","loc": {"type": "Point","coordinates": [103.8145,1.3175]}} 
{"id": "9311040654","server": "5494","farm": "6","userId": "63289007@N00","secret": "cdbc74fd69","title": "IMG_0929","loc": {"type": "Point","coordinates": [103.81433,1.313333]}} 
{"id": "9288779360","server": "3720","farm": "4","userId": "25530545@N04","secret": "5612633f88","title": "2013-06-30 at 13-32-50","loc": {"type": "Point","coordinates": [103.81517,1.3145]}} 
{"id": "9285999803","server": "5506","farm": "6","userId": "25530545@N04","secret": "fe471da1e0","title": "2013-06-30 at 13-30-03","loc": {"type": "Point","coordinates": [103.8145,1.315167]}} 
{"id": "9288781272","server": "2805","farm": "3","userId": "25530545@N04","secret": "1f70ccf8bc","title": "2013-06-30 at 13-36-15","loc": {"type": "Point","coordinates": [103.815,1.313333]}} 
{"id": "9286002873","server": "7306","farm": "8","userId": "25530545@N04","secret": "6b7882877c","title": "2013-06-30 at 13-35-11","loc": {"type": "Point","coordinates": [103.815,1.3145]}} 
{"id": "9288782502","server": "2834","farm": "3","userId": "25530545@N04","secret": "094d3ae9b7","title": "2013-06-30 at 13-46-37","loc": {"type": "Point","coordinates": [103.814835,1.313333]}} 
{"id": "9286004561","server": "7397","farm": "8","userId": "25530545@N04","secret": "d76727e948","title": "2013-06-30 at 13-46-30","loc": {"type": "Point","coordinates": [103.814835,1.313333]}} 
{"id": "9288776566","server": "3822","farm": "4","userId": "25530545@N04","secret": "d6e3955e42","title": "2013-06-30 at 13-29-11","loc": {"type": "Point","coordinates": [103.8145,1.315167]}} 
{"id": "9288775994","server": "7425","farm": "8","userId": "25530545@N04","secret": "6597fb90df","title": "2013-06-30 at 13-29-03","loc": {"type": "Point","coordinates": [103.8145,1.315167]}} 
{"id": "9288777656","server": "7348","farm": "8","userId": "25530545@N04","secret": "988416094e","title": "2013-06-30 at 13-30-14","loc": {"type": "Point","coordinates": [103.81433,1.315167]}} 
{"id": "9288778302","server": "3721","farm": "4","userId": "25530545@N04","secret": "2a64529ab9","title": "2013-06-30 at 13-32-35","loc": {"type": "Point","coordinates": [103.8145,1.315167]}} 
{"id": "9288778714","server": "3667","farm": "4","userId": "25530545@N04","secret": "958565df32","title": "2013-06-30 at 13-32-43","loc": {"type": "Point","coordinates": [103.815,1.3145]}} 
{"id": "9198657001","server": "3695","farm": "4","userId": "98117409@N06","secret": "27ffd63822","title": "See the cars pass by","loc": {"type": "Point","coordinates": [103.80757,1.316044]}} 
{"id": "9093441803","server": "7360","farm": "8","userId": "83981795@N08","secret": "337e93747c","title": "20130613-DSC_9917.jpg","loc": {"type": "Point","coordinates": [103.81424,1.31318]}} 
{"id": "9095678346","server": "3678","farm": "4","userId": "83981795@N08","secret": "e8baed1928","title": "20130613-DSC_9931.jpg","loc": {"type": "Point","coordinates": [103.81424,1.31318]}} 
{"id": "9093420415","server": "3775","farm": "4","userId": "83981795@N08","secret": "624afa439b","title": "20130613-DSC_9912.jpg","loc": {"type": "Point","coordinates": [103.81424,1.31318]}} 
{"id": "9093377383","server": "5449","farm": "6","userId": "83981795@N08","secret": "e3bc069ef7","title": "20130613-DSCN4898.jpg","loc": {"type": "Point","coordinates": [103.81424,1.31318]}} 
{"id": "9093395193","server": "7313","farm": "8","userId": "83981795@N08","secret": "930267df71","title": "20130613-DSC_9902.jpg","loc": {"type": "Point","coordinates": [103.81424,1.31318]}} 
{"id": "9093350103","server": "3751","farm": "4","userId": "83981795@N08","secret": "02cc66d4c8","title": "20130613-DSCN4895.jpg","loc": {"type": "Point","coordinates": [103.81424,1.31318]}} 
{"id": "9095540756","server": "2818","farm": "3","userId": "83981795@N08","secret": "434d98ca87","title": "20130613-DSC_9893.jpg","loc": {"type": "Point","coordinates": [103.81424,1.31318]}} 
{"id": "9093304649","server": "2807","farm": "3","userId": "83981795@N08","secret": "b21c4167a8","title": "20130613-DSC_9889.jpg","loc": {"type": "Point","coordinates": [103.81424,1.31318]}} 
{"id": "9095551568","server": "2829","farm": "3","userId": "83981795@N08","secret": "5b2ffabb8a","title": "20130613-DSC_9895.jpg","loc": {"type": "Point","coordinates": [103.81424,1.31318]}} 
{"id": "9095480082","server": "5340","farm": "6","userId": "83981795@N08","secret": "949b0c8fd4","title": "20130613-DSC_9857.jpg","loc": {"type": "Point","coordinates": [103.81424,1.31318]}} 
{"id": "9093246767","server": "3666","farm": "4","userId": "83981795@N08","secret": "93a107a636","title": "20130613-DSC_9849.jpg","loc": {"type": "Point","coordinates": [103.81424,1.31318]}} 
{"id": "9095513426","server": "7351","farm": "8","userId": "83981795@N08","secret": "0126eeb1f9","title": "20130613-DSC_9866.jpg","loc": {"type": "Point","coordinates": [103.81424,1.31318]}} 
{"id": "9093272135","server": "2821","farm": "3","userId": "83981795@N08","secret": "a545a7a77b","title": "20130613-DSC_9860.jpg","loc": {"type": "Point","coordinates": [103.81424,1.31318]}} 
{"id": "9095414066","server": "5538","farm": "6","userId": "83981795@N08","secret": "b21f5c4319","title": "20130613-DSC_9834.jpg","loc": {"type": "Point","coordinates": [103.81424,1.31318]}} 
{"id": "9095436892","server": "2844","farm": "3","userId": "83981795@N08","secret": "023f63bd06","title": "20130613-DSC_9837.jpg","loc": {"type": "Point","coordinates": [103.81424,1.31318]}} 
{"id": "9093229985","server": "3753","farm": "4","userId": "83981795@N08","secret": "5bc93a3c17","title": "20130613-DSC_9848.jpg","loc": {"type": "Point","coordinates": [103.81424,1.31318]}} 
{"id": "9093178683","server": "7386","farm": "8","userId": "83981795@N08","secret": "cf20b9c39b","title": "20130613-DSC_9831.jpg","loc": {"type": "Point","coordinates": [103.81424,1.31318]}} 
{"id": "9095367862","server": "3825","farm": "4","userId": "83981795@N08","secret": "65d53a6bac","title": "20130613-DSCN4885.jpg","loc": {"type": "Point","coordinates": [103.814705,1.314811]}} 
{"id": "9095388456","server": "7425","farm": "8","userId": "83981795@N08","secret": "6ea8cc6cae","title": "20130613-DSC_9808.jpg","loc": {"type": "Point","coordinates": [103.81424,1.31318]}} 
{"id": "9093119487","server": "3689","farm": "4","userId": "83981795@N08","secret": "12956fcf9c","title": "20130613-DSCN4880.jpg","loc": {"type": "Point","coordinates": [103.814705,1.314811]}} 
{"id": "9093129609","server": "2807","farm": "3","userId": "83981795@N08","secret": "237d04376d","title": "20130613-DSC_9794.jpg","loc": {"type": "Point","coordinates": [103.81462,1.315069]}} 
{"id": "9068669430","server": "2873","farm": "3","userId": "24356987@N08","secret": "5b4ef5e5aa","title": "Trithemis aurora (IM2) Dragonfly","loc": {"type": "Point","coordinates": [103.81522,1.314403]}} 
{"id": "9067567314","server": "5330","farm": "6","userId": "24356987@N08","secret": "8cedf68643","title": "Trithemis aurora (IM2) Dragonfly","loc": {"type": "Point","coordinates": [103.81522,1.314403]}} 
{"id": "9049576879","server": "3693","farm": "4","userId": "19256525@N00","secret": "30fd2f82f3","title": "Opera in the park","loc": {"type": "Point","coordinates": [103.815,1.3135]}} 
{"id": "9011929045","server": "3757","farm": "4","userId": "9895689@N04","secret": "58f3e48b3b","title": "Lotus","loc": {"type": "Point","coordinates": [103.81513,1.313405]}} 
{"id": "9010374896","server": "7325","farm": "8","userId": "28472171@N08","secret": "bd368d38eb","title": "Orchidaceous","loc": {"type": "Point","coordinates": [103.81411,1.313408]}} 
{"id": "9009203487","server": "5442","farm": "6","userId": "28472171@N08","secret": "b2c39bb7d9","title": "Orchidaceous","loc": {"type": "Point","coordinates": [103.81411,1.313408]}} 
{"id": "8827015490","server": "7297","farm": "8","userId": "89001344@N03","secret": "fe8ebc163c","title": "moll Runner Compact","loc": {"type": "Point","coordinates": [103.81254,1.313216]}} 
{"id": "8762451076","server": "7455","farm": "8","userId": "52537869@N00","secret": "066998526e","title": "#botanicalGarden little waterfall","loc": {"type": "Point","coordinates": [103.81457,1.313696]}} 
{"id": "8730676591","server": "7442","farm": "8","userId": "80217014@N00","secret": "d22bba5259","title": "Symphonic crowd","loc": {"type": "Point","coordinates": [103.814865,1.314092]}} 
{"id": "8652675811","server": "8382","farm": "9","userId": "36199157@N04","secret": "76681bcdfb","title": "","loc": {"type": "Point","coordinates": [103.813835,1.313]}} 
{"id": "8653776708","server": "8113","farm": "9","userId": "36199157@N04","secret": "69556e5a0f","title": "","loc": {"type": "Point","coordinates": [103.8145,1.313166]}} 
{"id": "8647417577","server": "8261","farm": "9","userId": "83195865@N08","secret": "3c044cbaf1","title": "IMG_8872-Edit.jpg","loc": {"type": "Point","coordinates": [103.8148,1.314988]}} 
{"id": "8640392454","server": "8542","farm": "9","userId": "10966331@N04","secret": "a7e0421ede","title": "","loc": {"type": "Point","coordinates": [103.80434,1.313333]}} 
{"id": "8636787875","server": "8539","farm": "9","userId": "46577167@N00","secret": "e2ab241a9c","title": "Chicken Biryani","loc": {"type": "Point","coordinates": [103.805664,1.316166]}} 
{"id": "8637086282","server": "8387","farm": "9","userId": "94820721@N06","secret": "3e6f302d8c","title": "Fashionista","loc": {"type": "Point","coordinates": [103.805824,1.316388]}} 
{"id": "8636595032","server": "8257","farm": "9","userId": "10966331@N04","secret": "5acf64f8f8","title": "","loc": {"type": "Point","coordinates": [103.8075,1.317833]}} 
{"id": "8634006539","server": "8102","farm": "9","userId": "94820721@N06","secret": "c450819d62","title": "Fashionista","loc": {"type": "Point","coordinates": [103.805466,1.317786]}} 
{"id": "8626564263","server": "8122","farm": "9","userId": "94551674@N02","secret": "51727716c1","title": "Big band jam","loc": {"type": "Point","coordinates": [103.815094,1.313448]}} 
{"id": "8620896473","server": "8102","farm": "9","userId": "14932826@N05","secret": "99b666be92","title": "flower power","loc": {"type": "Point","coordinates": [103.813354,1.313416]}} 
{"id": "8602537800","server": "8105","farm": "9","userId": "25881447@N07","secret": "34d8568b95","title": "Weekend trip to Singapore","loc": {"type": "Point","coordinates": [103.80983,1.319]}} 
{"id": "8602538680","server": "8102","farm": "9","userId": "25881447@N07","secret": "433da22d9e","title": "Weekend trip to Singapore","loc": {"type": "Point","coordinates": [103.80983,1.319]}} 
{"id": "8602536178","server": "8253","farm": "9","userId": "25881447@N07","secret": "07a47f39f7","title": "Weekend trip to Singapore","loc": {"type": "Point","coordinates": [103.80983,1.319]}} 
{"id": "8602531488","server": "8539","farm": "9","userId": "25881447@N07","secret": "46ab75a281","title": "Weekend trip to Singapore","loc": {"type": "Point","coordinates": [103.81437,1.31352]}} 
{"id": "8602488714","server": "8379","farm": "9","userId": "25881447@N07","secret": "b4ac6c9aef","title": "Weekend trip to Singapore","loc": {"type": "Point","coordinates": [103.81437,1.31352]}} 
{"id": "8560595763","server": "8380","farm": "9","userId": "28261482@N05","secret": "9649f4a18d","title": "It's always 4.5M #bridge #4.5m","loc": {"type": "Point","coordinates": [103.80577,1.315922]}} 
{"id": "8560588617","server": "8392","farm": "9","userId": "28261482@N05","secret": "e447b4cab7","title": "It's fucking hot and humid here in Singapore! #hot #humid #Singapore #busride #174","loc": {"type": "Point","coordinates": [103.805824,1.316388]}} 
{"id": "8559591584","server": "8373","farm": "9","userId": "79695322@N07","secret": "82fc8a1b7e","title": "jC in orchids","loc": {"type": "Point","coordinates": [103.81433,1.313333]}} 
{"id": "8559593512","server": "8365","farm": "9","userId": "79695322@N07","secret": "ae47f774f0","title": "nature is AMAZNG","loc": {"type": "Point","coordinates": [103.81467,1.313166]}} 
{"id": "8557709439","server": "8518","farm": "9","userId": "34272393@N06","secret": "154621415e","title": "tropical flower","loc": {"type": "Point","coordinates": [103.81453,1.313705]}} 
{"id": "8550015671","server": "8371","farm": "9","userId": "21553992@N07","secret": "39bc10ff5b","title": "","loc": {"type": "Point","coordinates": [103.81467,1.313666]}} 
{"id": "8529695595","server": "8246","farm": "9","userId": "34272393@N06","secret": "c63b57768d","title": "tropical flower","loc": {"type": "Point","coordinates": [103.81454,1.313701]}} 
{"id": "8517482977","server": "8245","farm": "9","userId": "34272393@N06","secret": "0f4e8a5a9a","title": "tropical plant","loc": {"type": "Point","coordinates": [103.81471,1.313165]}} 
{"id": "8514912796","server": "8532","farm": "9","userId": "34272393@N06","secret": "3b34f3c06a","title": "tropical plant","loc": {"type": "Point","coordinates": [103.81454,1.313776]}} 
{"id": "8512624176","server": "8098","farm": "9","userId": "34272393@N06","secret": "a2dfe6b687","title": "tropical flower","loc": {"type": "Point","coordinates": [103.814384,1.31373]}} 
{"id": "8498559191","server": "8381","farm": "9","userId": "60026216@N00","secret": "b76f0f46f8","title": "Frederick Chopin (Szopen), 1810-1849.","loc": {"type": "Point","coordinates": [103.815094,1.313447]}} 
{"id": "8477886303","server": "8240","farm": "9","userId": "92270566@N03","secret": "e373c267ce","title": "SBG Garden Pathway","loc": {"type": "Point","coordinates": [103.8142,1.31363]}} 
{"id": "8477885637","server": "8101","farm": "9","userId": "92270566@N03","secret": "cbec4105d5","title": "SBG Waterfall","loc": {"type": "Point","coordinates": [103.814575,1.313552]}} 
{"id": "8477886813","server": "8380","farm": "9","userId": "92270566@N03","secret": "7a2f037122","title": "Orchids!","loc": {"type": "Point","coordinates": [103.81416,1.313972]}} 
{"id": "8386623609","server": "8496","farm": "9","userId": "45555233@N07","secret": "bedd400ae3","title": "The National Orchid Garden Singapore","loc": {"type": "Point","coordinates": [103.81462,1.3132]}} 
{"id": "8387709630","server": "8354","farm": "9","userId": "45555233@N07","secret": "9acbb83498","title": "The National Orchid Garden Singapore","loc": {"type": "Point","coordinates": [103.814514,1.313319]}} 
{"id": "8380195912","server": "8369","farm": "9","userId": "24024921@N04","secret": "d63b9169cb","title": "Bromeliad Bloom","loc": {"type": "Point","coordinates": [103.81414,1.313391]}} 
{"id": "8376254138","server": "8183","farm": "9","userId": "7686890@N05","secret": "98ba841e81","title": "Ceriagrion cerinorubellum","loc": {"type": "Point","coordinates": [103.81422,1.314805]}} 
{"id": "8375180669","server": "8368","farm": "9","userId": "7686890@N05","secret": "15740433a3","title": "Brachydiplax chalybea","loc": {"type": "Point","coordinates": [103.81505,1.313663]}} 
{"id": "8375123563","server": "8098","farm": "9","userId": "7686890@N05","secret": "4a22e79682","title": "Neurothemis fluctuans","loc": {"type": "Point","coordinates": [103.81422,1.314805]}} 
{"id": "8375123489","server": "8215","farm": "9","userId": "7686890@N05","secret": "d184da0f2c","title": "Trithemis festiva","loc": {"type": "Point","coordinates": [103.81489,1.314511]}} 
{"id": "8346167550","server": "8354","farm": "9","userId": "82583432@N02","secret": "6895590509","title": "Yellow-vented Bulbul {Pycnonotus goiavier}","loc": {"type": "Point","coordinates": [103.81404,1.313588]}} 
{"id": "8341375525","server": "8352","farm": "9","userId": "82583432@N02","secret": "82dfabb936","title": "Cycad Blue {Chilades pandava pandava}","loc": {"type": "Point","coordinates": [103.81428,1.313758]}} 
{"id": "8341828930","server": "8219","farm": "9","userId": "24024921@N04","secret": "b33cc3ee78","title": "Phalaenopsis Orchid","loc": {"type": "Point","coordinates": [103.81409,1.313716]}} 
{"id": "8341828678","server": "8083","farm": "9","userId": "24024921@N04","secret": "ed925e7943","title": "Spider Orchid","loc": {"type": "Point","coordinates": [103.81449,1.312983]}} 
{"id": "8341819082","server": "8074","farm": "9","userId": "24024921@N04","secret": "c8d3d63bf5","title": "Lady's Slippers Orchid","loc": {"type": "Point","coordinates": [103.814545,1.3137]}} 
{"id": "8341530796","server": "8496","farm": "9","userId": "24024921@N04","secret": "c31fc554e2","title": "Talipot Palm with blooms","loc": {"type": "Point","coordinates": [103.81478,1.313351]}} 
{"id": "8331630587","server": "8078","farm": "9","userId": "10966331@N04","secret": "f31ac14cb9","title": "","loc": {"type": "Point","coordinates": [103.8145,1.315166]}} 
{"id": "8328251985","server": "8076","farm": "9","userId": "59437867@N00","secret": "6e37d06071","title": "Hawker Stalls","loc": {"type": "Point","coordinates": [103.80578,1.316205]}} 
{"id": "8309490106","server": "8082","farm": "9","userId": "42594504@N00","secret": "d987f5c0be","title": "New DVD, The Mysterious Islands. :)","loc": {"type": "Point","coordinates": [103.8064,1.318659]}} 
{"id": "8308439005","server": "8224","farm": "9","userId": "42594504@N00","secret": "362085437e","title": "I'm coming home, coming home, tell the world I m coming home","loc": {"type": "Point","coordinates": [103.81,1.31954]}} 
{"id": "8309493080","server": "8083","farm": "9","userId": "42594504@N00","secret": "a2aa2ea9a2","title": "' It's a bright, sun shiny day'- I can see clearly now, Johnny Nash. Hope for no rain today. :) #zengliwei #iphone #iphone4gs #sgig #singapore #snapseed #instasg","loc": {"type": "Point","coordinates": [103.8096,1.319266]}} 
{"id": "8308440029","server": "8364","farm": "9","userId": "42594504@N00","secret": "fdf7036146","title": "You need the right tools for the job #colour #instasg #snapseed #zengliwei #iphone4gs #iphoneography #singapore #iphone","loc": {"type": "Point","coordinates": [103.8094,1.319394]}} 
{"id": "8309495964","server": "8224","farm": "9","userId": "42594504@N00","secret": "ab3c75e1c6","title": "Thorns chased him away.","loc": {"type": "Point","coordinates": [103.8098,1.319718]}} 
{"id": "8309488132","server": "8495","farm": "9","userId": "42594504@N00","secret": "651a8c6520","title": "Rest. Something I need now.","loc": {"type": "Point","coordinates": [103.8096,1.31925]}} 
{"id": "8309488840","server": "8220","farm": "9","userId": "42594504@N00","secret": "0d5c5745f2","title": "The daily grind.","loc": {"type": "Point","coordinates": [103.8075,1.317418]}} 
{"id": "8308444987","server": "8079","farm": "9","userId": "42594504@N00","secret": "699fef906b","title": "Cultivating your inner life - Edmund Chan. Thank you DS Lena for blessing us with  this book :)","loc": {"type": "Point","coordinates": [103.8095,1.319579]}} 
{"id": "8308442545","server": "8494","farm": "9","userId": "42594504@N00","secret": "469f5b7cbf","title": "Climbing the corporate ladder #zengliwei #snapseed #singapore #singapore","loc": {"type": "Point","coordinates": [103.809,1.318987]}} 
{"id": "8308444063","server": "8216","farm": "9","userId": "42594504@N00","secret": "4834e4e3a7","title": "Peek a boo!!!","loc": {"type": "Point","coordinates": [103.81,1.31952]}} 
{"id": "8309489058","server": "8503","farm": "9","userId": "42594504@N00","secret": "f52d312080","title": "It was freezing in service today.","loc": {"type": "Point","coordinates": [103.8096,1.319266]}} 
{"id": "8309488170","server": "8217","farm": "9","userId": "42594504@N00","secret": "6b3daf0c74","title": "Strong tower - fortress when I am weak.","loc": {"type": "Point","coordinates": [103.8093,1.319658]}} 
{"id": "8309489782","server": "8216","farm": "9","userId": "42594504@N00","secret": "bb9d527061","title": "Spotted a Colnago fixed gear, rare.. :))","loc": {"type": "Point","coordinates": [103.8095,1.319706]}} 
{"id": "8309497390","server": "8361","farm": "9","userId": "42594504@N00","secret": "dc72a3aa91","title": "I need a cup right now, so tired.","loc": {"type": "Point","coordinates": [103.8096,1.319452]}} 
{"id": "8308437361","server": "8497","farm": "9","userId": "42594504@N00","secret": "97a160737f","title": "Drops of rain","loc": {"type": "Point","coordinates": [103.8096,1.319199]}} 
{"id": "8309490236","server": "8493","farm": "9","userId": "42594504@N00","secret": "9a592d76b9","title": "Bird shaped lights :) #instasg #iphone #sgig #iphone4gs #singapore #zengliwei","loc": {"type": "Point","coordinates": [103.8097,1.319568]}} 
{"id": "8308444991","server": "8215","farm": "9","userId": "42594504@N00","secret": "98caa21ee4","title": "The only sunset of the leap year.","loc": {"type": "Point","coordinates": [103.8078,1.318466]}} 
{"id": "8308431071","server": "8222","farm": "9","userId": "42594504@N00","secret": "15f6d74ddb","title": "Whenever I am feeling low I look around me and I know There's a place that will stay within me #home #singapore #sgig #zengliwei #Singaporean","loc": {"type": "Point","coordinates": [103.8077,1.318404]}} 
{"id": "8308429575","server": "8356","farm": "9","userId": "42594504@N00","secret": "4e3e9de082","title": "You will be sorely missed!","loc": {"type": "Point","coordinates": [103.8093,1.319181]}} 
{"id": "8309478816","server": "8213","farm": "9","userId": "42594504@N00","secret": "e74f766888","title": "Most elaborate wedding banquet dessert ever","loc": {"type": "Point","coordinates": [103.8099,1.319334]}} 
{"id": "8309482814","server": "8497","farm": "9","userId": "42594504@N00","secret": "e9b70f46c7","title": "Ponder ponder.","loc": {"type": "Point","coordinates": [103.8076,1.318364]}} 
{"id": "8309481330","server": "8080","farm": "9","userId": "42594504@N00","secret": "fe0853b37f","title": "Wat a cute baby :)) See you tomorrow! #zengliwei #sgig #iphoneography","loc": {"type": "Point","coordinates": [103.8098,1.319486]}} 
{"id": "8309480936","server": "8364","farm": "9","userId": "42594504@N00","secret": "0c70c1707a","title": "time to buy 4D..collision on farrer road both drivers missing no one in the cars #sgig #iphoneography #zengliwei","loc": {"type": "Point","coordinates": [103.8093,1.319055]}} 
{"id": "8308427757","server": "8358","farm": "9","userId": "42594504@N00","secret": "0e25d62eb3","title": "I found gold!!! m9 here I come!","loc": {"type": "Point","coordinates": [103.8097,1.319465]}} 
{"id": "8308430191","server": "8364","farm": "9","userId": "42594504@N00","secret": "1899a59039","title": "Window to the world","loc": {"type": "Point","coordinates": [103.8075,1.318277]}} 
{"id": "8303708313","server": "8220","farm": "9","userId": "88189322@N05","secret": "c7022616e1","title": "IMG_0068","loc": {"type": "Point","coordinates": [103.81516,1.313833]}} 
{"id": "8304757922","server": "8082","farm": "9","userId": "88189322@N05","secret": "9ebdf41990","title": "IMG_0066","loc": {"type": "Point","coordinates": [103.815,1.314333]}} 
{"id": "8303709691","server": "8358","farm": "9","userId": "88189322@N05","secret": "095dc242f1","title": "IMG_0063","loc": {"type": "Point","coordinates": [103.815,1.3145]}} 
{"id": "8304758336","server": "8499","farm": "9","userId": "88189322@N05","secret": "4b44c9288e","title": "IMG_0065","loc": {"type": "Point","coordinates": [103.814835,1.3145]}} 
{"id": "8304758940","server": "8212","farm": "9","userId": "88189322@N05","secret": "7ea1f54339","title": "IMG_0062","loc": {"type": "Point","coordinates": [103.8145,1.314166]}} 
{"id": "8303708621","server": "8222","farm": "9","userId": "88189322@N05","secret": "4f5a45a419","title": "IMG_0067","loc": {"type": "Point","coordinates": [103.81516,1.313833]}} 
{"id": "8253769595","server": "8067","farm": "9","userId": "75976259@N00","secret": "b25e646cda","title": "Wet Curves","loc": {"type": "Point","coordinates": [103.81506,1.313781]}} 
{"id": "8248082298","server": "8206","farm": "9","userId": "90785866@N05","secret": "c98676173e","title": "Botanical Gardens 1/3","loc": {"type": "Point","coordinates": [103.81452,1.313805]}} 
{"id": "8240874697","server": "8202","farm": "9","userId": "27526427@N05","secret": "99e85cb096","title": "Orchids","loc": {"type": "Point","coordinates": [103.81416,1.313333]}} 
{"id": "8241943202","server": "8067","farm": "9","userId": "27526427@N05","secret": "e1636ca948","title": "Chirpy me","loc": {"type": "Point","coordinates": [103.81433,1.314]}} 
{"id": "8187448856","server": "8065","farm": "9","userId": "10966331@N04","secret": "ae6afdea24","title": "","loc": {"type": "Point","coordinates": [103.8075,1.317167]}} 
{"id": "8181922890","server": "8206","farm": "9","userId": "44104611@N05","secret": "248b4248a6","title": "Orchid","loc": {"type": "Point","coordinates": [103.81416,1.313097]}} 
{"id": "8171936331","server": "8198","farm": "9","userId": "44104611@N05","secret": "beb22050c5","title": "Orchid","loc": {"type": "Point","coordinates": [103.81411,1.312958]}} 
{"id": "8119165927","server": "8050","farm": "9","userId": "8284816@N05","secret": "9960706668","title": "","loc": {"type": "Point","coordinates": [103.81416,1.313333]}} 
{"id": "8119176530","server": "8186","farm": "9","userId": "8284816@N05","secret": "933cb741e9","title": "","loc": {"type": "Point","coordinates": [103.81433,1.313333]}} 
{"id": "8119150978","server": "8054","farm": "9","userId": "8284816@N05","secret": "52ff0016cd","title": "","loc": {"type": "Point","coordinates": [103.81467,1.315]}} 
{"id": "8119153404","server": "8473","farm": "9","userId": "8284816@N05","secret": "4e9bbb5313","title": "","loc": {"type": "Point","coordinates": [103.81433,1.315167]}} 
{"id": "8119139601","server": "8470","farm": "9","userId": "8284816@N05","secret": "4d44ae9211","title": "","loc": {"type": "Point","coordinates": [103.8145,1.315167]}} 
{"id": "8114287483","server": "8463","farm": "9","userId": "10619900@N06","secret": "96a6f62fc7","title": "Carinvores!!","loc": {"type": "Point","coordinates": [103.81396,1.313308]}} 
{"id": "8114285177","server": "8193","farm": "9","userId": "10619900@N06","secret": "8ca8568ae6","title": "","loc": {"type": "Point","coordinates": [103.81396,1.313308]}} 
{"id": "8114297344","server": "8331","farm": "9","userId": "10619900@N06","secret": "b0924b19fd","title": "","loc": {"type": "Point","coordinates": [103.81396,1.313308]}} 
{"id": "8114299750","server": "8325","farm": "9","userId": "10619900@N06","secret": "074606cc25","title": "","loc": {"type": "Point","coordinates": [103.81396,1.313308]}} 
{"id": "8090497615","server": "8330","farm": "9","userId": "28137664@N03","secret": "b3d2084400","title": "Greenery, Singapore Botanic Gardens","loc": {"type": "Point","coordinates": [103.81439,1.315143]}} 
{"id": "8090500463","server": "8184","farm": "9","userId": "28137664@N03","secret": "6c8d1a591f","title": "Singapore Botanic Gardens","loc": {"type": "Point","coordinates": [103.81439,1.315143]}} 
{"id": "8082045477","server": "8188","farm": "9","userId": "85852140@N05","secret": "bfdb36ce42","title": "Eine kleine Postion Schnee-Eis","loc": {"type": "Point","coordinates": [103.81497,1.315472]}} 
{"id": "8053094857","server": "8462","farm": "9","userId": "80373436@N00","secret": "6a1dba731c","title": "20120927-_IGP2361","loc": {"type": "Point","coordinates": [103.81459,1.313694]}} 
{"id": "8053095029","server": "8040","farm": "9","userId": "80373436@N00","secret": "3a894d92cd","title": "20120927-_IGP2355","loc": {"type": "Point","coordinates": [103.81413,1.313297]}} 
{"id": "8046124379","server": "8449","farm": "9","userId": "87827337@N08","secret": "f5af051cba","title": "Snail","loc": {"type": "Point","coordinates": [103.815,1.3145]}} 
{"id": "8046116906","server": "8174","farm": "9","userId": "87827337@N08","secret": "9e211892fd","title": "Feeding the pigeons","loc": {"type": "Point","coordinates": [103.815,1.314333]}} 
