{"id": "9139096344","server": "7419","farm": "8","userId": "38909255@N03","secret": "608223e6ca","title": "Normal cable tv speeds #notbad #speedtest","loc": {"type": "Point","coordinates": [103.83383,1.432871]}} 
{"id": "9136864723","server": "3811","farm": "4","userId": "38909255@N03","secret": "0bc2d39218","title": "Sabi nga nila big things starts...","loc": {"type": "Point","coordinates": [103.831085,1.432158]}} 
{"id": "9139085318","server": "3829","farm": "4","userId": "38909255@N03","secret": "8f143d2141","title": "Tinapay pa ba ito? #bake #bread...","loc": {"type": "Point","coordinates": [103.83383,1.432871]}} 
{"id": "9139087728","server": "7441","farm": "8","userId": "38909255@N03","secret": "9de153f2af","title": "Majinit talaga #weather #instaweather #instaweatherpro #androidonly...","loc": {"type": "Point","coordinates": [103.83383,1.432871]}} 
{"id": "9136852093","server": "2884","farm": "3","userId": "38909255@N03","secret": "0f103df903","title": "Nakakain din after mannnnnyyyy long hours...","loc": {"type": "Point","coordinates": [103.83383,1.432871]}} 
{"id": "9139080172","server": "7354","farm": "8","userId": "38909255@N03","secret": "611cc81c52","title": "Stella ruiz. Artois pala. golden cap...","loc": {"type": "Point","coordinates": [103.83383,1.432871]}} 
{"id": "8821916342","server": "7284","farm": "8","userId": "12869409@N04","secret": "eac5a0ef81","title": "Finally lunch!","loc": {"type": "Point","coordinates": [103.829704,1.433056]}} 
{"id": "8602616722","server": "8113","farm": "9","userId": "77714914@N07","secret": "51504065f7","title": "Chong Pang","loc": {"type": "Point","coordinates": [103.83053,1.431367]}} 
{"id": "8561360889","server": "8247","farm": "9","userId": "90968474@N06","secret": "bd8991130f","title": "Better and Faster ! .... Interested ?","loc": {"type": "Point","coordinates": [103.83234,1.431296]}} 
{"id": "8448318881","server": "8497","farm": "9","userId": "90968474@N06","secret": "1b01e6eb66","title": "Light up your lips with Sonya’s healthy lip shine. This luxurious, nourishing gloss is infused with our very own Aloe Vera. Available in six luscious shades, this collection of light-up Luscious Lip Colour from Sonya® is the answer to the perfect smile!","loc": {"type": "Point","coordinates": [103.83234,1.431296]}} 
{"id": "8443138904","server": "8330","farm": "9","userId": "90968474@N06","secret": "5189e62163","title": "OPEN to All Facebook users located on Singapore, Malaysia and Brunei ! LiKE this link : http://alturl.com/pdmrr , then submit your own Best Moment photo to win a brand new iPad mini ! #yishun #singapore2012","loc": {"type": "Point","coordinates": [103.83202,1.431228]}} 
{"id": "8375876232","server": "8356","farm": "9","userId": "90968474@N06","secret": "87a7f9889f","title": "Feel like something is missing from your weight loss program ? Try Forever Lean - it contains two revolutionary ingredients that can help reduce the body’s absorption of calories from fat and carbohydrates to help you succeed in your quest to reach your i","loc": {"type": "Point","coordinates": [103.831764,1.431705]}} 
{"id": "8357159699","server": "8047","farm": "9","userId": "90968474@N06","secret": "b35b04b0a3","title": "2013 CNY Hamper ( SGD 48 only ) ... Taking orders now !","loc": {"type": "Point","coordinates": [103.831764,1.431706]}} 
{"id": "8160691493","server": "7279","farm": "8","userId": "85252992@N06","secret": "8bbe11646b","title": "Mercedes-Benz OC500LE Gemilang","loc": {"type": "Point","coordinates": [103.83002,1.434434]}} 
{"id": "8099576491","server": "8472","farm": "9","userId": "85252992@N06","secret": "d74fd60073","title": "Mercedes-Benz O405G Hispano Habit","loc": {"type": "Point","coordinates": [103.829994,1.434467]}} 
{"id": "8099580619","server": "8474","farm": "9","userId": "85252992@N06","secret": "fff5af5c55","title": "Mercedes-Benz O405G Hispano Habit","loc": {"type": "Point","coordinates": [103.829994,1.434681]}} 
{"id": "8066204187","server": "8169","farm": "9","userId": "85252992@N06","secret": "0c7258277d","title": "Mercedes-Benz O405G Hispano Habit","loc": {"type": "Point","coordinates": [103.8301,1.434488]}} 
{"id": "8066209990","server": "8034","farm": "9","userId": "85252992@N06","secret": "b1dedf7c84","title": "Mercedes-Benz O405G Hispano Habit","loc": {"type": "Point","coordinates": [103.83002,1.434424]}} 
{"id": "8066209895","server": "8458","farm": "9","userId": "85252992@N06","secret": "2bf19ed49f","title": "Mercedes-Benz O405 Hispano","loc": {"type": "Point","coordinates": [103.829414,1.43393]}} 
{"id": "9330246879","server": "7448","farm": "8","userId": "36427961@N06","secret": "08c9606552","title": "Grocery with bromie. #bromie #brompton #grocery #cucumber  #urban","loc": {"type": "Point","coordinates": [103.82844,1.430831]}} 
{"id": "9136859167","server": "3698","farm": "4","userId": "38909255@N03","secret": "452ff0c11c","title": "Water chestnut drink. #chestnut #drinks #coolers","loc": {"type": "Point","coordinates": [103.833786,1.432096]}} 
{"id": "9139088230","server": "2856","farm": "3","userId": "38909255@N03","secret": "7da8901dd3","title": "Alak day again #absolut #vodka #peach...","loc": {"type": "Point","coordinates": [103.83383,1.432871]}} 
{"id": "9136857623","server": "7450","farm": "8","userId": "38909255@N03","secret": "8495399463","title": "Gummy candies #gummy #candy #fruit #sweets","loc": {"type": "Point","coordinates": [103.83383,1.432871]}} 
{"id": "9136859619","server": "2870","farm": "3","userId": "38909255@N03","secret": "c511aaa2f5","title": "The authentic hainanese chicken rice #hainaese...","loc": {"type": "Point","coordinates": [103.833786,1.432096]}} 
{"id": "9139085750","server": "5498","farm": "6","userId": "38909255@N03","secret": "b42ce6789f","title": "Kasarap mo namang green tea na...","loc": {"type": "Point","coordinates": [103.83383,1.432871]}} 
{"id": "9136860061","server": "3682","farm": "4","userId": "38909255@N03","secret": "bc182bb5bb","title": "The roti prata and the #dikoalam...","loc": {"type": "Point","coordinates": [103.83398,1.432896]}} 
{"id": "9136852827","server": "7455","farm": "8","userId": "38909255@N03","secret": "d82211bf0d","title": "Booze #alcohol #alak #booze #anchor #colt45 #beer","loc": {"type": "Point","coordinates": [103.83383,1.432871]}} 
{"id": "9139080936","server": "3741","farm": "4","userId": "38909255@N03","secret": "12f82a4a9b","title": "square of hapinnes #booze #alcohol...","loc": {"type": "Point","coordinates": [103.83383,1.432871]}} 
{"id": "8813177854","server": "7420","farm": "8","userId": "49098167@N07","secret": "9b30875a4d","title": "After a day of mugging, the drink tasted just so rewarding to her ;)","loc": {"type": "Point","coordinates": [103.835625,1.430216]}} 
{"id": "8739914379","server": "7292","farm": "8","userId": "94346589@N03","secret": "3c8f5eb802","title": "#instafood #instafoodapp #instagood #food #foodporn #photooftheday #picoftheday #instadaily #singapore  #swensensrestaurant@northpointshoppingcentre #food #foodporn #restaurant #yummy #day","loc": {"type": "Point","coordinates": [103.835724,1.430277]}} 
{"id": "8733911450","server": "7319","farm": "8","userId": "45859432@N04","secret": "3a06968553","title": "","loc": {"type": "Point","coordinates": [103.82716,1.435166]}} 
{"id": "8733913538","server": "7293","farm": "8","userId": "45859432@N04","secret": "3e1d981306","title": "","loc": {"type": "Point","coordinates": [103.82733,1.435166]}} 
{"id": "8732796477","server": "7287","farm": "8","userId": "45859432@N04","secret": "e9a6da87c4","title": "","loc": {"type": "Point","coordinates": [103.82716,1.435166]}} 
{"id": "8733910278","server": "7324","farm": "8","userId": "45859432@N04","secret": "0b337d755b","title": "","loc": {"type": "Point","coordinates": [103.827,1.4355]}} 
{"id": "8733892670","server": "7303","farm": "8","userId": "45859432@N04","secret": "a33dc9d76f","title": "","loc": {"type": "Point","coordinates": [103.82716,1.4355]}} 
{"id": "8672607750","server": "8532","farm": "9","userId": "93969327@N07","secret": "9dfdf12c04","title": "Follow us @ http://fb.com/SGEventPhotographers  www.SGEventPhotographers.sg © 2013 All Rights Reserved","loc": {"type": "Point","coordinates": [103.827805,1.433543]}} 
{"id": "8671341111","server": "8115","farm": "9","userId": "36993742@N00","secret": "35cf9a2aaf","title": "A Day without Work!","loc": {"type": "Point","coordinates": [103.82844,1.431324]}} 
{"id": "8672442608","server": "8261","farm": "9","userId": "36993742@N00","secret": "a7c5724880","title": "A Day without Work!","loc": {"type": "Point","coordinates": [103.82844,1.431324]}} 
{"id": "8672442192","server": "8535","farm": "9","userId": "36993742@N00","secret": "86da024209","title": "A Day without Work!","loc": {"type": "Point","coordinates": [103.82844,1.431324]}} 
{"id": "8672441360","server": "8536","farm": "9","userId": "36993742@N00","secret": "c9a23e2ef6","title": "A Day without Work!","loc": {"type": "Point","coordinates": [103.82844,1.431324]}} 
{"id": "8613891984","server": "8383","farm": "9","userId": "94346589@N03","secret": "c4016215ac","title": "Going to watch movie.","loc": {"type": "Point","coordinates": [103.83657,1.430113]}} 
{"id": "8613892692","server": "8526","farm": "9","userId": "94346589@N03","secret": "d3d5f90d94","title": "Going to watch movie.","loc": {"type": "Point","coordinates": [103.83657,1.430113]}} 
{"id": "8612783763","server": "8519","farm": "9","userId": "94346589@N03","secret": "53857dacc5","title": "Going to watch movie.","loc": {"type": "Point","coordinates": [103.83657,1.430113]}} 
{"id": "8605882638","server": "8113","farm": "9","userId": "77714914@N07","secret": "b35e7f2dd0","title": "Chong Pang Market","loc": {"type": "Point","coordinates": [103.828064,1.431775]}} 
{"id": "8601516797","server": "8527","farm": "9","userId": "77714914@N07","secret": "bd74ec5637","title": "Chong Pang market","loc": {"type": "Point","coordinates": [103.82857,1.431442]}} 
{"id": "8556479733","server": "8093","farm": "9","userId": "86606207@N08","secret": "c7af454a4a","title": "DSC_6455","loc": {"type": "Point","coordinates": [103.826744,1.431138]}} 
{"id": "8556473075","server": "8088","farm": "9","userId": "86606207@N08","secret": "13afcd97f5","title": "Chili Petai","loc": {"type": "Point","coordinates": [103.82686,1.431138]}} 
{"id": "8557580696","server": "8528","farm": "9","userId": "86606207@N08","secret": "94f4b6b148","title": "Pig Organ Soup","loc": {"type": "Point","coordinates": [103.82693,1.431155]}} 
{"id": "8557588230","server": "8514","farm": "9","userId": "86606207@N08","secret": "3c5498015e","title": "BBQ Sambal Sotong","loc": {"type": "Point","coordinates": [103.82695,1.431144]}} 
{"id": "8557590224","server": "8385","farm": "9","userId": "86606207@N08","secret": "f5aaedc8c9","title": "Oyster Omelette 蚵仔煎","loc": {"type": "Point","coordinates": [103.82685,1.431133]}} 
{"id": "8556474397","server": "8089","farm": "9","userId": "86606207@N08","secret": "349abd29ca","title": "DSC_6444","loc": {"type": "Point","coordinates": [103.826866,1.431138]}} 
{"id": "8556471365","server": "8246","farm": "9","userId": "86606207@N08","secret": "53f0c1a1c5","title": "Petai","loc": {"type": "Point","coordinates": [103.826775,1.431186]}} 
{"id": "8556477229","server": "8376","farm": "9","userId": "86606207@N08","secret": "3c7f5dac87","title": "BBQ Sambal Stingray","loc": {"type": "Point","coordinates": [103.826935,1.431088]}} 
{"id": "8557585474","server": "8513","farm": "9","userId": "86606207@N08","secret": "dd9609a8d5","title": "Steamed Gong Gong (Conch)","loc": {"type": "Point","coordinates": [103.826805,1.431177]}} 
{"id": "8458646338","server": "8374","farm": "9","userId": "7221872@N02","secret": "b2ec2b33da","title": "time","loc": {"type": "Point","coordinates": [103.828354,1.431077]}} 
{"id": "8457045697","server": "8086","farm": "9","userId": "77714914@N07","secret": "5376d98132","title": "Mom and Dad","loc": {"type": "Point","coordinates": [103.82812,1.431742]}} 
{"id": "8458146730","server": "8513","farm": "9","userId": "77714914@N07","secret": "527c39ec00","title": "Chilli","loc": {"type": "Point","coordinates": [103.82838,1.431142]}} 
{"id": "8458146550","server": "8367","farm": "9","userId": "77714914@N07","secret": "1a8e9358e1","title": "Untitled","loc": {"type": "Point","coordinates": [103.82838,1.431013]}} 
{"id": "8458146904","server": "8088","farm": "9","userId": "77714914@N07","secret": "1868d25bf3","title": "Wooden boxes","loc": {"type": "Point","coordinates": [103.82812,1.431807]}} 
{"id": "8457045219","server": "8379","farm": "9","userId": "77714914@N07","secret": "37448bce71","title": "Market","loc": {"type": "Point","coordinates": [103.8284,1.43112]}} 
{"id": "8457046827","server": "8106","farm": "9","userId": "77714914@N07","secret": "d6b851e4b4","title": "Closed for the season","loc": {"type": "Point","coordinates": [103.82846,1.431485]}} 
{"id": "8457045969","server": "8102","farm": "9","userId": "77714914@N07","secret": "83a5863645","title": "Ducks for collection","loc": {"type": "Point","coordinates": [103.82715,1.431163]}} 
{"id": "8457046619","server": "8506","farm": "9","userId": "77714914@N07","secret": "a4d8d07926","title": "Local butcher","loc": {"type": "Point","coordinates": [103.82816,1.431721]}} 
{"id": "8375675959","server": "8333","farm": "9","userId": "91490120@N06","secret": "de4d839d5e","title": "Happy boy enjoying candy floss. #chongpang #bored #candyfloss #instagram #instafollower #hi #bye","loc": {"type": "Point","coordinates": [103.82844,1.430831]}} 
{"id": "8350798958","server": "8235","farm": "9","userId": "16102830@N05","secret": "3b64946900","title": "1212_DecemberRandoms_HR_029","loc": {"type": "Point","coordinates": [103.8355,1.430166]}} 
{"id": "8349737015","server": "8043","farm": "9","userId": "16102830@N05","secret": "2ea7d01d27","title": "1212_DecemberRandoms_HR_028","loc": {"type": "Point","coordinates": [103.8355,1.430166]}} 
{"id": "8350630308","server": "8219","farm": "9","userId": "16102830@N05","secret": "ab0ce02098","title": "1211_NovemberRandoms_HR_082","loc": {"type": "Point","coordinates": [103.8355,1.429833]}} 
{"id": "8350186940","server": "8473","farm": "9","userId": "16102830@N05","secret": "4b0b0693e4","title": "1210_OctoberRandoms_HR_025","loc": {"type": "Point","coordinates": [103.8355,1.430333]}} 
{"id": "8349125253","server": "8357","farm": "9","userId": "16102830@N05","secret": "a583446ceb","title": "1210_OctoberRandoms_HR_024","loc": {"type": "Point","coordinates": [103.8355,1.430333]}} 
{"id": "8349085784","server": "8050","farm": "9","userId": "16102830@N05","secret": "b75a249179","title": "1205_MayRandoms_HR_172","loc": {"type": "Point","coordinates": [103.8355,1.430166]}} 
{"id": "8315188154","server": "8498","farm": "9","userId": "48332226@N08","secret": "b818835dbb","title": "View of the wonderful dusk #2/2","loc": {"type": "Point","coordinates": [103.83489,1.433016]}} 
{"id": "8311751440","server": "8356","farm": "9","userId": "48332226@N08","secret": "f0605fe7c1","title": "Band mates #06/10","loc": {"type": "Point","coordinates": [103.8351,1.429897]}} 
{"id": "8309930695","server": "8355","farm": "9","userId": "39926850@N04","secret": "2f954fed02","title": "#coffee #family","loc": {"type": "Point","coordinates": [103.83546,1.429827]}} 
{"id": "8206877223","server": "8204","farm": "9","userId": "82735610@N05","secret": "930738f042","title": "Upside down","loc": {"type": "Point","coordinates": [103.83572,1.43053]}} 
{"id": "8206876953","server": "8337","farm": "9","userId": "82735610@N05","secret": "25489d6dac","title": "Light trails","loc": {"type": "Point","coordinates": [103.83593,1.430888]}} 
{"id": "8207967610","server": "8066","farm": "9","userId": "82735610@N05","secret": "4e256487ca","title": "Trail of lines","loc": {"type": "Point","coordinates": [103.837074,1.430561]}} 
{"id": "8207966776","server": "8203","farm": "9","userId": "82735610@N05","secret": "41221c6c88","title": "X","loc": {"type": "Point","coordinates": [103.83567,1.430713]}} 
{"id": "8073261526","server": "8458","farm": "9","userId": "51294514@N06","secret": "c2a72b0fc4","title": "Ahmad Fathuzzaman before his Circumcision Appointment #androidography","loc": {"type": "Point","coordinates": [103.827415,1.43199]}} 
