{"id": "8374930587","server": "8498","farm": "9","userId": "52267049@N07","secret": "b63d376c94","title": "At Larkin Stadium. Johor DT vs Perak","loc": {"type": "Point","coordinates": [103.75118,1.497245]}} 
{"id": "8827976150","server": "5449","farm": "6","userId": "31991466@N05","secret": "7cc22f9d65","title": "Johor vs pahang","loc": {"type": "Point","coordinates": [103.7505,1.497666]}} 
{"id": "8827944094","server": "3704","farm": "4","userId": "31991466@N05","secret": "60727eb825","title": "Johor vs pahang","loc": {"type": "Point","coordinates": [103.75066,1.496833]}} 
{"id": "8828005758","server": "3727","farm": "4","userId": "31991466@N05","secret": "2d0762cfc0","title": "Johor vs pahang","loc": {"type": "Point","coordinates": [103.749664,1.497666]}} 
{"id": "8813959224","server": "7316","farm": "8","userId": "31991466@N05","secret": "2fc1a9b258","title": "Mom and dad","loc": {"type": "Point","coordinates": [103.75083,1.497166]}} 
{"id": "8780801953","server": "5325","farm": "6","userId": "46058036@N03","secret": "2250af8c1c","title": "This is Larkin!","loc": {"type": "Point","coordinates": [103.75205,1.496483]}} 
{"id": "8782654458","server": "3803","farm": "4","userId": "46058036@N03","secret": "6f4e7048ee","title": "V for @asmeahmad detta","loc": {"type": "Point","coordinates": [103.751816,1.496478]}} 
{"id": "8729535392","server": "7357","farm": "8","userId": "24309662@N05","secret": "46ac241d51","title": "JDT vs PKNS","loc": {"type": "Point","coordinates": [103.751076,1.496578]}} 
{"id": "8728417251","server": "7430","farm": "8","userId": "24309662@N05","secret": "f6ffa8cc32","title": "JDT vs PKNS","loc": {"type": "Point","coordinates": [103.751076,1.496578]}} 
{"id": "8728417669","server": "7384","farm": "8","userId": "24309662@N05","secret": "4834b8a578","title": "JDT vs PKNS","loc": {"type": "Point","coordinates": [103.751076,1.496578]}} 
{"id": "8729534570","server": "7400","farm": "8","userId": "24309662@N05","secret": "d1655da70a","title": "JDT vs PKNS","loc": {"type": "Point","coordinates": [103.751076,1.496578]}} 
{"id": "8728416493","server": "7287","farm": "8","userId": "24309662@N05","secret": "86cefc2814","title": "JDT vs PKNS","loc": {"type": "Point","coordinates": [103.751076,1.496578]}} 
{"id": "8486688664","server": "8249","farm": "9","userId": "14385475@N05","secret": "3534b2669f","title": "IMG_2930","loc": {"type": "Point","coordinates": [103.74983,1.497833]}} 
{"id": "8245319935","server": "8341","farm": "9","userId": "28673010@N05","secret": "ea25b3dc2e","title": "2009 04 07 12 47 DSC09823 ラルキン・スタジアム (ジョホールバル)","loc": {"type": "Point","coordinates": [103.751495,1.497494]}} 
