{"id": "9331242937","server": "2858","farm": "3","userId": "35468141938@N01","secret": "59f80a2582","title": "-= Endless Road =- One sees a passage to hell, Another a path to heaven, The cyclist knows no bound, Never ceasing in curiosity, For worlds within worlds, All awaiting to be explored.","loc": {"type": "Point","coordinates": [103.69467,1.372215]}} 
{"id": "8463401595","server": "8095","farm": "9","userId": "70234296@N00","secret": "e92efa94ed","title": "Crystal lily","loc": {"type": "Point","coordinates": [103.68835,1.370799]}} 
{"id": "8463390745","server": "8096","farm": "9","userId": "70234296@N00","secret": "08aeab0006","title": "look like rose, nice.","loc": {"type": "Point","coordinates": [103.68835,1.370799]}} 
{"id": "8464483532","server": "8531","farm": "9","userId": "70234296@N00","secret": "9cdedcc7bf","title": "I'm not Buddhist but I like photography.","loc": {"type": "Point","coordinates": [103.68856,1.37119]}} 
{"id": "8349595907","server": "8192","farm": "9","userId": "16102830@N05","secret": "d5b403e84f","title": "1211_NovemberRandoms_HR_002","loc": {"type": "Point","coordinates": [103.688835,1.3735]}} 
{"id": "8348058563","server": "8217","farm": "9","userId": "16102830@N05","secret": "3dcb48564a","title": "1205_MayRandoms_HR_093","loc": {"type": "Point","coordinates": [103.69417,1.370833]}} 
{"id": "8348047769","server": "8045","farm": "9","userId": "16102830@N05","secret": "4279f76c6c","title": "1205_MayRandoms_HR_109","loc": {"type": "Point","coordinates": [103.69417,1.370833]}} 
{"id": "8349117448","server": "8222","farm": "9","userId": "16102830@N05","secret": "6313d689e8","title": "1205_MayRandoms_HR_092","loc": {"type": "Point","coordinates": [103.69417,1.370833]}} 
