{"id": "9302186429","server": "3709","farm": "4","userId": "20636317@N00","secret": "6e5f318c30","title": "Botanic gardens","loc": {"type": "Point","coordinates": [103.81834,1.321166]}} 
{"id": "9190977586","server": "7340","farm": "8","userId": "54048808@N00","secret": "aef6a0ddb2","title": "Summertime fun with sand and water.","loc": {"type": "Point","coordinates": [103.81883,1.321833]}} 
{"id": "9125737303","server": "7454","farm": "8","userId": "58196275@N04","secret": "4c9bbf6835","title": "Lesser whistling duck","loc": {"type": "Point","coordinates": [103.8167,1.320924]}} 
{"id": "9046002539","server": "3667","farm": "4","userId": "96686496@N02","secret": "95e819a5e4","title": "Ham & cheese, egg mayo, tuna mayo made by @Priscias #PeeknicSBG2013 #sgmemory","loc": {"type": "Point","coordinates": [103.81596,1.320699]}} 
{"id": "8627954934","server": "8544","farm": "9","userId": "47291429@N04","secret": "bd8d1b36fa","title": "The Eco-Lake @ Botanic Gardens (Singapore) <Panorama>","loc": {"type": "Point","coordinates": [103.816185,1.321525]}} 
{"id": "8627633818","server": "8249","farm": "9","userId": "47291429@N04","secret": "66469872a7","title": "Ant 蚂蚁","loc": {"type": "Point","coordinates": [103.815994,1.322211]}} 
{"id": "8336379700","server": "8491","farm": "9","userId": "91223673@N06","secret": "9c90bc7cb7","title": "Life On The Rock","loc": {"type": "Point","coordinates": [103.816,1.321203]}} 
{"id": "9353650987","server": "7379","farm": "8","userId": "14932126@N08","secret": "57e5766885","title": "IMG_1403","loc": {"type": "Point","coordinates": [103.81567,1.322]}} 
{"id": "9353562935","server": "7303","farm": "8","userId": "14932126@N08","secret": "555f45331f","title": "IMG_1480","loc": {"type": "Point","coordinates": [103.82,1.320666]}} 
{"id": "9356358310","server": "3729","farm": "4","userId": "14932126@N08","secret": "96d3801a5e","title": "IMG_1457","loc": {"type": "Point","coordinates": [103.81733,1.321166]}} 
{"id": "9356426678","server": "3731","farm": "4","userId": "14932126@N08","secret": "f26e345136","title": "IMG_1404","loc": {"type": "Point","coordinates": [103.81567,1.322]}} 
{"id": "9356428658","server": "5340","farm": "6","userId": "14932126@N08","secret": "6f6ef99f37","title": "IMG_1401","loc": {"type": "Point","coordinates": [103.81567,1.322]}} 
{"id": "9353584287","server": "3773","farm": "4","userId": "14932126@N08","secret": "f539333b33","title": "IMG_1453","loc": {"type": "Point","coordinates": [103.81733,1.321166]}} 
{"id": "9353601053","server": "2826","farm": "3","userId": "14932126@N08","secret": "c11a7ca6a3","title": "IMG_1442","loc": {"type": "Point","coordinates": [103.817,1.322166]}} 
{"id": "9353579345","server": "5549","farm": "6","userId": "14932126@N08","secret": "5d737e42aa","title": "IMG_1458","loc": {"type": "Point","coordinates": [103.81733,1.321166]}} 
{"id": "9356336048","server": "3771","farm": "4","userId": "14932126@N08","secret": "bbbf9717dd","title": "IMG_1424","loc": {"type": "Point","coordinates": [103.81633,1.322166]}} 
{"id": "9356356070","server": "3783","farm": "4","userId": "14932126@N08","secret": "e344a20231","title": "IMG_1463","loc": {"type": "Point","coordinates": [103.81733,1.321166]}} 
{"id": "9353608779","server": "3692","farm": "4","userId": "14932126@N08","secret": "35c810a32a","title": "IMG_1433","loc": {"type": "Point","coordinates": [103.81633,1.322166]}} 
{"id": "9356359438","server": "5337","farm": "6","userId": "14932126@N08","secret": "10b63c7cb2","title": "IMG_1456","loc": {"type": "Point","coordinates": [103.81733,1.321166]}} 
{"id": "9356405700","server": "3712","farm": "4","userId": "14932126@N08","secret": "a8707a0f0f","title": "IMG_1413","loc": {"type": "Point","coordinates": [103.81567,1.322]}} 
{"id": "9353584977","server": "5489","farm": "6","userId": "14932126@N08","secret": "87f7b5d969","title": "IMG_1452","loc": {"type": "Point","coordinates": [103.81733,1.321166]}} 
{"id": "9353589769","server": "5546","farm": "6","userId": "14932126@N08","secret": "b3bb0a4dbe","title": "IMG_1448","loc": {"type": "Point","coordinates": [103.817,1.321666]}} 
{"id": "9356363240","server": "3735","farm": "4","userId": "14932126@N08","secret": "ca7f15cdc3","title": "IMG_1451","loc": {"type": "Point","coordinates": [103.81733,1.321166]}} 
{"id": "9353566319","server": "2869","farm": "3","userId": "14932126@N08","secret": "93aa4f0056","title": "IMG_1476","loc": {"type": "Point","coordinates": [103.81783,1.320666]}} 
{"id": "9356347022","server": "3697","farm": "4","userId": "14932126@N08","secret": "0735f0004b","title": "IMG_1472","loc": {"type": "Point","coordinates": [103.81733,1.321166]}} 
{"id": "9353625701","server": "2826","farm": "3","userId": "14932126@N08","secret": "4cec980be2","title": "IMG_1415","loc": {"type": "Point","coordinates": [103.816,1.322166]}} 
{"id": "9356342380","server": "5530","farm": "6","userId": "14932126@N08","secret": "8bfb44fd50","title": "IMG_1477","loc": {"type": "Point","coordinates": [103.818,1.320666]}} 
{"id": "9356348050","server": "2863","farm": "3","userId": "14932126@N08","secret": "6b8227d129","title": "IMG_1471","loc": {"type": "Point","coordinates": [103.81733,1.321166]}} 
{"id": "9356396364","server": "2815","farm": "3","userId": "14932126@N08","secret": "8b84b8f1d6","title": "IMG_1420","loc": {"type": "Point","coordinates": [103.81633,1.322166]}} 
{"id": "9353561009","server": "2845","farm": "3","userId": "14932126@N08","secret": "2910b6746c","title": "IMG_1484","loc": {"type": "Point","coordinates": [103.81533,1.3205]}} 
{"id": "9353606769","server": "3718","farm": "4","userId": "14932126@N08","secret": "f7579f3c82","title": "IMG_1435","loc": {"type": "Point","coordinates": [103.817,1.322]}} 
{"id": "9353572377","server": "5327","farm": "6","userId": "14932126@N08","secret": "ce4ff1ea4a","title": "IMG_1469","loc": {"type": "Point","coordinates": [103.81733,1.321166]}} 
{"id": "9356351862","server": "7449","farm": "8","userId": "14932126@N08","secret": "bdcf12ccb9","title": "IMG_1467","loc": {"type": "Point","coordinates": [103.81733,1.321166]}} 
{"id": "9353607707","server": "5333","farm": "6","userId": "14932126@N08","secret": "b9686eebae","title": "IMG_1434","loc": {"type": "Point","coordinates": [103.81633,1.322166]}} 
{"id": "9356425226","server": "7287","farm": "8","userId": "14932126@N08","secret": "6a6309223f","title": "IMG_1406","loc": {"type": "Point","coordinates": [103.81567,1.322]}} 
{"id": "9356406990","server": "2857","farm": "3","userId": "14932126@N08","secret": "36ede6de26","title": "IMG_1412","loc": {"type": "Point","coordinates": [103.81567,1.322]}} 
{"id": "9356350662","server": "5449","farm": "6","userId": "14932126@N08","secret": "a56551066a","title": "IMG_1468","loc": {"type": "Point","coordinates": [103.81733,1.321166]}} 
{"id": "9356337538","server": "7329","farm": "8","userId": "14932126@N08","secret": "f86ebf1911","title": "IMG_1486","loc": {"type": "Point","coordinates": [103.81533,1.3205]}} 
{"id": "9356403862","server": "7341","farm": "8","userId": "14932126@N08","secret": "3c17b80999","title": "IMG_1414","loc": {"type": "Point","coordinates": [103.81567,1.322]}} 
{"id": "9353602657","server": "3725","farm": "4","userId": "14932126@N08","secret": "7008ed7556","title": "IMG_1440","loc": {"type": "Point","coordinates": [103.817,1.322166]}} 
{"id": "9356387276","server": "7396","farm": "8","userId": "14932126@N08","secret": "93e344049f","title": "IMG_1431","loc": {"type": "Point","coordinates": [103.81633,1.322166]}} 
{"id": "9353582775","server": "3772","farm": "4","userId": "14932126@N08","secret": "ee29a323bf","title": "IMG_1455","loc": {"type": "Point","coordinates": [103.81733,1.321166]}} 
{"id": "9353605577","server": "3670","farm": "4","userId": "14932126@N08","secret": "f68a0cda87","title": "IMG_1436","loc": {"type": "Point","coordinates": [103.817,1.322]}} 
{"id": "9356377838","server": "7460","farm": "8","userId": "14932126@N08","secret": "567f19e318","title": "IMG_1443","loc": {"type": "Point","coordinates": [103.817,1.322166]}} 
{"id": "9353603467","server": "2849","farm": "3","userId": "14932126@N08","secret": "1881eaf78a","title": "IMG_1439","loc": {"type": "Point","coordinates": [103.817,1.322166]}} 
{"id": "9353588235","server": "5347","farm": "6","userId": "14932126@N08","secret": "c676b898ff","title": "IMG_1449","loc": {"type": "Point","coordinates": [103.817,1.321666]}} 
{"id": "9353638275","server": "2830","farm": "3","userId": "14932126@N08","secret": "a98047c389","title": "IMG_1409","loc": {"type": "Point","coordinates": [103.81567,1.322]}} 
{"id": "9353623317","server": "7370","farm": "8","userId": "14932126@N08","secret": "48b36980cc","title": "IMG_1417","loc": {"type": "Point","coordinates": [103.81617,1.322166]}} 
{"id": "9353564175","server": "7407","farm": "8","userId": "14932126@N08","secret": "ca3a068a0c","title": "IMG_1478","loc": {"type": "Point","coordinates": [103.81783,1.321]}} 
{"id": "9353653761","server": "2808","farm": "3","userId": "14932126@N08","secret": "3efe18201c","title": "IMG_1399","loc": {"type": "Point","coordinates": [103.8155,1.322]}} 
{"id": "9353601831","server": "5458","farm": "6","userId": "14932126@N08","secret": "72bf38214c","title": "IMG_1441","loc": {"type": "Point","coordinates": [103.817,1.322166]}} 
{"id": "9356381362","server": "3770","farm": "4","userId": "14932126@N08","secret": "b8a1a0c531","title": "IMG_1438","loc": {"type": "Point","coordinates": [103.817,1.322166]}} 
{"id": "9353563633","server": "2842","farm": "3","userId": "14932126@N08","secret": "7df7b2067b","title": "IMG_1479","loc": {"type": "Point","coordinates": [103.81883,1.321333]}} 
{"id": "9356429262","server": "5513","farm": "6","userId": "14932126@N08","secret": "2a3a39ae97","title": "IMG_1400","loc": {"type": "Point","coordinates": [103.8155,1.322]}} 
{"id": "9353571475","server": "5331","farm": "6","userId": "14932126@N08","secret": "5ba1e220af","title": "IMG_1470","loc": {"type": "Point","coordinates": [103.81733,1.321166]}} 
{"id": "9356425876","server": "3817","farm": "4","userId": "14932126@N08","secret": "37f871f0d2","title": "IMG_1405","loc": {"type": "Point","coordinates": [103.81567,1.322]}} 
{"id": "9356370610","server": "3826","farm": "4","userId": "14932126@N08","secret": "19da98a8c5","title": "IMG_1446","loc": {"type": "Point","coordinates": [103.81683,1.321833]}} 
{"id": "9353604515","server": "2816","farm": "3","userId": "14932126@N08","secret": "7ab3e17816","title": "IMG_1437","loc": {"type": "Point","coordinates": [103.817,1.322166]}} 
{"id": "9356394920","server": "3799","farm": "4","userId": "14932126@N08","secret": "e83f702a85","title": "IMG_1421","loc": {"type": "Point","coordinates": [103.81633,1.322166]}} 
{"id": "9356344944","server": "3729","farm": "4","userId": "14932126@N08","secret": "d2f5a3ee2f","title": "IMG_1474","loc": {"type": "Point","coordinates": [103.818,1.3205]}} 
{"id": "9356355094","server": "7353","farm": "8","userId": "14932126@N08","secret": "a311565049","title": "IMG_1464","loc": {"type": "Point","coordinates": [103.81733,1.321166]}} 
{"id": "9353567219","server": "3736","farm": "4","userId": "14932126@N08","secret": "7497ea3687","title": "IMG_1475","loc": {"type": "Point","coordinates": [103.81817,1.320833]}} 
{"id": "9353610875","server": "5347","farm": "6","userId": "14932126@N08","secret": "ef7dee849b","title": "IMG_1430","loc": {"type": "Point","coordinates": [103.81633,1.322166]}} 
{"id": "9353651629","server": "7309","farm": "8","userId": "14932126@N08","secret": "ccbc5f12ec","title": "IMG_1402","loc": {"type": "Point","coordinates": [103.81567,1.322]}} 
{"id": "9356394018","server": "3688","farm": "4","userId": "14932126@N08","secret": "86e11a3637","title": "IMG_1422","loc": {"type": "Point","coordinates": [103.81633,1.322166]}} 
{"id": "9353586939","server": "3817","farm": "4","userId": "14932126@N08","secret": "b09fd2b7e0","title": "IMG_1450","loc": {"type": "Point","coordinates": [103.817,1.321666]}} 
{"id": "9353646493","server": "2883","farm": "3","userId": "14932126@N08","secret": "6929d00e52","title": "IMG_1407","loc": {"type": "Point","coordinates": [103.81567,1.322]}} 
{"id": "9356374616","server": "3802","farm": "4","userId": "14932126@N08","secret": "aeea2fcc40","title": "IMG_1445","loc": {"type": "Point","coordinates": [103.81683,1.321833]}} 
{"id": "9356353066","server": "5503","farm": "6","userId": "14932126@N08","secret": "bdaf445862","title": "IMG_1466","loc": {"type": "Point","coordinates": [103.81733,1.321166]}} 
{"id": "9356391308","server": "7373","farm": "8","userId": "14932126@N08","secret": "4ab3fb6c74","title": "IMG_1427","loc": {"type": "Point","coordinates": [103.81633,1.322166]}} 
{"id": "9353620753","server": "7299","farm": "8","userId": "14932126@N08","secret": "b591e6082c","title": "IMG_1419","loc": {"type": "Point","coordinates": [103.81633,1.322166]}} 
{"id": "9353591433","server": "7305","farm": "8","userId": "14932126@N08","secret": "8265206e9a","title": "IMG_1447","loc": {"type": "Point","coordinates": [103.817,1.321666]}} 
{"id": "9356388838","server": "3692","farm": "4","userId": "14932126@N08","secret": "b574225422","title": "IMG_1429","loc": {"type": "Point","coordinates": [103.81633,1.322166]}} 
{"id": "9356389994","server": "2835","farm": "3","userId": "14932126@N08","secret": "e4ea047ed5","title": "IMG_1428","loc": {"type": "Point","coordinates": [103.81633,1.322166]}} 
{"id": "9353621467","server": "2870","farm": "3","userId": "14932126@N08","secret": "326ebc7827","title": "IMG_1454","loc": {"type": "Point","coordinates": [103.81733,1.321166]}} 
{"id": "9356392640","server": "7316","farm": "8","userId": "14932126@N08","secret": "a3982a140a","title": "IMG_1425","loc": {"type": "Point","coordinates": [103.81633,1.322166]}} 
{"id": "9356345594","server": "3833","farm": "4","userId": "14932126@N08","secret": "e2d1227508","title": "IMG_1473","loc": {"type": "Point","coordinates": [103.81533,1.3205]}} 
{"id": "9353639557","server": "7450","farm": "8","userId": "14932126@N08","secret": "f27842ccea","title": "IMG_1408","loc": {"type": "Point","coordinates": [103.81567,1.322]}} 
{"id": "9356391974","server": "7365","farm": "8","userId": "14932126@N08","secret": "2008ab3b8e","title": "IMG_1426","loc": {"type": "Point","coordinates": [103.81633,1.322166]}} 
{"id": "9353624745","server": "5518","farm": "6","userId": "14932126@N08","secret": "99bb06e075","title": "IMG_1416","loc": {"type": "Point","coordinates": [103.816,1.322166]}} 
{"id": "9235161943","server": "3821","farm": "4","userId": "28872586@N00","secret": "494988ed65","title": "@fahmyishak crafting some amazing products , ballistic cord , repurposed military rucksack , made in #singapore #craft #designsg","loc": {"type": "Point","coordinates": [103.81583,1.322019]}} 
{"id": "9227156129","server": "7337","farm": "8","userId": "14932126@N08","secret": "c874ff5fbc","title": "","loc": {"type": "Point","coordinates": [103.815834,1.3205]}} 
{"id": "9227159357","server": "2849","farm": "3","userId": "14932126@N08","secret": "5822276068","title": "","loc": {"type": "Point","coordinates": [103.815834,1.3205]}} 
{"id": "9227149471","server": "3781","farm": "4","userId": "14932126@N08","secret": "58baf6de91","title": "","loc": {"type": "Point","coordinates": [103.815834,1.3205]}} 
{"id": "9229945946","server": "3708","farm": "4","userId": "14932126@N08","secret": "53672352f9","title": "","loc": {"type": "Point","coordinates": [103.815834,1.3205]}} 
{"id": "9229933244","server": "2829","farm": "3","userId": "14932126@N08","secret": "748f7cce92","title": "","loc": {"type": "Point","coordinates": [103.815834,1.3205]}} 
{"id": "9229942844","server": "5464","farm": "6","userId": "14932126@N08","secret": "ab5114be81","title": "","loc": {"type": "Point","coordinates": [103.815834,1.3205]}} 
{"id": "9171612542","server": "5539","farm": "6","userId": "76363932@N00","secret": "93463f9c78","title": "Ducks in a row","loc": {"type": "Point","coordinates": [103.816,1.320666]}} 
{"id": "9095323864","server": "2890","farm": "3","userId": "83981795@N08","secret": "2c9b4c33da","title": "20130613-DSCN4874.jpg","loc": {"type": "Point","coordinates": [103.81544,1.322361]}} 
{"id": "9095303760","server": "7349","farm": "8","userId": "83981795@N08","secret": "e8ccb4d058","title": "20130613-DSC_9759.jpg","loc": {"type": "Point","coordinates": [103.81595,1.321675]}} 
{"id": "9095282744","server": "3827","farm": "4","userId": "83981795@N08","secret": "0cb0849150","title": "20130613-DSC_9751.jpg","loc": {"type": "Point","coordinates": [103.81552,1.321116]}} 
{"id": "9074554594","server": "5541","farm": "6","userId": "96686496@N02","secret": "3ccc0179db","title": "Our lucky draw winner is attendee #3 - Jessica Lim! Congrats, you've won an admission ticket to National Orchid Garden! You'll be hearing from us via email really soon.  Disclaimer: We used the number generator from http://random.org","loc": {"type": "Point","coordinates": [103.81596,1.320699]}} 
{"id": "9074469566","server": "7400","farm": "8","userId": "96686496@N02","secret": "83de7b3579","title": "We're going to have a lucky draw for those who came for #PeeknicSBG2013. Here are the lucky numbers!","loc": {"type": "Point","coordinates": [103.81596,1.320699]}} 
{"id": "9049414318","server": "3833","farm": "4","userId": "96686496@N02","secret": "21f0d5c089","title": "Congrats, you've won $20 worth of shopping vouchers sponsored by @iremembersg! (:  Reposted from @visualwire 'Showed up at #peeknicsbg2013 #sgmemory'","loc": {"type": "Point","coordinates": [103.81596,1.320699]}} 
{"id": "9047110353","server": "7391","farm": "8","userId": "96686496@N02","secret": "9a30716b34","title": "Congrats, you've won a pairs of admission tickets to National Orchid Garden sponsored by NParks! (:  Reposted from @perivanic 'Taking picture of @debsho22's friend taking picture of a stranger,  taking picture of a swan! #peeknicsbg2013 #sgmemory #picnic'","loc": {"type": "Point","coordinates": [103.81596,1.320699]}} 
{"id": "9049215900","server": "2877","farm": "3","userId": "96686496@N02","secret": "aa9576345c","title": "Congrats, you've won $20 worth of shopping vouchers sponsored by @iremembersg  Reposted from @watthesuck 'Cupcakes for #peeknicsbg2013 #sgmemory by the @thelittlebowl'","loc": {"type": "Point","coordinates": [103.81596,1.320699]}} 
{"id": "9049067568","server": "2883","farm": "3","userId": "96686496@N02","secret": "4777bf562d","title": "The friendly swan from the Eco-Lake #PeeknicSBG2013 #sgmemory","loc": {"type": "Point","coordinates": [103.81596,1.320699]}} 
{"id": "9048968662","server": "3714","farm": "4","userId": "96686496@N02","secret": "0117424a73","title": "Congrats! You've won $20 worth of shopping vouchers sponsored by @iremembersg (:  Reposted from @zelciia '#peeknicsbg2013 #sgmemory @Perignonic'","loc": {"type": "Point","coordinates": [103.81596,1.320699]}} 
{"id": "9046561037","server": "2835","farm": "3","userId": "96686496@N02","secret": "f9c7d5eb33","title": "Congrats! You've won 2 admission tickets to National Orchid Garden sponsored by NParks.  Reposted from @uniquegrabs 'Help me with the Ugly Cupcake from Ugly Cake Shop. I am enjoying this cupcake at PeeknicSBG2013. Thanks to all the uncles and aunties!'","loc": {"type": "Point","coordinates": [103.81596,1.320699]}} 
{"id": "9048721686","server": "2839","farm": "3","userId": "96686496@N02","secret": "77f7d53c4d","title": "Congrats! You've won $20 worth of shopping vouchers sponsored by @iremembersg  Reposted from @noelong 'Please pick up the phone #noelong #peeknicSBG2013 #sgmemory'","loc": {"type": "Point","coordinates": [103.81596,1.320699]}} 
{"id": "9048694598","server": "5336","farm": "6","userId": "96686496@N02","secret": "acffefd23e","title": "Congrats! You've won $20 shopping vouchers sponsored by @iremembersg.  Reposted from @nouveaudiana 'Sally Chocolate Peanut Cupcakes by Uglycakes.sg #peeknicsbg2013 #sgmemory #food #foodporn #sgfood #igsg #dgwf #instafood #iphonesia #instamood #picoftheday","loc": {"type": "Point","coordinates": [103.81596,1.320699]}} 
{"id": "9046295463","server": "7431","farm": "8","userId": "96686496@N02","secret": "bcb64cbbcc","title": "Since our official photographer is nowhere to be found, our attendees started posing with the props themselves :D","loc": {"type": "Point","coordinates": [103.81596,1.320699]}} 
{"id": "9045982383","server": "2868","farm": "3","userId": "96686496@N02","secret": "7c819aa0ba","title": "Find us here #PeeknicSBG2013 #sgmemory","loc": {"type": "Point","coordinates": [103.81596,1.320699]}} 
{"id": "9045924421","server": "2882","farm": "3","userId": "96686496@N02","secret": "16489dfcc2","title": "The sun is smiling for us today at #PeeknicSBG2013 #sgmemory! (:","loc": {"type": "Point","coordinates": [103.81596,1.320699]}} 
{"id": "9045831495","server": "5542","farm": "6","userId": "96686496@N02","secret": "15b0b05e8c","title": "Repost from @thelittlebowl 'Ugly Cakes are all prepped for @peeknicsg ! See you there! :) #uglycakeshop #singapore  #goodeats #sgfood'","loc": {"type": "Point","coordinates": [103.81596,1.320699]}} 
{"id": "9039240515","server": "5471","farm": "6","userId": "96686496@N02","secret": "b715789395","title": "If you know what this symbol represents, you're awesome! ;) See you tmr at #PeeknicSBG2013.","loc": {"type": "Point","coordinates": [103.81596,1.320699]}} 
{"id": "9029986297","server": "2834","farm": "3","userId": "96686496@N02","secret": "94de8aea3d","title": "2 days left to #PeeknicSBG2013! 1 day left to register at http://peeknicsgtweetup.eventbrite.sg","loc": {"type": "Point","coordinates": [103.81596,1.320699]}} 
{"id": "9025591284","server": "3758","farm": "4","userId": "92888055@N00","secret": "647370de5f","title": "Mabuhey!","loc": {"type": "Point","coordinates": [103.82478,1.321642]}} 
{"id": "9025420084","server": "7401","farm": "8","userId": "40798914@N00","secret": "feb0ee9140","title": "IMG773","loc": {"type": "Point","coordinates": [103.8204,1.3262]}} 
{"id": "9012834251","server": "3804","farm": "4","userId": "43866013@N00","secret": "aa203b4ac6","title": "there was a bridge and well, i couldn't help it, could i...?","loc": {"type": "Point","coordinates": [103.81763,1.320645]}} 
{"id": "9003711913","server": "5339","farm": "6","userId": "96686496@N02","secret": "6a5c0452b5","title": "Forget about Monday. Just look forward to Saturday the 15th, okay? (:","loc": {"type": "Point","coordinates": [103.81596,1.320699]}} 
{"id": "8971987363","server": "3768","farm": "4","userId": "13394179@N06","secret": "53d8e2c6b9","title": "IMAG0352","loc": {"type": "Point","coordinates": [103.81555,1.321933]}} 
{"id": "8971987047","server": "2855","farm": "3","userId": "13394179@N06","secret": "42c3925ca4","title": "IMAG0357","loc": {"type": "Point","coordinates": [103.81557,1.320575]}} 
{"id": "8971986865","server": "2832","farm": "3","userId": "13394179@N06","secret": "880b84413c","title": "IMAG0358","loc": {"type": "Point","coordinates": [103.81547,1.320338]}} 
{"id": "8973180732","server": "2824","farm": "3","userId": "13394179@N06","secret": "acf484d78c","title": "IMAG0354","loc": {"type": "Point","coordinates": [103.81735,1.3216]}} 
{"id": "8971987231","server": "5458","farm": "6","userId": "13394179@N06","secret": "a684b737f3","title": "IMAG0353","loc": {"type": "Point","coordinates": [103.81693,1.322061]}} 
{"id": "8971987221","server": "3752","farm": "4","userId": "13394179@N06","secret": "708fd1b32c","title": "IMAG0355","loc": {"type": "Point","coordinates": [103.81682,1.320766]}} 
{"id": "8958988910","server": "5324","farm": "6","userId": "96686496@N02","secret": "1f49670bdb","title": "How do I qualify for this contest?","loc": {"type": "Point","coordinates": [103.81596,1.320699]}} 
{"id": "8864205410","server": "5456","farm": "6","userId": "95977025@N04","secret": "b29e37322f","title": "Black swan sleeping on one leg. Singapore Botanical Gardens.","loc": {"type": "Point","coordinates": [103.81616,1.320903]}} 
{"id": "8800605449","server": "7316","farm": "8","userId": "96264627@N08","secret": "f6f1f8968f","title": "Rain Drops on a flower","loc": {"type": "Point","coordinates": [103.824165,1.322777]}} 
{"id": "8799554852","server": "7406","farm": "8","userId": "24024921@N04","secret": "a2fe7f39f4","title": "Black Swan with Cygnets","loc": {"type": "Point","coordinates": [103.81569,1.320697]}} 
{"id": "8782702212","server": "8136","farm": "9","userId": "24024921@N04","secret": "886737813f","title": "Torch Ginger","loc": {"type": "Point","coordinates": [103.81553,1.320388]}} 
{"id": "8766583916","server": "3704","farm": "4","userId": "77439604@N00","secret": "f50367ba0a","title": "Red Beech","loc": {"type": "Point","coordinates": [103.81592,1.320903]}} 
{"id": "8749262413","server": "2848","farm": "3","userId": "53402839@N05","secret": "00d7632384","title": "NIC_7077","loc": {"type": "Point","coordinates": [103.81621,1.321889]}} 
{"id": "8750385210","server": "7381","farm": "8","userId": "53402839@N05","secret": "401b5d914a","title": "NIC_7108","loc": {"type": "Point","coordinates": [103.81661,1.321568]}} 
{"id": "8749246673","server": "2810","farm": "3","userId": "53402839@N05","secret": "3c388b5504","title": "NIC_7129","loc": {"type": "Point","coordinates": [103.81647,1.321611]}} 
{"id": "8749246635","server": "7372","farm": "8","userId": "53402839@N05","secret": "b94ac54010","title": "NIC_7132","loc": {"type": "Point","coordinates": [103.816505,1.321546]}} 
{"id": "8750322000","server": "7388","farm": "8","userId": "53402839@N05","secret": "61b87411aa","title": "NIC_7307","loc": {"type": "Point","coordinates": [103.816315,1.321653]}} 
{"id": "8749084479","server": "7320","farm": "8","userId": "53402839@N05","secret": "65fd648251","title": "NIC_7144","loc": {"type": "Point","coordinates": [103.8164,1.321439]}} 
{"id": "8689153852","server": "7046","farm": "8","userId": "41894167963@N01","secret": "85bff15d20","title": "","loc": {"type": "Point","coordinates": [103.825836,1.320166]}} 
{"id": "8689121038","server": "7053","farm": "8","userId": "82417989@N04","secret": "b91a4f4606","title": "This view never gets old... Back in #Singapore.","loc": {"type": "Point","coordinates": [103.81583,1.322019]}} 
{"id": "8689018734","server": "7047","farm": "8","userId": "94423547@N04","secret": "168ee59c3a","title": "Bricks on details","loc": {"type": "Point","coordinates": [103.81583,1.322019]}} 
{"id": "8673944972","server": "8406","farm": "9","userId": "94470675@N06","secret": "3a7a8e9973","title": "Become IRONMAN.","loc": {"type": "Point","coordinates": [103.81583,1.322019]}} 
{"id": "8665160061","server": "8249","farm": "9","userId": "95165424@N08","secret": "d3b6f7ffa2","title": "Plante boule","loc": {"type": "Point","coordinates": [103.81538,1.320999]}} 
{"id": "8665158759","server": "8252","farm": "9","userId": "95165424@N08","secret": "c874f6589e","title": "Cygne","loc": {"type": "Point","coordinates": [103.815834,1.321246]}} 
{"id": "8666263784","server": "8258","farm": "9","userId": "95165424@N08","secret": "198c2c20f5","title": "Fleurs detail","loc": {"type": "Point","coordinates": [103.815765,1.32013]}} 
{"id": "8665160311","server": "8242","farm": "9","userId": "95165424@N08","secret": "9d7b61ee04","title": "Marre","loc": {"type": "Point","coordinates": [103.81594,1.321546]}} 
{"id": "8666261710","server": "8244","farm": "9","userId": "95165424@N08","secret": "757fb1c1de","title": "Fleurs","loc": {"type": "Point","coordinates": [103.815575,1.321139]}} 
{"id": "8666263570","server": "8263","farm": "9","userId": "95165424@N08","secret": "7ea50fdd45","title": "Fleurs","loc": {"type": "Point","coordinates": [103.81541,1.320516]}} 
{"id": "8665163349","server": "8262","farm": "9","userId": "95165424@N08","secret": "aca420d50f","title": "Petites boules","loc": {"type": "Point","coordinates": [103.81639,1.320903]}} 
{"id": "8666261174","server": "8244","farm": "9","userId": "95165424@N08","secret": "f015a8b107","title": "Feuille","loc": {"type": "Point","coordinates": [103.81695,1.321375]}} 
{"id": "8665163789","server": "8254","farm": "9","userId": "95165424@N08","secret": "1095484703","title": "Anti stress","loc": {"type": "Point","coordinates": [103.81575,1.320516]}} 
{"id": "8665162351","server": "8245","farm": "9","userId": "95165424@N08","secret": "4b59c4abc4","title": "Cygne","loc": {"type": "Point","coordinates": [103.816154,1.320967]}} 
{"id": "8665163561","server": "8241","farm": "9","userId": "95165424@N08","secret": "aed7e40050","title": "Fleurs","loc": {"type": "Point","coordinates": [103.81594,1.319916]}} 
{"id": "8666260488","server": "8246","farm": "9","userId": "95165424@N08","secret": "b1d6944006","title": "Feuille detail","loc": {"type": "Point","coordinates": [103.81573,1.321482]}} 
{"id": "8666263944","server": "8249","farm": "9","userId": "95165424@N08","secret": "05b9bb81e5","title": "Fleur a trou","loc": {"type": "Point","coordinates": [103.81536,1.320903]}} 
{"id": "8666262628","server": "8247","farm": "9","userId": "95165424@N08","secret": "8a231a333f","title": "Cygne","loc": {"type": "Point","coordinates": [103.8162,1.321139]}} 
{"id": "8666262638","server": "8259","farm": "9","userId": "95165424@N08","secret": "f1899fc77b","title": "Tortue","loc": {"type": "Point","coordinates": [103.81624,1.321074]}} 
{"id": "8666263748","server": "8260","farm": "9","userId": "95165424@N08","secret": "55aa471f56","title": "Warning Spider","loc": {"type": "Point","coordinates": [103.81581,1.320431]}} 
{"id": "8622839796","server": "8121","farm": "9","userId": "35468141938@N01","secret": "5c84723b70","title": "Night rides are supposed to be chilled, but not tonight... air was still and warm, we just kept plowing from the city to east coast park, north towards pasir ris, then back down westward towards Ang Mo Kio, then Lornie, and finally through ulu pandan home","loc": {"type": "Point","coordinates": [103.82054,1.325665]}} 
{"id": "8606053978","server": "8252","farm": "9","userId": "16105436@N00","secret": "f743d9c60a","title": "2013-03-31_12.27.21","loc": {"type": "Point","coordinates": [103.81533,1.323166]}} 
{"id": "8604950013","server": "8244","farm": "9","userId": "16105436@N00","secret": "f48e8d5a2a","title": "Ruth in the Botanic gardens","loc": {"type": "Point","coordinates": [103.815834,1.322]}} 
{"id": "8557222391","server": "8236","farm": "9","userId": "77699303@N02","secret": "9d48f8fb93","title": "Reflections","loc": {"type": "Point","coordinates": [103.8161,1.321786]}} 
{"id": "8555773318","server": "8235","farm": "9","userId": "77699303@N02","secret": "063e155b86","title": "Splash.jpeg","loc": {"type": "Point","coordinates": [103.8161,1.321786]}} 
{"id": "8553673638","server": "8107","farm": "9","userId": "14385475@N05","secret": "199ed5ea63","title": "French Embassy in Singapore","loc": {"type": "Point","coordinates": [103.819,1.322666]}} 
{"id": "8517868883","server": "8383","farm": "9","userId": "58716938@N00","secret": "4b271dd2b7","title": "Ruffle","loc": {"type": "Point","coordinates": [103.81535,1.32087]}} 
{"id": "8504212338","server": "8106","farm": "9","userId": "16105436@N00","secret": "618588fd17","title": "Best Nasi Lemak in Singapore","loc": {"type": "Point","coordinates": [103.816,1.323]}} 
{"id": "8500649564","server": "8532","farm": "9","userId": "14932126@N08","secret": "2dd5f2bab4","title": "IMG_0044","loc": {"type": "Point","coordinates": [103.82,1.322666]}} 
{"id": "8499852118","server": "8372","farm": "9","userId": "60026216@N00","secret": "ae6589b1b8","title": "Maze garden. Children will love this.","loc": {"type": "Point","coordinates": [103.81763,1.320645]}} 
{"id": "8499827964","server": "8519","farm": "9","userId": "60026216@N00","secret": "698480725b","title": "Ficus gate @ Fantastic Forest.","loc": {"type": "Point","coordinates": [103.81763,1.320645]}} 
{"id": "8498732169","server": "8523","farm": "9","userId": "60026216@N00","secret": "e2e7fe7f78","title": "Waterfall.","loc": {"type": "Point","coordinates": [103.81763,1.320645]}} 
{"id": "8498717591","server": "8231","farm": "9","userId": "60026216@N00","secret": "6818a06ab2","title": "Children water play area.","loc": {"type": "Point","coordinates": [103.81763,1.320645]}} 
{"id": "8499816756","server": "8231","farm": "9","userId": "60026216@N00","secret": "8dd0936dbc","title": "Kidz Cafe.","loc": {"type": "Point","coordinates": [103.81763,1.320645]}} 
{"id": "8494052145","server": "8225","farm": "9","userId": "14932126@N08","secret": "728b97c5a0","title": "","loc": {"type": "Point","coordinates": [103.82,1.322666]}} 
{"id": "8449464580","server": "8084","farm": "9","userId": "30921466@N03","secret": "5fe6453122","title": "clean clean chinatown","loc": {"type": "Point","coordinates": [103.8204,1.3262]}} 
{"id": "8433698317","server": "8336","farm": "9","userId": "81584604@N05","secret": "4fc4ec114f","title": "Singapore","loc": {"type": "Point","coordinates": [103.81581,1.320225]}} 
{"id": "8417817623","server": "8218","farm": "9","userId": "65778609@N03","secret": "64ea9bfdd1","title": "Swan Lake","loc": {"type": "Point","coordinates": [103.8156,1.320731]}} 
{"id": "8418911662","server": "8238","farm": "9","userId": "65778609@N03","secret": "f7edc2c63d","title": "Common Flameback","loc": {"type": "Point","coordinates": [103.8156,1.320731]}} 
{"id": "8417819361","server": "8502","farm": "9","userId": "65778609@N03","secret": "e6ffb0f546","title": "Orchid Garden","loc": {"type": "Point","coordinates": [103.8156,1.320731]}} 
{"id": "8418910830","server": "8216","farm": "9","userId": "65778609@N03","secret": "ce9a30452e","title": "Botanical Gardens, Singapore","loc": {"type": "Point","coordinates": [103.8156,1.320731]}} 
{"id": "8417818803","server": "8046","farm": "9","userId": "65778609@N03","secret": "ebbf4d3bcd","title": "Orchid Garden","loc": {"type": "Point","coordinates": [103.8156,1.320731]}} 
{"id": "8417817865","server": "8476","farm": "9","userId": "65778609@N03","secret": "4258867427","title": "Black Swan","loc": {"type": "Point","coordinates": [103.8156,1.320731]}} 
{"id": "8418912158","server": "8471","farm": "9","userId": "65778609@N03","secret": "69e1901a58","title": "Orchid Garden","loc": {"type": "Point","coordinates": [103.8156,1.320731]}} 
{"id": "8389957236","server": "8183","farm": "9","userId": "40138859@N02","secret": "5dcb9159b1","title": "Mother and rabbit","loc": {"type": "Point","coordinates": [103.81763,1.320645]}} 
{"id": "8380731398","server": "8377","farm": "9","userId": "84705538@N05","secret": "7cf189d53b","title": "NIE Singapore","loc": {"type": "Point","coordinates": [103.81971,1.320795]}} 
{"id": "8370549312","server": "8494","farm": "9","userId": "62614785@N06","secret": "932c278062","title": "DSC00682","loc": {"type": "Point","coordinates": [103.815285,1.320668]}} 
{"id": "8369424701","server": "8192","farm": "9","userId": "62614785@N06","secret": "2e7f2f3e64","title": "DSC00626","loc": {"type": "Point","coordinates": [103.815285,1.320668]}} 
{"id": "8370519130","server": "8221","farm": "9","userId": "62614785@N06","secret": "d245c1e756","title": "DSC00651","loc": {"type": "Point","coordinates": [103.815285,1.320668]}} 
{"id": "8370500696","server": "8235","farm": "9","userId": "62614785@N06","secret": "88a141ca62","title": "DSC00634","loc": {"type": "Point","coordinates": [103.815285,1.320668]}} 
{"id": "8370520630","server": "8185","farm": "9","userId": "62614785@N06","secret": "b1bf8eef59","title": "DSC00652","loc": {"type": "Point","coordinates": [103.815285,1.320668]}} 
{"id": "8370517868","server": "8084","farm": "9","userId": "62614785@N06","secret": "60831cff94","title": "DSC00650","loc": {"type": "Point","coordinates": [103.815285,1.320668]}} 
{"id": "8370494384","server": "8471","farm": "9","userId": "62614785@N06","secret": "d4e8ea0063","title": "DSC00629","loc": {"type": "Point","coordinates": [103.815285,1.320668]}} 
{"id": "8370560514","server": "8499","farm": "9","userId": "62614785@N06","secret": "8804ae6f40","title": "DSC00692","loc": {"type": "Point","coordinates": [103.815285,1.320668]}} 
{"id": "8370493004","server": "8368","farm": "9","userId": "62614785@N06","secret": "8fddac1311","title": "DSC00628","loc": {"type": "Point","coordinates": [103.815285,1.320668]}} 
{"id": "8370508510","server": "8369","farm": "9","userId": "62614785@N06","secret": "6a514f6d4c","title": "DSC00641","loc": {"type": "Point","coordinates": [103.815285,1.320668]}} 
{"id": "8370509912","server": "8225","farm": "9","userId": "62614785@N06","secret": "d8ebaa2935","title": "DSC00642","loc": {"type": "Point","coordinates": [103.815285,1.320668]}} 
{"id": "8369466867","server": "8515","farm": "9","userId": "62614785@N06","secret": "75eb2fdcd0","title": "DSC00663","loc": {"type": "Point","coordinates": [103.815285,1.320668]}} 
{"id": "8370486506","server": "8463","farm": "9","userId": "62614785@N06","secret": "a8f6f7cd80","title": "DSC00623","loc": {"type": "Point","coordinates": [103.815285,1.320668]}} 
{"id": "8369472645","server": "8367","farm": "9","userId": "62614785@N06","secret": "4e4f879a7e","title": "DSC00669","loc": {"type": "Point","coordinates": [103.815285,1.320668]}} 
{"id": "8369445851","server": "8470","farm": "9","userId": "62614785@N06","secret": "e5b5cedd21","title": "DSC00643","loc": {"type": "Point","coordinates": [103.815285,1.320668]}} 
{"id": "8370540384","server": "8232","farm": "9","userId": "62614785@N06","secret": "774c455c01","title": "DSC00673","loc": {"type": "Point","coordinates": [103.815285,1.320668]}} 
{"id": "8370525866","server": "8352","farm": "9","userId": "62614785@N06","secret": "c2031f3568","title": "DSC00657","loc": {"type": "Point","coordinates": [103.815285,1.320668]}} 
{"id": "8370529206","server": "8217","farm": "9","userId": "62614785@N06","secret": "6ea9de9ec9","title": "DSC00659","loc": {"type": "Point","coordinates": [103.815285,1.320668]}} 
{"id": "8370557640","server": "8224","farm": "9","userId": "62614785@N06","secret": "0968c2e3a0","title": "DSC00689","loc": {"type": "Point","coordinates": [103.815285,1.320668]}} 
{"id": "8370491492","server": "8235","farm": "9","userId": "62614785@N06","secret": "50d16cc88a","title": "DSC00627","loc": {"type": "Point","coordinates": [103.815285,1.320668]}} 
{"id": "8370506622","server": "8195","farm": "9","userId": "62614785@N06","secret": "78a4db0ca8","title": "DSC00639","loc": {"type": "Point","coordinates": [103.815285,1.320668]}} 
{"id": "8369491423","server": "8077","farm": "9","userId": "62614785@N06","secret": "525658ff4f","title": "DSC00688","loc": {"type": "Point","coordinates": [103.815285,1.320668]}} 
{"id": "8370551498","server": "8514","farm": "9","userId": "62614785@N06","secret": "a486b0a691","title": "DSC00684","loc": {"type": "Point","coordinates": [103.815285,1.320668]}} 
{"id": "8370550638","server": "8369","farm": "9","userId": "62614785@N06","secret": "8f514d0294","title": "DSC00683","loc": {"type": "Point","coordinates": [103.815285,1.320668]}} 
{"id": "8369466013","server": "8508","farm": "9","userId": "62614785@N06","secret": "75249fcecc","title": "DSC00662","loc": {"type": "Point","coordinates": [103.815285,1.320668]}} 
{"id": "8369471421","server": "8333","farm": "9","userId": "62614785@N06","secret": "50955fca84","title": "DSC00668","loc": {"type": "Point","coordinates": [103.815285,1.320668]}} 
{"id": "8370513160","server": "8047","farm": "9","userId": "62614785@N06","secret": "3601d5ddaa","title": "DSC00645","loc": {"type": "Point","coordinates": [103.815285,1.320668]}} 
{"id": "8369440647","server": "8506","farm": "9","userId": "62614785@N06","secret": "8afc05874a","title": "DSC00638","loc": {"type": "Point","coordinates": [103.815285,1.320668]}} 
{"id": "8370535230","server": "8376","farm": "9","userId": "62614785@N06","secret": "bb96f6f233","title": "DSC00666","loc": {"type": "Point","coordinates": [103.815285,1.320668]}} 
{"id": "8369450217","server": "8469","farm": "9","userId": "62614785@N06","secret": "f074975cdc","title": "DSC00647","loc": {"type": "Point","coordinates": [103.815285,1.320668]}} 
{"id": "8370484428","server": "8229","farm": "9","userId": "62614785@N06","secret": "1b8c3bdbab","title": "DSC00693","loc": {"type": "Point","coordinates": [103.815285,1.320668]}} 
{"id": "8370555356","server": "8193","farm": "9","userId": "62614785@N06","secret": "b056b25306","title": "DSC00687","loc": {"type": "Point","coordinates": [103.815285,1.320668]}} 
{"id": "8370559648","server": "8330","farm": "9","userId": "62614785@N06","secret": "338880c655","title": "DSC00691","loc": {"type": "Point","coordinates": [103.815285,1.320668]}} 
{"id": "8370530718","server": "8230","farm": "9","userId": "62614785@N06","secret": "f346af91df","title": "DSC00660","loc": {"type": "Point","coordinates": [103.815285,1.320668]}} 
{"id": "8369459395","server": "8365","farm": "9","userId": "62614785@N06","secret": "a8a9ee939f","title": "DSC00656","loc": {"type": "Point","coordinates": [103.815285,1.320668]}} 
{"id": "8369452209","server": "8054","farm": "9","userId": "62614785@N06","secret": "404a973da9","title": "DSC00649","loc": {"type": "Point","coordinates": [103.815285,1.320668]}} 
{"id": "8369437047","server": "8080","farm": "9","userId": "62614785@N06","secret": "9f612bcbd1","title": "DSC00635","loc": {"type": "Point","coordinates": [103.815285,1.320668]}} 
{"id": "8369488747","server": "8361","farm": "9","userId": "62614785@N06","secret": "d85d772763","title": "DSC00686","loc": {"type": "Point","coordinates": [103.815285,1.320668]}} 
{"id": "8369479121","server": "8098","farm": "9","userId": "62614785@N06","secret": "1e0d1a820d","title": "DSC00677","loc": {"type": "Point","coordinates": [103.815285,1.320668]}} 
{"id": "8370545798","server": "8082","farm": "9","userId": "62614785@N06","secret": "d5edaa8454","title": "DSC00679","loc": {"type": "Point","coordinates": [103.815285,1.320668]}} 
{"id": "8369496439","server": "8518","farm": "9","userId": "62614785@N06","secret": "867d88f93e","title": "DSC00694","loc": {"type": "Point","coordinates": [103.815285,1.320668]}} 
{"id": "8370552548","server": "8234","farm": "9","userId": "62614785@N06","secret": "70213ec74a","title": "DSC00685","loc": {"type": "Point","coordinates": [103.815285,1.320668]}} 
{"id": "8370558450","server": "8353","farm": "9","userId": "62614785@N06","secret": "8817ca5838","title": "DSC00690","loc": {"type": "Point","coordinates": [103.815285,1.320668]}} 
{"id": "8370522130","server": "8188","farm": "9","userId": "62614785@N06","secret": "510b40ffc0","title": "DSC00653","loc": {"type": "Point","coordinates": [103.815285,1.320668]}} 
{"id": "8369468467","server": "8185","farm": "9","userId": "62614785@N06","secret": "5155c3738a","title": "DSC00665","loc": {"type": "Point","coordinates": [103.815285,1.320668]}} 
{"id": "8369458279","server": "8358","farm": "9","userId": "62614785@N06","secret": "aff5e79146","title": "DSC00654","loc": {"type": "Point","coordinates": [103.815285,1.320668]}} 
{"id": "8370543274","server": "8185","farm": "9","userId": "62614785@N06","secret": "0320995e7f","title": "DSC00676","loc": {"type": "Point","coordinates": [103.815285,1.320668]}} 
{"id": "8369470565","server": "8475","farm": "9","userId": "62614785@N06","secret": "1f7146058c","title": "DSC00667","loc": {"type": "Point","coordinates": [103.815285,1.320668]}} 
{"id": "8370507374","server": "8502","farm": "9","userId": "62614785@N06","secret": "369196c0ba","title": "DSC00640","loc": {"type": "Point","coordinates": [103.815285,1.320668]}} 
{"id": "8369476927","server": "8216","farm": "9","userId": "62614785@N06","secret": "5089d10051","title": "DSC00675","loc": {"type": "Point","coordinates": [103.815285,1.320668]}} 
{"id": "8370511870","server": "8495","farm": "9","userId": "62614785@N06","secret": "a0c61ef1f0","title": "DSC00644","loc": {"type": "Point","coordinates": [103.815285,1.320668]}} 
{"id": "8370495558","server": "8216","farm": "9","userId": "62614785@N06","secret": "50290ea2b4","title": "DSC00630","loc": {"type": "Point","coordinates": [103.815285,1.320668]}} 
{"id": "8369473425","server": "8092","farm": "9","userId": "62614785@N06","secret": "e9b02d9e45","title": "DSC00670","loc": {"type": "Point","coordinates": [103.815285,1.320668]}} 
{"id": "8369467855","server": "8493","farm": "9","userId": "62614785@N06","secret": "fbddb68a6e","title": "DSC00664","loc": {"type": "Point","coordinates": [103.815285,1.320668]}} 
{"id": "8369462105","server": "8366","farm": "9","userId": "62614785@N06","secret": "7daa9ed691","title": "DSC00658","loc": {"type": "Point","coordinates": [103.815285,1.320668]}} 
{"id": "8369474279","server": "8229","farm": "9","userId": "62614785@N06","secret": "eafcc03414","title": "DSC00671","loc": {"type": "Point","coordinates": [103.815285,1.320668]}} 
{"id": "8369423443","server": "8514","farm": "9","userId": "62614785@N06","secret": "8c74857a87","title": "DSC00625","loc": {"type": "Point","coordinates": [103.815285,1.320668]}} 
{"id": "8370503594","server": "8325","farm": "9","userId": "62614785@N06","secret": "f52d8dafb0","title": "DSC00636","loc": {"type": "Point","coordinates": [103.815285,1.320668]}} 
{"id": "8370547880","server": "8495","farm": "9","userId": "62614785@N06","secret": "072e49b089","title": "DSC00681","loc": {"type": "Point","coordinates": [103.815285,1.320668]}} 
{"id": "8370487462","server": "8043","farm": "9","userId": "62614785@N06","secret": "63b5574e49","title": "DSC00624","loc": {"type": "Point","coordinates": [103.815285,1.320668]}} 
{"id": "8369432923","server": "8215","farm": "9","userId": "62614785@N06","secret": "5a313c8072","title": "DSC00632","loc": {"type": "Point","coordinates": [103.815285,1.320668]}} 
{"id": "8370547108","server": "8467","farm": "9","userId": "62614785@N06","secret": "188bbbea51","title": "DSC00680","loc": {"type": "Point","coordinates": [103.815285,1.320668]}} 
{"id": "8344580661","server": "8502","farm": "9","userId": "24024921@N04","secret": "138541c815","title": "Amegilla Cingulata","loc": {"type": "Point","coordinates": [103.81566,1.321471]}} 
{"id": "8339590109","server": "8072","farm": "9","userId": "91223673@N06","secret": "48c693f6a0","title": "Green stink bug or Green soldier bug (Acrosternum hilare)","loc": {"type": "Point","coordinates": [103.81586,1.321203]}} 
{"id": "8340647760","server": "8211","farm": "9","userId": "91223673@N06","secret": "1d5f4a101f","title": "Botanic Garden","loc": {"type": "Point","coordinates": [103.81566,1.321375]}} 
{"id": "8335324941","server": "8491","farm": "9","userId": "91223673@N06","secret": "b3abd527eb","title": "Red Orchids","loc": {"type": "Point","coordinates": [103.81568,1.320881]}} 
{"id": "8332796088","server": "8221","farm": "9","userId": "91223673@N06","secret": "d5e0dd0d46","title": "St Andrew's Cross Spider","loc": {"type": "Point","coordinates": [103.81554,1.321611]}} 
{"id": "8332795900","server": "8354","farm": "9","userId": "91223673@N06","secret": "d320e74b46","title": "Butterfly","loc": {"type": "Point","coordinates": [103.81573,1.321439]}} 
{"id": "8332796334","server": "8080","farm": "9","userId": "91223673@N06","secret": "9500c43241","title": "Ants","loc": {"type": "Point","coordinates": [103.81568,1.321375]}} 
{"id": "8325595598","server": "8357","farm": "9","userId": "76756209@N08","secret": "413f18dc5d","title": "DSCN1595- Common Iora (Aegithina tiphia)","loc": {"type": "Point","coordinates": [103.81594,1.320722]}} 
{"id": "8320359795","server": "8072","farm": "9","userId": "90419386@N03","secret": "b4685930dc","title": "DSC_0104.jpg","loc": {"type": "Point","coordinates": [103.81529,1.321825]}} 
{"id": "8309495006","server": "8351","farm": "9","userId": "42594504@N00","secret": "0cc0e340fa","title": "Inspired by Bruce Lee - The Legend on Nat Geo say hi to Bruised Lee Way (Liwei)","loc": {"type": "Point","coordinates": [103.823,1.319874]}} 
{"id": "8309484570","server": "8353","farm": "9","userId": "42594504@N00","secret": "2eda1b0f9b","title": "A.Elsie has this.. butterfly leaf :)","loc": {"type": "Point","coordinates": [103.8183,1.320924]}} 
{"id": "8304753364","server": "8217","farm": "9","userId": "88189322@N05","secret": "72b96bf84d","title": "IMG_0035","loc": {"type": "Point","coordinates": [103.816,1.320833]}} 
{"id": "8304754630","server": "8075","farm": "9","userId": "88189322@N05","secret": "173560b6e7","title": "IMG_0032","loc": {"type": "Point","coordinates": [103.815834,1.321]}} 
{"id": "8046555901","server": "8176","farm": "9","userId": "87827337@N08","secret": "48b5117642","title": "The Children's Maze","loc": {"type": "Point","coordinates": [103.81817,1.321333]}} 
{"id": "8304752766","server": "8216","farm": "9","userId": "88189322@N05","secret": "e9bca124ed","title": "IMG_0038","loc": {"type": "Point","coordinates": [103.816,1.320666]}} 
{"id": "8304754182","server": "8492","farm": "9","userId": "88189322@N05","secret": "8b383b2de7","title": "IMG_0033","loc": {"type": "Point","coordinates": [103.816,1.320833]}} 
{"id": "8304753752","server": "8504","farm": "9","userId": "88189322@N05","secret": "1da44efa5f","title": "IMG_0034","loc": {"type": "Point","coordinates": [103.816,1.320833]}} 
{"id": "8304750784","server": "8078","farm": "9","userId": "88189322@N05","secret": "1a7a183726","title": "IMG_0044","loc": {"type": "Point","coordinates": [103.81533,1.320333]}} 
{"id": "8304751728","server": "8213","farm": "9","userId": "88189322@N05","secret": "a14fb690db","title": "IMG_0042","loc": {"type": "Point","coordinates": [103.81533,1.320166]}} 
{"id": "8303702411","server": "8491","farm": "9","userId": "88189322@N05","secret": "169578b5fd","title": "IMG_0043","loc": {"type": "Point","coordinates": [103.81533,1.320166]}} 
{"id": "8304752112","server": "8362","farm": "9","userId": "88189322@N05","secret": "24369be4c2","title": "IMG_0040","loc": {"type": "Point","coordinates": [103.81533,1.320166]}} 
{"id": "8209230687","server": "8198","farm": "9","userId": "36282183@N00","secret": "59d440153c","title": "My daughter, my love.","loc": {"type": "Point","coordinates": [103.81763,1.320645]}} 
{"id": "8208373648","server": "8200","farm": "9","userId": "36282183@N00","secret": "714d63d4fc","title": "Yang kurik itu kundi Yang merah itu saga. Yang molek itu budi Yang indah itu bahasa.","loc": {"type": "Point","coordinates": [103.81763,1.320645]}} 
{"id": "8208368438","server": "8199","farm": "9","userId": "36282183@N00","secret": "790caf9a84","title": "Jacob Ballas...time to go home :)","loc": {"type": "Point","coordinates": [103.81763,1.320645]}} 
{"id": "8208328996","server": "8489","farm": "9","userId": "36282183@N00","secret": "2627c4a33e","title": "Jacob Ballas! :)","loc": {"type": "Point","coordinates": [103.81902,1.321651]}} 
{"id": "8207238563","server": "8478","farm": "9","userId": "36282183@N00","secret": "b7395e1131","title": "At Jacob Ballas, like finally!","loc": {"type": "Point","coordinates": [103.81931,1.32157]}} 
{"id": "8149468693","server": "8473","farm": "9","userId": "81631954@N06","secret": "47acf3a405","title": "Walk","loc": {"type": "Point","coordinates": [103.81582,1.321889]}} 
{"id": "8104728469","server": "8326","farm": "9","userId": "68649150@N06","secret": "a38c6d8258","title": "Got a glimpse of some rugby action","loc": {"type": "Point","coordinates": [103.81956,1.320573]}} 
{"id": "8046563389","server": "8458","farm": "9","userId": "87827337@N08","secret": "58b1689be2","title": "Pond","loc": {"type": "Point","coordinates": [103.81917,1.321833]}} 
{"id": "8046557883","server": "8456","farm": "9","userId": "87827337@N08","secret": "c17d1b7479","title": "Treehouse with Slides","loc": {"type": "Point","coordinates": [103.81883,1.3215]}} 
{"id": "8046550980","server": "8032","farm": "9","userId": "87827337@N08","secret": "00082c2b2b","title": "Suspension Bridge","loc": {"type": "Point","coordinates": [103.818665,1.321333]}} 
{"id": "8046566374","server": "8317","farm": "9","userId": "87827337@N08","secret": "fb7dba8555","title": "Pond with giant lily pads","loc": {"type": "Point","coordinates": [103.819,1.321333]}} 
{"id": "8046428707","server": "8177","farm": "9","userId": "23123618@N00","secret": "59687ecea9","title": "Tied in knots","loc": {"type": "Point","coordinates": [103.81763,1.320645]}} 
