{"id": "8731856506","server": "7348","farm": "8","userId": "28137664@N03","secret": "c695a53950","title": "Wet Paint","loc": {"type": "Point","coordinates": [103.81768,1.299493]}} 
{"id": "8730735319","server": "7323","farm": "8","userId": "28137664@N03","secret": "a28cf8d7e5","title": "Chatsworth Road, Singapore","loc": {"type": "Point","coordinates": [103.82297,1.30004]}} 
{"id": "8730736003","server": "7288","farm": "8","userId": "28137664@N03","secret": "5ec371c7f7","title": "Decorative Wall, Ridley Park, Singapore","loc": {"type": "Point","coordinates": [103.817215,1.30047]}} 
{"id": "8731855788","server": "7414","farm": "8","userId": "28137664@N03","secret": "8d092f692e","title": "Chatsworth Road, Singapore","loc": {"type": "Point","coordinates": [103.82297,1.30004]}} 
{"id": "8640126432","server": "8522","farm": "9","userId": "76161318@N08","secret": "4e427d0d48","title": "Weird ass tree with flowers near the trunk.","loc": {"type": "Point","coordinates": [103.82348,1.304835]}} 
{"id": "8481129651","server": "8510","farm": "9","userId": "67567646@N04","secret": "e403419aff","title": "Very expensive eyewares","loc": {"type": "Point","coordinates": [103.82518,1.30299]}} 
{"id": "8401258019","server": "8214","farm": "9","userId": "60731678@N06","secret": "1e7b7cdacc","title": "The St. Regis Singapore—Evening Setting at Brasserie Les Saveurs","loc": {"type": "Point","coordinates": [103.82565,1.30568]}} 
{"id": "8402351068","server": "8505","farm": "9","userId": "60731678@N06","secret": "70311f4bb9","title": "The St. Regis Singapore—Grand staircase","loc": {"type": "Point","coordinates": [103.82565,1.30568]}} 
{"id": "8401269437","server": "8501","farm": "9","userId": "60731678@N06","secret": "ac217f40c3","title": "The St. Regis Singapore—Sentosa - An Island Getaway","loc": {"type": "Point","coordinates": [103.82565,1.30568]}} 
{"id": "8401259985","server": "8359","farm": "9","userId": "60731678@N06","secret": "855b93fef6","title": "The St. Regis Singapore—Senator Room U-shape Set-up","loc": {"type": "Point","coordinates": [103.82565,1.30568]}} 
{"id": "8402341942","server": "8504","farm": "9","userId": "60731678@N06","secret": "1fcc91470d","title": "The St. Regis Singapore—Chandeliers Ballroom","loc": {"type": "Point","coordinates": [103.82565,1.30568]}} 
{"id": "8402339292","server": "8078","farm": "9","userId": "60731678@N06","secret": "3f571e00fc","title": "The St. Regis Singapore—John Jacob Ballroom - oriental wedding setting","loc": {"type": "Point","coordinates": [103.82565,1.30568]}} 
{"id": "8402352796","server": "8221","farm": "9","userId": "60731678@N06","secret": "d97d2a6afa","title": "The St. Regis Singapore—Esplanade - Theatres on the Bay","loc": {"type": "Point","coordinates": [103.82565,1.30568]}} 
{"id": "8402354956","server": "8510","farm": "9","userId": "60731678@N06","secret": "124f6b7854","title": "The St. Regis Singapore—Merlion - Singapore's Icon to the World","loc": {"type": "Point","coordinates": [103.82565,1.30568]}} 
{"id": "8401273371","server": "8518","farm": "9","userId": "60731678@N06","secret": "4a00d14955","title": "The St. Regis Singapore—China Town - colourful mix of old and new","loc": {"type": "Point","coordinates": [103.82565,1.30568]}} 
{"id": "8402356792","server": "8214","farm": "9","userId": "60731678@N06","secret": "5acd7b8d9f","title": "The St. Regis Singapore—Night View of Marina Bay and Singapore's CBD","loc": {"type": "Point","coordinates": [103.82565,1.30568]}} 
{"id": "8401271207","server": "8223","farm": "9","userId": "60731678@N06","secret": "8940492d91","title": "The St. Regis Singapore—Merlion - Singapore's Icon to the World","loc": {"type": "Point","coordinates": [103.82565,1.30568]}} 
{"id": "8402344224","server": "8336","farm": "9","userId": "60731678@N06","secret": "68dc392896","title": "The St. Regis Singapore—Business Center","loc": {"type": "Point","coordinates": [103.82565,1.30568]}} 
{"id": "8402334534","server": "8466","farm": "9","userId": "60731678@N06","secret": "93c4e3e5bb","title": "The St. Regis Singapore—Remede Spa Wet Lounge","loc": {"type": "Point","coordinates": [103.82565,1.30568]}} 
{"id": "8402332178","server": "8236","farm": "9","userId": "60731678@N06","secret": "0e1eea29c7","title": "The St. Regis Singapore—Remède Spa - Eucalyptus Infused Marble Steam Chamber","loc": {"type": "Point","coordinates": [103.82565,1.30568]}} 
{"id": "8401226671","server": "8331","farm": "9","userId": "60731678@N06","secret": "d1693c3f73","title": "The St. Regis Singapore—Classic Dining at Brasserie Les Saveurs","loc": {"type": "Point","coordinates": [103.82565,1.30568]}} 
{"id": "8402323786","server": "8183","farm": "9","userId": "60731678@N06","secret": "38854ddf6c","title": "The St. Regis Singapore—Reméde Spa - Therapy Room","loc": {"type": "Point","coordinates": [103.82565,1.30568]}} 
{"id": "8402325892","server": "8212","farm": "9","userId": "60731678@N06","secret": "ff0fcdda1b","title": "The St. Regis Singapore—Warm Jade Stone Massage","loc": {"type": "Point","coordinates": [103.82565,1.30568]}} 
{"id": "8401228661","server": "8192","farm": "9","userId": "60731678@N06","secret": "495842fd67","title": "The St. Regis Singapore—Reméde Spa - Infrared Heated Wave Lounger","loc": {"type": "Point","coordinates": [103.82565,1.30568]}} 
{"id": "8402319484","server": "8364","farm": "9","userId": "60731678@N06","secret": "a754d416ca","title": "The St. Regis Singapore—Warm Jade Stone Massage","loc": {"type": "Point","coordinates": [103.82565,1.30568]}} 
{"id": "8401241143","server": "8365","farm": "9","userId": "60731678@N06","secret": "99e8de4899","title": "The St. Regis Singapore—Remede Spa - Couple Jade Suite","loc": {"type": "Point","coordinates": [103.82565,1.30568]}} 
{"id": "8402321636","server": "8184","farm": "9","userId": "60731678@N06","secret": "d69f3af76a","title": "The St. Regis Singapore—Remede Spa","loc": {"type": "Point","coordinates": [103.82565,1.30568]}} 
{"id": "8401222867","server": "8222","farm": "9","userId": "60731678@N06","secret": "bf3f75e734","title": "The St. Regis Singapore—Yan Ting entrance","loc": {"type": "Point","coordinates": [103.82565,1.30568]}} 
{"id": "8402313564","server": "8518","farm": "9","userId": "60731678@N06","secret": "5ff3f0798a","title": "The St. Regis Singapore—Astor Bar with Picasso's Toro Series","loc": {"type": "Point","coordinates": [103.82565,1.30568]}} 
{"id": "8402310606","server": "8235","farm": "9","userId": "60731678@N06","secret": "b563430f5e","title": "The St. Regis Singapore—John Jacob Ballroom - gala dinner setting","loc": {"type": "Point","coordinates": [103.82565,1.30568]}} 
{"id": "8402298970","server": "8225","farm": "9","userId": "60731678@N06","secret": "3153ffce2c","title": "The St. Regis Singapore—Presidential Suite dining room - table for 12","loc": {"type": "Point","coordinates": [103.82565,1.30568]}} 
{"id": "8402296826","server": "8359","farm": "9","userId": "60731678@N06","secret": "72af6b06af","title": "The St. Regis Singapore—Presidential Suite - Dining Room","loc": {"type": "Point","coordinates": [103.82565,1.30568]}} 
{"id": "8402307350","server": "8506","farm": "9","userId": "60731678@N06","secret": "8d30bc4ab7","title": "The St. Regis Singapore—Executive Deluxe Room","loc": {"type": "Point","coordinates": [103.82565,1.30568]}} 
{"id": "8401223739","server": "8506","farm": "9","userId": "60731678@N06","secret": "a53452ec62","title": "The St. Regis Singapore—Yan Ting - Cantonese Fine Dining Restaurant","loc": {"type": "Point","coordinates": [103.82565,1.30568]}} 
{"id": "8401193625","server": "8376","farm": "9","userId": "60731678@N06","secret": "f5371d4438","title": "The St. Regis Singapore—Astoria Suite","loc": {"type": "Point","coordinates": [103.82565,1.30568]}} 
{"id": "8401200273","server": "8088","farm": "9","userId": "60731678@N06","secret": "a208a07b3c","title": "The St. Regis Singapore—President Suite Balcony","loc": {"type": "Point","coordinates": [103.82565,1.30568]}} 
{"id": "8402277994","server": "8327","farm": "9","userId": "60731678@N06","secret": "933a6c8811","title": "The St. Regis Singapore—Astoria Suite Dining","loc": {"type": "Point","coordinates": [103.82565,1.30568]}} 
{"id": "8402284390","server": "8476","farm": "9","userId": "60731678@N06","secret": "06ff51a410","title": "The St. Regis Singapore—Executive Deluxe Room","loc": {"type": "Point","coordinates": [103.82565,1.30568]}} 
{"id": "8401184707","server": "8184","farm": "9","userId": "60731678@N06","secret": "8a21646022","title": "The St. Regis Singapore—Speciality Suite Bedroom","loc": {"type": "Point","coordinates": [103.82565,1.30568]}} 
{"id": "8402292920","server": "8373","farm": "9","userId": "60731678@N06","secret": "6ece4b7ba5","title": "The St. Regis Singapore—Mood","loc": {"type": "Point","coordinates": [103.82565,1.30568]}} 
{"id": "8401181805","server": "8091","farm": "9","userId": "60731678@N06","secret": "1700e04293","title": "The St. Regis Singapore—Speciality Suite Living Room","loc": {"type": "Point","coordinates": [103.82565,1.30568]}} 
{"id": "8402279996","server": "8503","farm": "9","userId": "60731678@N06","secret": "d337ed9e11","title": "The St. Regis Singapore—Astoria Suite Bedroom","loc": {"type": "Point","coordinates": [103.82565,1.30568]}} 
{"id": "8401202295","server": "8087","farm": "9","userId": "60731678@N06","secret": "c8f77dab70","title": "The St. Regis Singapore—Lady Astor Bedroom","loc": {"type": "Point","coordinates": [103.82565,1.30568]}} 
{"id": "8401186773","server": "8476","farm": "9","userId": "60731678@N06","secret": "c1b5c53ff8","title": "The St. Regis Singapore—Astoria Suite Dining","loc": {"type": "Point","coordinates": [103.82565,1.30568]}} 
{"id": "8402268566","server": "8213","farm": "9","userId": "60731678@N06","secret": "7ca43e6b16","title": "The St. Regis Singapore—Speciality Suite's Living Room","loc": {"type": "Point","coordinates": [103.82565,1.30568]}} 
{"id": "8401171081","server": "8516","farm": "9","userId": "60731678@N06","secret": "babbd72117","title": "The St. Regis Singapore—President Suite Gym","loc": {"type": "Point","coordinates": [103.82565,1.30568]}} 
{"id": "8401165347","server": "8474","farm": "9","userId": "60731678@N06","secret": "068b70a813","title": "The St. Regis Singapore—King Cole Suite Bedroom","loc": {"type": "Point","coordinates": [103.82565,1.30568]}} 
{"id": "8401177295","server": "8192","farm": "9","userId": "60731678@N06","secret": "768a915aa2","title": "The St. Regis Singapore—Suite Bedroom","loc": {"type": "Point","coordinates": [103.82565,1.30568]}} 
{"id": "8401163563","server": "8476","farm": "9","userId": "60731678@N06","secret": "9e84e7a9c3","title": "The St. Regis Singapore—Elegant Presidential Suite Living Room","loc": {"type": "Point","coordinates": [103.82565,1.30568]}} 
{"id": "8401161653","server": "8469","farm": "9","userId": "60731678@N06","secret": "95053f94bb","title": "The St. Regis Singapore—Presidential Suite Living Room - sofas and chairs","loc": {"type": "Point","coordinates": [103.82565,1.30568]}} 
{"id": "8401175199","server": "8237","farm": "9","userId": "60731678@N06","secret": "91267158e4","title": "The St. Regis Singapore—Speciality Suite Room","loc": {"type": "Point","coordinates": [103.82565,1.30568]}} 
{"id": "8401168975","server": "8375","farm": "9","userId": "60731678@N06","secret": "37a54ecf65","title": "The St. Regis Singapore—Penthouse Room","loc": {"type": "Point","coordinates": [103.82565,1.30568]}} 
{"id": "8402256680","server": "8372","farm": "9","userId": "60731678@N06","secret": "3d59899a42","title": "The St. Regis Singapore—Grand Deluxe Room","loc": {"type": "Point","coordinates": [103.82565,1.30568]}} 
{"id": "8401144051","server": "8212","farm": "9","userId": "60731678@N06","secret": "d681981d9c","title": "The St. Regis Singapore—Presidential Suite - Living Room","loc": {"type": "Point","coordinates": [103.82565,1.30568]}} 
{"id": "8401157641","server": "8087","farm": "9","userId": "60731678@N06","secret": "49b9d0c52c","title": "The St. Regis Singapore—Suite Living Room","loc": {"type": "Point","coordinates": [103.82565,1.30568]}} 
{"id": "8401154357","server": "8496","farm": "9","userId": "60731678@N06","secret": "92e507fdd9","title": "The St. Regis Singapore—King Cole Suite Living Room hallway","loc": {"type": "Point","coordinates": [103.82565,1.30568]}} 
{"id": "8402241964","server": "8097","farm": "9","userId": "60731678@N06","secret": "b09c6e02fb","title": "The St. Regis Singapore—Presidential Suite double basin","loc": {"type": "Point","coordinates": [103.82565,1.30568]}} 
{"id": "8401140605","server": "8095","farm": "9","userId": "60731678@N06","secret": "0d0ed9dcb1","title": "The St. Regis Singapore—The St. Regis Singapore Lobby","loc": {"type": "Point","coordinates": [103.82565,1.30568]}} 
{"id": "8401145533","server": "8094","farm": "9","userId": "60731678@N06","secret": "589b78d63f","title": "The St. Regis Singapore—King Cole Suite - Bay Window Sofa","loc": {"type": "Point","coordinates": [103.82565,1.30568]}} 
{"id": "8402236654","server": "8053","farm": "9","userId": "60731678@N06","secret": "c61c9f26f8","title": "The St. Regis Singapore—Astoria Suite","loc": {"type": "Point","coordinates": [103.82565,1.30568]}} 
{"id": "8402232026","server": "8079","farm": "9","userId": "60731678@N06","secret": "35074ece4e","title": "The St. Regis Singapore—Presidential Suite - Bedroom","loc": {"type": "Point","coordinates": [103.82565,1.30568]}} 
{"id": "8401148989","server": "8089","farm": "9","userId": "60731678@N06","secret": "0070f368c4","title": "The St. Regis Singapore—Refined Grand Deluxe Room (Twin) Garden View","loc": {"type": "Point","coordinates": [103.82565,1.30568]}} 
{"id": "8402226738","server": "8187","farm": "9","userId": "60731678@N06","secret": "1477b52853","title": "The St. Regis Singapore—Grand Staircase","loc": {"type": "Point","coordinates": [103.82565,1.30568]}} 
{"id": "8401135547","server": "8510","farm": "9","userId": "60731678@N06","secret": "7a2bafef1a","title": "The St. Regis Singapore—Hotel's Reception","loc": {"type": "Point","coordinates": [103.82565,1.30568]}} 
{"id": "8401121535","server": "8087","farm": "9","userId": "60731678@N06","secret": "d9966c1ee2","title": "The St. Regis Singapore—24 Hour Open Fitness Centre","loc": {"type": "Point","coordinates": [103.82565,1.30568]}} 
{"id": "8401132073","server": "8517","farm": "9","userId": "60731678@N06","secret": "bcd15e5fd3","title": "The St. Regis Singapore—Anthony Poon","loc": {"type": "Point","coordinates": [103.82565,1.30568]}} 
{"id": "8402223432","server": "8097","farm": "9","userId": "60731678@N06","secret": "b43e9e0718","title": "The St. Regis Singapore—Customised Fleet of Bentleys","loc": {"type": "Point","coordinates": [103.82565,1.30568]}} 
{"id": "8401125213","server": "8078","farm": "9","userId": "60731678@N06","secret": "ba0c12a96b","title": "The St. Regis Singapore—Diplomat Room Classroom Set-up","loc": {"type": "Point","coordinates": [103.82565,1.30568]}} 
{"id": "8401119985","server": "8053","farm": "9","userId": "60731678@N06","secret": "0eb01759c0","title": "The St. Regis Singapore—Remede Spa","loc": {"type": "Point","coordinates": [103.82565,1.30568]}} 
{"id": "8401123395","server": "8475","farm": "9","userId": "60731678@N06","secret": "358e42a124","title": "The St. Regis Singapore—John Jacob Ballroom Wedding","loc": {"type": "Point","coordinates": [103.82565,1.30568]}} 
{"id": "8402218220","server": "8195","farm": "9","userId": "60731678@N06","secret": "647ecef863","title": "The St. Regis Singapore—Grand settings","loc": {"type": "Point","coordinates": [103.82565,1.30568]}} 
{"id": "8402207932","server": "8096","farm": "9","userId": "60731678@N06","secret": "eebef67fb6","title": "The St. Regis Singapore—LaBrezza Dining","loc": {"type": "Point","coordinates": [103.82565,1.30568]}} 
{"id": "8401138715","server": "8230","farm": "9","userId": "60731678@N06","secret": "5e7cb154b0","title": "The St. Regis Singapore—Lobby","loc": {"type": "Point","coordinates": [103.82565,1.30568]}} 
{"id": "8401116759","server": "8327","farm": "9","userId": "60731678@N06","secret": "cc64bd22b8","title": "The St. Regis Singapore—Tropical Spa Pool","loc": {"type": "Point","coordinates": [103.82565,1.30568]}} 
{"id": "8401115155","server": "8222","farm": "9","userId": "60731678@N06","secret": "27197a105f","title": "The St. Regis Singapore—Excutive Deluxe Room - Marble Bathroom","loc": {"type": "Point","coordinates": [103.82565,1.30568]}} 
{"id": "8375524991","server": "8516","farm": "9","userId": "65512718@N08","secret": "9d6013cf61","title": "Butterfly's Day Out","loc": {"type": "Point","coordinates": [103.822174,1.30314]}} 
{"id": "8269861886","server": "8069","farm": "9","userId": "65512718@N08","secret": "4bf85500d2","title": "The Bourne Legacy","loc": {"type": "Point","coordinates": [103.81737,1.301081]}} 
{"id": "8260153385","server": "8353","farm": "9","userId": "41298448@N08","secret": "317ac730f1","title": "Eleanor cutting the steak","loc": {"type": "Point","coordinates": [103.81927,1.301858]}} 
{"id": "8248948437","server": "8343","farm": "9","userId": "41298448@N08","secret": "a0c893a56f","title": "Eleanor","loc": {"type": "Point","coordinates": [103.81927,1.301858]}} 
{"id": "8234124010","server": "8207","farm": "9","userId": "25802865@N08","secret": "0a32299a7e","title": "Tanglin Mall","loc": {"type": "Point","coordinates": [103.82336,1.304835]}} 
{"id": "8234125612","server": "8060","farm": "9","userId": "25802865@N08","secret": "04b9f0c458","title": "Tanglin Mall","loc": {"type": "Point","coordinates": [103.82337,1.304792]}} 
{"id": "8234122650","server": "8489","farm": "9","userId": "25802865@N08","secret": "d6ebb29dc5","title": "Tanglin Mall","loc": {"type": "Point","coordinates": [103.82323,1.304921]}} 
{"id": "8168835559","server": "7263","farm": "8","userId": "65512718@N08","secret": "e01f8a68a0","title": "That Kind Of Love","loc": {"type": "Point","coordinates": [103.82286,1.3052]}} 
{"id": "8150040436","server": "8044","farm": "9","userId": "65512718@N08","secret": "45872b3c06","title": "今天 (Today......)","loc": {"type": "Point","coordinates": [103.81943,1.3052]}} 
{"id": "8147599502","server": "8195","farm": "9","userId": "65512718@N08","secret": "6af035cf57","title": "You'll be In My Heart......","loc": {"type": "Point","coordinates": [103.81874,1.304513]}} 
{"id": "9310462357","server": "5482","farm": "6","userId": "92593934@N04","secret": "7252afbba7","title": "Luscious Chilli Crab Bun on their exclusive dim sum menu that's avail now at Summer Palace. I especially enjoyed the fiery kick at the end. (Please make this a permanent item!)","loc": {"type": "Point","coordinates": [103.82499,1.30469]}} 
{"id": "9304517451","server": "2812","farm": "3","userId": "55486190@N00","secret": "87b008fa13","title": "Yummy gourmet @HotelChocolat tasting in #Singapore! Thanks to @UKinSingapore and @sgBritish. My fav 3 are: dark #chocolate with hazelnut creme, dark chocolate ball filled with #whiskey and dark chocolate ball filled with #champagne","loc": {"type": "Point","coordinates": [103.82153,1.304642]}} 
{"id": "9304965102","server": "3723","farm": "4","userId": "20636317@N00","secret": "071363cb39","title": "The boys at Tanglin Mall","loc": {"type": "Point","coordinates": [103.824,1.305166]}} 
{"id": "9288711112","server": "2831","farm": "3","userId": "25530545@N04","secret": "8e3b332977","title": "2013-06-29 at 18-07-54","loc": {"type": "Point","coordinates": [103.825165,1.305667]}} 
{"id": "9288715796","server": "2851","farm": "3","userId": "25530545@N04","secret": "bb41e6b39e","title": "2013-06-29 at 18-17-52","loc": {"type": "Point","coordinates": [103.8225,1.305]}} 
{"id": "9288717294","server": "7406","farm": "8","userId": "25530545@N04","secret": "936299ca64","title": "2013-06-29 at 18-18-47","loc": {"type": "Point","coordinates": [103.82183,1.3055]}} 
{"id": "9288715072","server": "2852","farm": "3","userId": "25530545@N04","secret": "ea8e7fe4a4","title": "2013-06-29 at 18-15-00","loc": {"type": "Point","coordinates": [103.82267,1.305]}} 
{"id": "9285942855","server": "7291","farm": "8","userId": "25530545@N04","secret": "ba83be7156","title": "2013-06-29 at 18-20-32","loc": {"type": "Point","coordinates": [103.820335,1.306]}} 
{"id": "9285935877","server": "7300","farm": "8","userId": "25530545@N04","secret": "8edd1a844e","title": "2013-06-29 at 18-08-33","loc": {"type": "Point","coordinates": [103.825,1.3055]}} 
{"id": "9285939755","server": "3810","farm": "4","userId": "25530545@N04","secret": "7dc51f66ba","title": "2013-06-29 at 18-18-10","loc": {"type": "Point","coordinates": [103.82183,1.305333]}} 
{"id": "9285937511","server": "2870","farm": "3","userId": "25530545@N04","secret": "4ce758b477","title": "2013-06-29 at 18-14-49","loc": {"type": "Point","coordinates": [103.82283,1.305167]}} 
{"id": "9288719116","server": "7417","farm": "8","userId": "25530545@N04","secret": "11e487bf12","title": "2013-06-29 at 18-20-27","loc": {"type": "Point","coordinates": [103.8215,1.305667]}} 
{"id": "9288713572","server": "5517","farm": "6","userId": "25530545@N04","secret": "e44a551a41","title": "2013-06-29 at 18-08-49","loc": {"type": "Point","coordinates": [103.825,1.3055]}} 
{"id": "9285941223","server": "5338","farm": "6","userId": "25530545@N04","secret": "b2c65d0dbc","title": "2013-06-29 at 18-18-52","loc": {"type": "Point","coordinates": [103.8215,1.305667]}} 
{"id": "9247661634","server": "5442","farm": "6","userId": "60026216@N00","secret": "2f7876064d","title": "Shophouses.","loc": {"type": "Point","coordinates": [103.82468,1.305434]}} 
{"id": "9247411178","server": "3810","farm": "4","userId": "60026216@N00","secret": "9fe02fd8f6","title": "The dome.","loc": {"type": "Point","coordinates": [103.82348,1.304835]}} 
{"id": "9220622023","server": "3674","farm": "4","userId": "15170730@N07","secret": "9bcfc57a79","title": "maong ","loc": {"type": "Point","coordinates": [103.82348,1.304835]}} 
{"id": "9222757096","server": "5537","farm": "6","userId": "15170730@N07","secret": "996e80cdf8","title": "monster!","loc": {"type": "Point","coordinates": [103.82376,1.305285]}} 
{"id": "9170436517","server": "5346","farm": "6","userId": "35468141938@N01","secret": "64e6b3af47","title": "While riding in town, discovered this camouflaged Toyota Trueno (AE86) behind some bushes. #InitialD. cc: @cheryltay11","loc": {"type": "Point","coordinates": [103.82348,1.304835]}} 
{"id": "9114494998","server": "7420","farm": "8","userId": "36919220@N00","secret": "b6aee46483","title": "Chili Chez Fries","loc": {"type": "Point","coordinates": [103.826,1.304166]}} 
{"id": "9031353733","server": "3826","farm": "4","userId": "75404268@N00","secret": "6533ce7af0","title": "The perks of a grueling day","loc": {"type": "Point","coordinates": [103.82381,1.304178]}} 
{"id": "9023677591","server": "3679","farm": "4","userId": "23436061@N00","secret": "ff82f2fe83","title": "Side #sweetpotato #foodporn #veg #starch","loc": {"type": "Point","coordinates": [103.82394,1.303054]}} 
{"id": "9023482305","server": "5336","farm": "6","userId": "23436061@N00","secret": "68a33a02aa","title": "Moo #saga #wagyu #marbled #a3 #beef #steak #foodporn","loc": {"type": "Point","coordinates": [103.82394,1.303054]}} 
{"id": "9023349481","server": "2891","farm": "3","userId": "23436061@N00","secret": "43b0865b1c","title": "Tail to Snout #unctuous #foiegras #foodporn #beeftendon #offal #nofilter","loc": {"type": "Point","coordinates": [103.82394,1.303054]}} 
{"id": "9023291159","server": "3759","farm": "4","userId": "23436061@N00","secret": "409962b5f2","title": "Apps #crabcake #crunchy #fried #seafood #nofilter #foodporn","loc": {"type": "Point","coordinates": [103.82394,1.303054]}} 
{"id": "9019375619","server": "2820","farm": "3","userId": "75404268@N00","secret": "61750c3f72","title": "All my favs in one single plate. What a great way to start the day. Good morning!","loc": {"type": "Point","coordinates": [103.82381,1.304178]}} 
{"id": "9006211604","server": "5451","farm": "6","userId": "78686549@N00","secret": "de41867634","title": "Voulez-vous des côtelettes d'agneau?","loc": {"type": "Point","coordinates": [103.82615,1.305367]}} 
{"id": "8995172578","server": "7347","farm": "8","userId": "69921557@N00","secret": "bc748dd8b7","title": "upload","loc": {"type": "Point","coordinates": [103.82394,1.304942]}} 
{"id": "8977496917","server": "5350","farm": "6","userId": "78686549@N00","secret": "abb208bfb8","title": "Tiramisu with Mascarpone, Valrhona Cocoa and Espresso. Are you one that can still sleep with caffeine at night? #labrezza","loc": {"type": "Point","coordinates": [103.82587,1.305672]}} 
{"id": "8977064467","server": "3797","farm": "4","userId": "78686549@N00","secret": "37399a6fd1","title": "Slow cooked Aussie Lamb Rack (half portion) crusted with Kalamata Olives, Vegetable Caponata. Are you lamb or beef person?","loc": {"type": "Point","coordinates": [103.82615,1.305367]}} 
{"id": "8976834613","server": "2828","farm": "3","userId": "78686549@N00","secret": "040308ba20","title": "Pan-seared Hokkaido scallops are just so lovely. It's gently resting on a bed of truffle angel hair pasta and caviar sauce. Want some? Go eat at #labrezza haha...","loc": {"type": "Point","coordinates": [103.82587,1.305672]}} 
{"id": "8977974002","server": "2826","farm": "3","userId": "78686549@N00","secret": "f28ded94a9","title": "Tuscany style Tomato Soup with King Crab. #labrezza","loc": {"type": "Point","coordinates": [103.82587,1.305672]}} 
{"id": "8977671230","server": "3687","farm": "4","userId": "78686549@N00","secret": "b78c5b84dd","title": "Who loves prosciutto pizza? This has Parma Ham, Caramelized Red Onion, Sun-Dried Tomato, Stracciatella and Mozzarella Cheese. #labrezza","loc": {"type": "Point","coordinates": [103.82587,1.305672]}} 
{"id": "8976345839","server": "5467","farm": "6","userId": "78686549@N00","secret": "7eb190c467","title": "Are you one of the kids growing up with music lessons? Do you see the bass clef? #labrezza","loc": {"type": "Point","coordinates": [103.82615,1.305367]}} 
{"id": "8909416676","server": "7313","farm": "8","userId": "12117246@N05","secret": "558378edc5","title": "To the bike shop for a kickstand and new grips.","loc": {"type": "Point","coordinates": [103.825356,1.305499]}} 
{"id": "8809395213","server": "3714","farm": "4","userId": "14385475@N05","secret": "e558fef07f","title": "IMG_5847","loc": {"type": "Point","coordinates": [103.822334,1.305333]}} 
{"id": "8785636503","server": "3760","farm": "4","userId": "55486190@N00","secret": "f99b661225","title": "#Beef and #Vegetable #Soup with Crackers","loc": {"type": "Point","coordinates": [103.825195,1.305366]}} 
{"id": "8774577491","server": "8120","farm": "9","userId": "14385475@N05","secret": "9fcd9a5666","title": "IMG_5851","loc": {"type": "Point","coordinates": [103.8225,1.3055]}} 
{"id": "8781151354","server": "3762","farm": "4","userId": "14385475@N05","secret": "689dda429c","title": "IMG_5852","loc": {"type": "Point","coordinates": [103.8215,1.305833]}} 
{"id": "8774571091","server": "2849","farm": "3","userId": "14385475@N05","secret": "586a389516","title": "IMG_5847","loc": {"type": "Point","coordinates": [103.822334,1.305333]}} 
{"id": "8771901635","server": "5458","farm": "6","userId": "14385475@N05","secret": "296038aa76","title": "IMG_5851","loc": {"type": "Point","coordinates": [103.8225,1.3055]}} 
{"id": "8771919525","server": "7336","farm": "8","userId": "14385475@N05","secret": "690247fe4a","title": "IMG_5853","loc": {"type": "Point","coordinates": [103.821335,1.306]}} 
{"id": "8778452260","server": "5469","farm": "6","userId": "14385475@N05","secret": "d01d4fb2ee","title": "IMG_5848","loc": {"type": "Point","coordinates": [103.82166,1.305666]}} 
{"id": "8771870943","server": "8136","farm": "9","userId": "14385475@N05","secret": "ff9509a35e","title": "IMG_5845","loc": {"type": "Point","coordinates": [103.823166,1.3045]}} 
{"id": "8771897211","server": "2842","farm": "3","userId": "14385475@N05","secret": "be53280fc5","title": "IMG_5855","loc": {"type": "Point","coordinates": [103.8225,1.3055]}} 
{"id": "8771895839","server": "7324","farm": "8","userId": "14385475@N05","secret": "2560aa9779","title": "IMG_5854","loc": {"type": "Point","coordinates": [103.82166,1.305833]}} 
{"id": "8771899353","server": "5344","farm": "6","userId": "14385475@N05","secret": "eb8ab90c9f","title": "IMG_5849","loc": {"type": "Point","coordinates": [103.821335,1.305666]}} 
{"id": "8760771773","server": "2881","farm": "3","userId": "81871661@N00","secret": "13dfeb1d22","title": "#spotted#  passport renewal! Chinese Embassy is pretty efficient I think. They did make people wait without knowing when it could be done for the checking part.","loc": {"type": "Point","coordinates": [103.82145,1.303253]}} 
{"id": "8757833191","server": "7456","farm": "8","userId": "57775558@N05","secret": "f99a8ba122","title": "Contemplation","loc": {"type": "Point","coordinates": [103.82079,1.304856]}} 
{"id": "8757833239","server": "2853","farm": "3","userId": "57775558@N05","secret": "f476e86013","title": "Tea break","loc": {"type": "Point","coordinates": [103.82079,1.304856]}} 
{"id": "8757819599","server": "2822","farm": "3","userId": "57775558@N05","secret": "b29365674d","title": "Snacking","loc": {"type": "Point","coordinates": [103.82079,1.304856]}} 
{"id": "8758945240","server": "7380","farm": "8","userId": "57775558@N05","secret": "96864c9d96","title": "Sharing","loc": {"type": "Point","coordinates": [103.82079,1.304856]}} 
{"id": "8758892558","server": "3709","farm": "4","userId": "57775558@N05","secret": "3669525f92","title": "Snack","loc": {"type": "Point","coordinates": [103.82079,1.304856]}} 
{"id": "8748062870","server": "8413","farm": "9","userId": "55486190@N00","secret": "9f7a7cc58e","title": "@SixStoneJars1: #Beef #Stew and #Couscous with Mixed #Vegetables for Lunch","loc": {"type": "Point","coordinates": [103.82155,1.305114]}} 
{"id": "8730735879","server": "7355","farm": "8","userId": "28137664@N03","secret": "f67032c3be","title": "Nice pile, Chatsworth Road, Singapore","loc": {"type": "Point","coordinates": [103.81768,1.299493]}} 
{"id": "8724468663","server": "7311","farm": "8","userId": "10858702@N02","secret": "869c3a3a97","title": "Afternoon rain","loc": {"type": "Point","coordinates": [103.826164,1.305666]}} 
{"id": "8718837281","server": "7434","farm": "8","userId": "10858702@N02","secret": "a07eebe73b","title": "Image created with Snapseed","loc": {"type": "Point","coordinates": [103.826164,1.3055]}} 
{"id": "8709613734","server": "8549","farm": "9","userId": "69921557@N00","secret": "d0f47b44b1","title": "The clothes here cost me my arms but I have kept my legs!","loc": {"type": "Point","coordinates": [103.82348,1.304835]}} 
{"id": "8699575712","server": "8129","farm": "9","userId": "40601514@N02","secret": "f204c76dc4","title": "W204 Coupe","loc": {"type": "Point","coordinates": [103.82533,1.305338]}} 
{"id": "8698441659","server": "8406","farm": "9","userId": "40601514@N02","secret": "6ccaf6665f","title": "991","loc": {"type": "Point","coordinates": [103.82557,1.304777]}} 
{"id": "8699551520","server": "8407","farm": "9","userId": "40601514@N02","secret": "774a49cc1f","title": "DSC08052","loc": {"type": "Point","coordinates": [103.82527,1.305047]}} 
{"id": "8698238868","server": "8551","farm": "9","userId": "19282426@N00","secret": "e0a690dd54","title": "Braised pork knuckle with mushroom and wolf berries","loc": {"type": "Point","coordinates": [103.823784,1.304152]}} 
{"id": "8674675724","server": "8527","farm": "9","userId": "92593934@N04","secret": "9fd542f3c9","title": "Lovely spread of regional wines and Italy. More on their gastronomic 'Italian Journey' on Six&Seven!","loc": {"type": "Point","coordinates": [103.824875,1.304579]}} 
{"id": "8665650626","server": "8256","farm": "9","userId": "40138859@N02","secret": "988219af42","title": "","loc": {"type": "Point","coordinates": [103.82324,1.304856]}} 
{"id": "8664862688","server": "8258","farm": "9","userId": "48784929@N03","secret": "6c8966bb5d","title": "How to eat, and indeed wear, ribs. By one Griffin Beasley. #365/110","loc": {"type": "Point","coordinates": [103.82376,1.305285]}} 
{"id": "8657208216","server": "8110","farm": "9","userId": "14385475@N05","secret": "7e13227b23","title": "blah blah blah","loc": {"type": "Point","coordinates": [103.82166,1.305666]}} 
{"id": "8656105249","server": "8107","farm": "9","userId": "14385475@N05","secret": "8889695228","title": "IMG_4689","loc": {"type": "Point","coordinates": [103.82567,1.305833]}} 
{"id": "8636114293","server": "8252","farm": "9","userId": "55486190@N00","secret": "c67208f099","title": "All #Vegetarian Today @SixStoneJars1: Tom Yum Green #Papayas with Cherry Tomatoes, Stir-fried #Bittergourd with Cabbage, Onions and Wolfberries accompanied with White #Rice","loc": {"type": "Point","coordinates": [103.82155,1.305114]}} 
{"id": "8623722923","server": "8537","farm": "9","userId": "24773033@N02","secret": "42182f2b6b","title": "Tenderloin Steak for Wowie, Triple Dipper for Ellen, Flame-grilled ribeye steak for JM and Jeff & Chipotle Salmon for Jae #saturdate #housemates #loves","loc": {"type": "Point","coordinates": [103.82376,1.305285]}} 
{"id": "8620480409","server": "8123","farm": "9","userId": "55486190@N00","secret": "72db1ed8d8","title": "#Tomato Salsa #Salad with Mint, Lime and #Oregano","loc": {"type": "Point","coordinates": [103.82155,1.305114]}} 
{"id": "8619111722","server": "8262","farm": "9","userId": "54018495@N08","secret": "9c6ac35b86","title": "","loc": {"type": "Point","coordinates": [103.8235,1.299333]}} 
{"id": "8597652276","server": "8242","farm": "9","userId": "55486190@N00","secret": "33efeb64bc","title": "#EasterEggs at @sgBritish Staff Tea Break!  Have a blessed #Easter, everyone!!","loc": {"type": "Point","coordinates": [103.82164,1.305339]}} 
{"id": "8581973719","server": "8369","farm": "9","userId": "15170730@N07","secret": "0325d852f6","title": "Let's celebrate!","loc": {"type": "Point","coordinates": [103.82374,1.305216]}} 
{"id": "8573369867","server": "8233","farm": "9","userId": "55486190@N00","secret": "9f78b26f79","title": "Super-late Lunch: Sliced Fish #RiceNoodle Soup with #FishBalls","loc": {"type": "Point","coordinates": [103.82341,1.304932]}} 
{"id": "8558885613","server": "8388","farm": "9","userId": "55486190@N00","secret": "9ce9f0d78b","title": "@sgBritish #Adiós Perder Kelly! Farewell!!","loc": {"type": "Point","coordinates": [103.82164,1.305339]}} 
{"id": "8547971250","server": "8251","farm": "9","userId": "31622897@N03","secret": "89617274fc","title": "DSC_8612","loc": {"type": "Point","coordinates": [103.820755,1.303462]}} 
{"id": "8536416488","server": "8392","farm": "9","userId": "31622897@N03","secret": "43de40121b","title": "DSC_9683","loc": {"type": "Point","coordinates": [103.82078,1.303462]}} 
{"id": "8535308429","server": "8088","farm": "9","userId": "31622897@N03","secret": "65008b92a6","title": "DSC_9695","loc": {"type": "Point","coordinates": [103.82078,1.303398]}} 
{"id": "8536291578","server": "8379","farm": "9","userId": "55486190@N00","secret": "0159e71179","title": "#Chicken & Green Chille soup: Rice, Green chiles & #Tomatoes topped with Cilantro, #Avocado and Lime wedge","loc": {"type": "Point","coordinates": [103.82374,1.305216]}} 
{"id": "8535190383","server": "8093","farm": "9","userId": "55486190@N00","secret": "dd2754dcd7","title": "Spicy Southwestern #Chicken #Pasta: Sliced, seasoned chicken breast on penne pasta and spicy chili pesto Alfredo sauce, diced tomatoes, #Parmesan cheese and garlic toast","loc": {"type": "Point","coordinates": [103.82374,1.305216]}} 
{"id": "8535174369","server": "8385","farm": "9","userId": "55486190@N00","secret": "8c36e91b4e","title": "Chili's #Cheese #Poppers with #BritishCouncil MarCom Team","loc": {"type": "Point","coordinates": [103.82374,1.305216]}} 
{"id": "8531548722","server": "8368","farm": "9","userId": "12349714@N07","secret": "a6582da81a","title": "Sunset over Singapore","loc": {"type": "Point","coordinates": [103.824005,1.299322]}} 
{"id": "8517728074","server": "8094","farm": "9","userId": "55486190@N00","secret": "a10f571d56","title": "@sgBritish #Dining #Etiquette by #ElaineHeng Image Consultancy","loc": {"type": "Point","coordinates": [103.82381,1.304173]}} 
{"id": "8503198568","server": "8529","farm": "9","userId": "92593934@N04","secret": "2c156487e1","title": "Asparagus & cheese risotto.","loc": {"type": "Point","coordinates": [103.8261,1.305349]}} 
{"id": "8502073033","server": "8373","farm": "9","userId": "92593934@N04","secret": "6990a5c413","title": "Part of their antipasti buffet. Burrata? Hell yeah.","loc": {"type": "Point","coordinates": [103.8261,1.305349]}} 
{"id": "8498169980","server": "8094","farm": "9","userId": "55486190@N00","secret": "38a0c2fd09","title": "@sgBritish #BritishCouncil #Singapore #LoHei","loc": {"type": "Point","coordinates": [103.82164,1.305339]}} 
{"id": "8497468858","server": "8087","farm": "9","userId": "27703797@N06","secret": "55ebbb5369","title": "Camera Roll-122","loc": {"type": "Point","coordinates": [103.81817,1.3015]}} 
{"id": "8481717588","server": "8088","farm": "9","userId": "78686549@N00","secret": "0fb0a4dc47","title": "Tagliatelle Vongole. The tagliatelle were freshly made and cooked the texture I like. The tomatoes were good. (Haha. Yes me and my tomatoes)","loc": {"type": "Point","coordinates": [103.8261,1.305349]}} 
{"id": "8481520108","server": "8367","farm": "9","userId": "78686549@N00","secret": "e5e05cf755","title": "These San Marzano, Sardinia Green and Grappolo Tomatoes looks good ya?","loc": {"type": "Point","coordinates": [103.8261,1.305349]}} 
{"id": "8480320911","server": "8231","farm": "9","userId": "78686549@N00","secret": "3f9e7d5566","title": "Pizza Vesuvio. It's with tomato sauce, Italian sausage and roasted sweet peppers.","loc": {"type": "Point","coordinates": [103.8261,1.305349]}} 
{"id": "8481356404","server": "8517","farm": "9","userId": "78686549@N00","secret": "fc608cf650","title": "So many things to try. Took only 1/5 of it or maybe 1/6. Interesting ones are the Burrata Cheese, White Anchovies and Sardinia Green Tomatoes.","loc": {"type": "Point","coordinates": [103.8261,1.305349]}} 
{"id": "8480207773","server": "8241","farm": "9","userId": "78686549@N00","secret": "067ff3fa3c","title": "Uovo Tartufate e Fontina. In English: 45 minute poached eggs with fontina and truffle sauce. I got a weakness for eggs cooked this way.","loc": {"type": "Point","coordinates": [103.8261,1.305349]}} 
{"id": "8481211534","server": "8512","farm": "9","userId": "78686549@N00","secret": "d93c5f9747","title": "20 year old prosciutto (most left) for Sunday brunch.","loc": {"type": "Point","coordinates": [103.8261,1.305349]}} 
{"id": "8432622272","server": "8332","farm": "9","userId": "67851013@N02","secret": "9d525481e7","title": "Another #brew 06/01/13.","loc": {"type": "Point","coordinates": [103.82394,1.304942]}} 
{"id": "8432621446","server": "8225","farm": "9","userId": "67851013@N02","secret": "458805dc0b","title": "#Sweet things are made of these 06/01/13.","loc": {"type": "Point","coordinates": [103.82394,1.304942]}} 
{"id": "8432621970","server": "8332","farm": "9","userId": "67851013@N02","secret": "2e6c9bed06","title": "#Sweet things are made of these 06/01/13.","loc": {"type": "Point","coordinates": [103.82394,1.304942]}} 
{"id": "8406051476","server": "8377","farm": "9","userId": "18673521@N00","secret": "946f5fefc2","title": "Stewed Beef Brisket 柱候牛腩煲 #yum #love","loc": {"type": "Point","coordinates": [103.82612,1.305843]}} 
{"id": "8404857883","server": "8218","farm": "9","userId": "18673521@N00","secret": "4169d10a47","title": "King Prawn with Plum Sauce #yum","loc": {"type": "Point","coordinates": [103.82612,1.305843]}} 
{"id": "8405946524","server": "8351","farm": "9","userId": "18673521@N00","secret": "eff550ee9d","title": "Steamed Sea Perch Fillet with Special Coral Sauce #yum","loc": {"type": "Point","coordinates": [103.82612,1.305843]}} 
{"id": "8404800197","server": "8097","farm": "9","userId": "18673521@N00","secret": "b1cc7a14ba","title": "Getting up close & personal with the premium ingredients in the Pen Cai 盆菜. #yum #cny","loc": {"type": "Point","coordinates": [103.82612,1.305843]}} 
{"id": "8405853006","server": "8235","farm": "9","userId": "18673521@N00","secret": "fe73fe39bd","title": "The Yu Sheng before the fish, sauce and seasoning was added. #cny","loc": {"type": "Point","coordinates": [103.82612,1.305843]}} 
{"id": "8405793666","server": "8196","farm": "9","userId": "18673521@N00","secret": "f8b6901c6a","title": "Abalone & Salmon Yusheng #yum #CNY","loc": {"type": "Point","coordinates": [103.82612,1.305843]}} 
{"id": "8401239009","server": "8215","farm": "9","userId": "60731678@N06","secret": "1d8e476170","title": "The St. Regis Singapore—RemÃ¨de Spa Reception","loc": {"type": "Point","coordinates": [103.82565,1.30568]}} 
{"id": "8401151175","server": "8238","farm": "9","userId": "60731678@N06","secret": "b4d852ff67","title": "The St. Regis Singapore—Presidential Suite","loc": {"type": "Point","coordinates": [103.82565,1.30568]}} 
{"id": "8402201500","server": "8368","farm": "9","userId": "60731678@N06","secret": "99eafe60fd","title": "The St. Regis Singapore—The Drawing Room","loc": {"type": "Point","coordinates": [103.82565,1.30568]}} 
{"id": "8402203190","server": "8089","farm": "9","userId": "60731678@N06","secret": "111faca146","title": "The St. Regis Singapore—King Cole Suite - Living Room","loc": {"type": "Point","coordinates": [103.82565,1.30568]}} 
{"id": "8402200112","server": "8330","farm": "9","userId": "60731678@N06","secret": "53928331c8","title": "The St. Regis Singapore—The St. Regis Singapore","loc": {"type": "Point","coordinates": [103.82565,1.30568]}} 
{"id": "8390822771","server": "8084","farm": "9","userId": "55486190@N00","secret": "d10dc0d1b0","title": "Quick #Lunch: Salmon #Sushi & Avocado #Maki","loc": {"type": "Point","coordinates": [103.82368,1.30483]}} 
{"id": "8384483661","server": "8361","farm": "9","userId": "55486190@N00","secret": "30e1ce0420","title": "#Kopi C Siew Dai - Local #coffee with evaporated #milk and less sugar ☕","loc": {"type": "Point","coordinates": [103.82375,1.30373]}} 
{"id": "8385153478","server": "8076","farm": "9","userId": "42154816@N02","secret": "00d118b90f","title": "","loc": {"type": "Point","coordinates": [103.82381,1.302969]}} 
{"id": "8370597146","server": "8472","farm": "9","userId": "55486190@N00","secret": "e9a14237a9","title": "Are you a #HelloKitty fan? @HelloKitty @HelloKittyMania #Jelly #Pudding","loc": {"type": "Point","coordinates": [103.82368,1.30483]}} 
{"id": "8352722346","server": "8229","farm": "9","userId": "26007569@N03","secret": "ea4bab6b66","title": "Manok ulit :)","loc": {"type": "Point","coordinates": [103.823204,1.304953]}} 
{"id": "8350694164","server": "8237","farm": "9","userId": "16102830@N05","secret": "d49db70fd4","title": "1211_NovemberRandoms_HR_219","loc": {"type": "Point","coordinates": [103.81834,1.304833]}} 
{"id": "8350693700","server": "8047","farm": "9","userId": "16102830@N05","secret": "bd61c64276","title": "1211_NovemberRandoms_HR_220","loc": {"type": "Point","coordinates": [103.8185,1.304833]}} 
{"id": "8340419695","server": "8354","farm": "9","userId": "51489026@N02","secret": "88f4935fec","title": "The night race","loc": {"type": "Point","coordinates": [103.82502,1.305537]}} 
{"id": "8332383323","server": "8221","farm": "9","userId": "90343499@N04","secret": "22e3c51a85","title": "Xmas foam party. Singapore snow","loc": {"type": "Point","coordinates": [103.82348,1.304835]}} 
{"id": "8308839577","server": "8212","farm": "9","userId": "90343499@N04","secret": "ef2705f4b6","title": "Boxing day treats","loc": {"type": "Point","coordinates": [103.82394,1.304942]}} 
{"id": "8308444829","server": "8494","farm": "9","userId": "42594504@N00","secret": "00635a87b5","title": "A match made in Anfield","loc": {"type": "Point","coordinates": [103.8252,1.304644]}} 
{"id": "8306346324","server": "8073","farm": "9","userId": "69921557@N00","secret": "616546c5d5","title": "upload","loc": {"type": "Point","coordinates": [103.82507,1.304696]}} 
{"id": "8300624614","server": "8072","farm": "9","userId": "41894167963@N01","secret": "34d09c4fe1","title": "Tanglin Mall Christmas tree","loc": {"type": "Point","coordinates": [103.82349,1.304836]}} 
{"id": "8300627696","server": "8355","farm": "9","userId": "41894167963@N01","secret": "4a4dc81cc4","title": "Boneless buffalo wings","loc": {"type": "Point","coordinates": [103.82374,1.305216]}} 
{"id": "8297229326","server": "8073","farm": "9","userId": "15170730@N07","secret": "bcfaf2d6d1","title": "frappe with @kikaysyosa & facetime with @mimimacapagal...","loc": {"type": "Point","coordinates": [103.82324,1.304856]}} 
{"id": "8284790956","server": "8216","farm": "9","userId": "65512718@N08","secret": "0cd98378da","title": "玫瑰色的你 (The Rose Color)","loc": {"type": "Point","coordinates": [103.82286,1.299708]}} 
{"id": "8286631649","server": "8210","farm": "9","userId": "65526809@N00","secret": "8f27b5304c","title": "Winter comes to Singapore. It's wet soapy foam...","loc": {"type": "Point","coordinates": [103.82348,1.304835]}} 
{"id": "8272344478","server": "8083","farm": "9","userId": "55486190@N00","secret": "b4259ff364","title": "#Baby #Sophie  with #Mummy YuMin too! #Singapore #FoodCourt","loc": {"type": "Point","coordinates": [103.82341,1.304932]}} 
{"id": "8272253996","server": "8074","farm": "9","userId": "42234254@N02","secret": "44a7672202","title": "Different Ways","loc": {"type": "Point","coordinates": [103.82559,1.305087]}} 
{"id": "8271199937","server": "8083","farm": "9","userId": "42234254@N02","secret": "1a458016d8","title": "Artificial Nature","loc": {"type": "Point","coordinates": [103.82559,1.305151]}} 
{"id": "8271121393","server": "8348","farm": "9","userId": "42234254@N02","secret": "03b37bf649","title": "Neat Clutter","loc": {"type": "Point","coordinates": [103.82557,1.305087]}} 
{"id": "8271069261","server": "8504","farm": "9","userId": "90343499@N04","secret": "9b1d0008ef","title": "upload","loc": {"type": "Point","coordinates": [103.82348,1.304835]}} 
{"id": "8272129486","server": "8214","farm": "9","userId": "90343499@N04","secret": "1831c0ea22","title": "upload","loc": {"type": "Point","coordinates": [103.82348,1.304835]}} 
{"id": "8271038777","server": "8211","farm": "9","userId": "55486190@N00","secret": "91680810b4","title": "#Christmas #gift from #BritishCouncil #colleague not #Santa #Claus","loc": {"type": "Point","coordinates": [103.82164,1.305339]}} 
{"id": "8271990444","server": "8069","farm": "9","userId": "55486190@N00","secret": "2abc213e3b","title": "See who I met for lunch? #TanglinMall #FoodCourt #Singapore #Baby #Kid","loc": {"type": "Point","coordinates": [103.82341,1.304932]}} 
{"id": "8270916895","server": "8492","farm": "9","userId": "55486190@N00","secret": "87f7b7fe93","title": "#Ginger #Bread #Houses  @RegentSingapore #Christmas #Singapore","loc": {"type": "Point","coordinates": [103.82496,1.304153]}} 
{"id": "8268518327","server": "8080","farm": "9","userId": "23050195@N04","secret": "eefd057d14","title": "Picture with Santas!","loc": {"type": "Point","coordinates": [103.82348,1.304835]}} 
{"id": "8267346546","server": "8224","farm": "9","userId": "42234254@N02","secret": "14546487e5","title": "Evening Orchids","loc": {"type": "Point","coordinates": [103.825485,1.305125]}} 
{"id": "8265455199","server": "8221","farm": "9","userId": "69921557@N00","secret": "1714a05041","title": "upload","loc": {"type": "Point","coordinates": [103.82507,1.304696]}} 
{"id": "8264915527","server": "8492","farm": "9","userId": "25802865@N08","secret": "8430f3a44e","title": "Tanglin Mall","loc": {"type": "Point","coordinates": [103.823524,1.304835]}} 
{"id": "8265980512","server": "8347","farm": "9","userId": "25802865@N08","secret": "fa89fd4d8f","title": "Tanglin Mall","loc": {"type": "Point","coordinates": [103.82346,1.304835]}} 
{"id": "8265981690","server": "8082","farm": "9","userId": "25802865@N08","secret": "35f564f0b5","title": "Tanglin Mall","loc": {"type": "Point","coordinates": [103.82355,1.304835]}} 
{"id": "8254578764","server": "8494","farm": "9","userId": "55486190@N00","secret": "808986cac6","title": "#Happy #Birthday to @jeeaaannnnn & @gpoovan! @RegentSingapore @BestOfSingapore","loc": {"type": "Point","coordinates": [103.8249,1.304433]}} 
{"id": "8254337724","server": "8351","farm": "9","userId": "55486190@N00","secret": "14a659f1cc","title": "#Basilico #Italian #Buffet #Lunch @RegentSingapore @BestOfSingapore","loc": {"type": "Point","coordinates": [103.8249,1.304433]}} 
{"id": "8250921409","server": "8489","farm": "9","userId": "55486190@N00","secret": "b7d4b8de20","title": "#Basilico #Italian #Appetisers and #Cheeses","loc": {"type": "Point","coordinates": [103.8249,1.304433]}} 
{"id": "8251662752","server": "8484","farm": "9","userId": "55486190@N00","secret": "59f8e95849","title": "Christmas gift from my Secret Santa","loc": {"type": "Point","coordinates": [103.82164,1.305339]}} 
{"id": "8233474881","server": "8068","farm": "9","userId": "90343499@N04","secret": "25c930312e","title": "Salmon Bento Box","loc": {"type": "Point","coordinates": [103.82341,1.304932]}} 
{"id": "8234529442","server": "8340","farm": "9","userId": "90343499@N04","secret": "2582209368","title": "Tempura Udon","loc": {"type": "Point","coordinates": [103.82341,1.304932]}} 
{"id": "8234123364","server": "8062","farm": "9","userId": "25802865@N08","secret": "11ca20d383","title": "Tanglin Mall","loc": {"type": "Point","coordinates": [103.82342,1.304964]}} 
{"id": "8215156477","server": "8344","farm": "9","userId": "36055891@N08","secret": "6d09a0b59e","title": "Heavy #rain #singapore #tanglin #holland #weather","loc": {"type": "Point","coordinates": [103.815704,1.305907]}} 
{"id": "8212493615","server": "8485","farm": "9","userId": "47850243@N06","secret": "3b43a3b733","title": "Left > right : #wilsenism > @hahahansen #twinsphotography","loc": {"type": "Point","coordinates": [103.825005,1.304011]}} 
{"id": "8211466996","server": "8344","farm": "9","userId": "47850243@N06","secret": "84f54fd23d","title": "#regent #singapore #wilsenism","loc": {"type": "Point","coordinates": [103.825005,1.304011]}} 
{"id": "8210376877","server": "8070","farm": "9","userId": "47850243@N06","secret": "5e2f6ca774","title": "5 stars hotel & no wifi #regent #singapore #wilsenism","loc": {"type": "Point","coordinates": [103.825005,1.304011]}} 
{"id": "8198423273","server": "8337","farm": "9","userId": "25802865@N08","secret": "912226f89f","title": "Brunetti","loc": {"type": "Point","coordinates": [103.8235,1.304856]}} 
{"id": "8197452707","server": "8479","farm": "9","userId": "60026216@N00","secret": "c2371dd2c5","title": "Long queue after the embassy was closed for several days last week.","loc": {"type": "Point","coordinates": [103.82247,1.29968]}} 
{"id": "8198384804","server": "8486","farm": "9","userId": "25802865@N08","secret": "24ba167308","title": "Tanglin Mall","loc": {"type": "Point","coordinates": [103.82337,1.304964]}} 
{"id": "8198383650","server": "8210","farm": "9","userId": "25802865@N08","secret": "c73967a08c","title": "Tanglin Mall","loc": {"type": "Point","coordinates": [103.82329,1.304921]}} 
{"id": "8198388908","server": "8206","farm": "9","userId": "25802865@N08","secret": "ec3fa8c084","title": "Tanglin Mall","loc": {"type": "Point","coordinates": [103.82336,1.304899]}} 
{"id": "8198389810","server": "8482","farm": "9","userId": "25802865@N08","secret": "04805a64bb","title": "Tanglin Mall","loc": {"type": "Point","coordinates": [103.82336,1.304964]}} 
{"id": "8197295401","server": "8348","farm": "9","userId": "25802865@N08","secret": "f5de17abb3","title": "Tanglin Mall","loc": {"type": "Point","coordinates": [103.82324,1.3049]}} 
{"id": "8197296541","server": "8061","farm": "9","userId": "25802865@N08","secret": "11151308cc","title": "Tanglin Mall","loc": {"type": "Point","coordinates": [103.823265,1.304814]}} 
{"id": "8197294521","server": "8062","farm": "9","userId": "25802865@N08","secret": "50b80cb0ea","title": "Tanglin Mall","loc": {"type": "Point","coordinates": [103.82329,1.304942]}} 
{"id": "8189269375","server": "8350","farm": "9","userId": "55486190@N00","secret": "5f45f37cdc","title": "#Beef #Ribs, #Eggplant & #Basmati #Rice @SixStoneJars1 #Fusion #Food","loc": {"type": "Point","coordinates": [103.82155,1.305114]}} 
{"id": "8168708713","server": "8486","farm": "9","userId": "55486190@N00","secret": "1dc3d91cfe","title": "#Mee #Tai #Mak (#Mouse #Tail #Noodle), #Eggplant, #Caixin, #Buttered #Fish and #Sambal #Chilli #Fusion #Lunch #NoMSG","loc": {"type": "Point","coordinates": [103.82155,1.305114]}} 
{"id": "8166326440","server": "8059","farm": "9","userId": "55486190@N00","secret": "32745624f9","title": "#iPad #Mini @sgBritish @moveandmatch @gpoovan #Apple @CrunkCafe @ChrisRambles @Jeeaaannnnn @Forest8081","loc": {"type": "Point","coordinates": [103.82164,1.305339]}} 
{"id": "8160284172","server": "8483","farm": "9","userId": "55486190@N00","secret": "c7f17ea9b7","title": "#Beef with #Bell #Peppers, #Bittergourd & #Brown #Rice @SixStoneJars1 #Food","loc": {"type": "Point","coordinates": [103.82155,1.305114]}} 
{"id": "8160225379","server": "7124","farm": "8","userId": "55486190@N00","secret": "4ef866e0e9","title": "Stir-fried Beef, Bittergourd & Brown Rice @SixStoneJars1 #Food #BritishCouncil","loc": {"type": "Point","coordinates": [103.82155,1.305114]}} 
{"id": "8148156312","server": "8195","farm": "9","userId": "55486190@N00","secret": "a60d27979e","title": "#Heart shaped #Hazelnut #Ferrero #Rocher #Chocolate? #Hmm ... #Yummy! :-)","loc": {"type": "Point","coordinates": [103.82164,1.305339]}} 
{"id": "8055238193","server": "8318","farm": "9","userId": "65512718@N08","secret": "3151c6ea87","title": "唯一 (One & Only)","loc": {"type": "Point","coordinates": [103.82561,1.304513]}} 
{"id": "8061489501","server": "8041","farm": "9","userId": "65512718@N08","secret": "0e33a06fbf","title": "Angel......","loc": {"type": "Point","coordinates": [103.82149,1.305886]}} 
{"id": "8143852772","server": "8187","farm": "9","userId": "55486190@N00","secret": "2705d70b25","title": "#Egg #Curry, #Steamed #Cabbage and #Brown #Rice with #Sambal #Chilli #Fusion #Lunch","loc": {"type": "Point","coordinates": [103.82155,1.305114]}} 
{"id": "8141455533","server": "8050","farm": "9","userId": "55486190@N00","secret": "92b014d67c","title": "#Happy #Halloween!  #Trick or #Treat! #Salem #Pumpkin","loc": {"type": "Point","coordinates": [103.82164,1.305339]}} 
{"id": "8140826010","server": "8193","farm": "9","userId": "77882382@N00","secret": "5ae13eb7cc","title": "Grange Residences Lobby","loc": {"type": "Point","coordinates": [103.82267,1.30447]}} 
{"id": "8140771115","server": "8335","farm": "9","userId": "97478728@N00","secret": "7c340013ee","title": "upload","loc": {"type": "Point","coordinates": [103.82383,1.303565]}} 
{"id": "8127489938","server": "8191","farm": "9","userId": "65512718@N08","secret": "ee1a79f713","title": "還是愛你...... (Still Love You)","loc": {"type": "Point","coordinates": [103.81874,1.304513]}} 
{"id": "8124057645","server": "8183","farm": "9","userId": "69921557@N00","secret": "21867be3ab","title": "The flowers are always beautiful at The Regent.","loc": {"type": "Point","coordinates": [103.82533,1.304879]}} 
{"id": "8119172735","server": "8185","farm": "9","userId": "8284816@N05","secret": "4fbd081c1f","title": "","loc": {"type": "Point","coordinates": [103.823166,1.305]}} 
{"id": "8119183660","server": "8194","farm": "9","userId": "8284816@N05","secret": "e62ac24ac7","title": "","loc": {"type": "Point","coordinates": [103.82267,1.305333]}} 
{"id": "8099662979","server": "8332","farm": "9","userId": "64910453@N07","secret": "21dc363e99","title": "Jalak Jawa (Javan Myna)","loc": {"type": "Point","coordinates": [103.82075,1.299247]}} 
{"id": "8089202245","server": "8051","farm": "9","userId": "55486190@N00","secret": "2f783b9aaa","title": "Stir-fried #Beef with #Shiitake #Black #Mushrooms and #Cabbage with #Brown #Rice @SixStoneJars1 #Food #Singapore #BritishCouncil","loc": {"type": "Point","coordinates": [103.82155,1.305114]}} 
{"id": "8066638126","server": "8459","farm": "9","userId": "55486190@N00","secret": "c20dac60ca","title": "#Sushi #lunch - #Salmon, #Tuna, #Shrimp, #Squid, #Clam and #Roe - #takeaway from #Japanese counter","loc": {"type": "Point","coordinates": [103.82368,1.30483]}} 
{"id": "8053427974","server": "8451","farm": "9","userId": "65512718@N08","secret": "3722179f66","title": "Only In My Dreams.........","loc": {"type": "Point","coordinates": [103.82149,1.305886]}} 
{"id": "8035065890","server": "8453","farm": "9","userId": "7924922@N05","secret": "d86e8e3cd7","title": "Pear and cheese crumble","loc": {"type": "Point","coordinates": [103.82394,1.304942]}} 
{"id": "8035064864","server": "8312","farm": "9","userId": "7924922@N05","secret": "1b042ef415","title": "profiteroles","loc": {"type": "Point","coordinates": [103.82394,1.304942]}} 
