{"id": "9433090967","server": "3816","farm": "4","userId": "30305407@N00","secret": "16f092c2da","title": "impromptu and lazy 'let's clean out the cupboards' dinner: Asian mushroom fusilli with golden cherry tomatoes and olives. Pasta Dinner Mushrooms In My Kitchen","loc": {"type": "Point","coordinates": [103.84333,1.347]}} 
{"id": "9433238576","server": "3703","farm": "4","userId": "30305407@N00","secret": "28502aba21","title": "gooooood morning! yum yum. Pancakes Breakfast Food Porn Sunday","loc": {"type": "Point","coordinates": [103.8425,1.3465]}} 
{"id": "8820519540","server": "7312","farm": "8","userId": "35468141938@N01","secret": "3b7f94de6a","title": "Auspicium Melioris Aevi... Cycling proficiency test for ODAC student guides in preparation for Gear Up! Night riding event.","loc": {"type": "Point","coordinates": [103.84294,1.346731]}} 
{"id": "8819961340","server": "5456","farm": "6","userId": "35468141938@N01","secret": "9cc24c2822","title": "Gear Up! Night Cycling Safety Briefing WITH cycling proficiency test for student guides. On event night, there'll be 100+ students broken into 9 groups, guided by these ODAC (Outdoor Activity Club) guides, and us teacher escorts. One teacher escort per gr","loc": {"type": "Point","coordinates": [103.84294,1.346731]}} 
{"id": "8728125646","server": "7399","farm": "8","userId": "30305407@N00","secret": "91e912bef1","title": "This morning was hash, tempeh bacon, and toast. Yum.","loc": {"type": "Point","coordinates": [103.84316,1.347166]}} 
{"id": "8606286340","server": "8394","farm": "9","userId": "30305407@N00","secret": "ed4f01102e","title": "Today's spread: sweet potato gratin, honey-tamari greens, tempeh hash, banana-almond pancakes with maple syrup, fresh fruit, coffee, pineapple juice, prosecco!","loc": {"type": "Point","coordinates": [103.843,1.347166]}} 
{"id": "9286085123","server": "3704","farm": "4","userId": "25530545@N04","secret": "99649e3770","title": "2013-07-01 at 12-26-47","loc": {"type": "Point","coordinates": [103.845665,1.341667]}} 
{"id": "9279818017","server": "7446","farm": "8","userId": "12536334@N08","secret": "26bfa39092","title": "3 Little Monkeys","loc": {"type": "Point","coordinates": [103.84031,1.342276]}} 
{"id": "9281391910","server": "3760","farm": "4","userId": "12536334@N08","secret": "64d5a8662d","title": "Rusty with his smelly racing car Jarmmers.","loc": {"type": "Point","coordinates": [103.84031,1.342276]}} 
{"id": "9166500710","server": "7318","farm": "8","userId": "92276767@N08","secret": "716509c13d","title": "The Grid","loc": {"type": "Point","coordinates": [103.83933,1.3435]}} 
{"id": "9152558232","server": "5326","farm": "6","userId": "92202902@N03","secret": "9f32630e93","title": "The Observatory","loc": {"type": "Point","coordinates": [103.84348,1.346661]}} 
{"id": "9150606350","server": "7310","farm": "8","userId": "92202902@N03","secret": "4f0d61f00e","title": "The Observer III","loc": {"type": "Point","coordinates": [103.84416,1.346216]}} 
{"id": "9031573409","server": "3782","farm": "4","userId": "20795424@N00","secret": "158ca1cf5d","title": "It's very happening at night here.","loc": {"type": "Point","coordinates": [103.837814,1.341883]}} 
{"id": "9013552753","server": "2863","farm": "3","userId": "20795424@N00","secret": "17329b6ca4","title": "Channel surfing, because she's on epidural.","loc": {"type": "Point","coordinates": [103.837814,1.341883]}} 
{"id": "9013929794","server": "7374","farm": "8","userId": "20795424@N00","secret": "865aa4136a","title": "The anaesthetist said I could go eat...","loc": {"type": "Point","coordinates": [103.837814,1.341883]}} 
{"id": "9004984475","server": "3756","farm": "4","userId": "30305407@N00","secret": "bf31fd278e","title": "Tonight: garlic stir-fried kai lan, shimeji mushrooms, tomatoes, and veggie 'meat' over quinoa.","loc": {"type": "Point","coordinates": [103.842834,1.347166]}} 
{"id": "8921211335","server": "7352","farm": "8","userId": "40407806@N00","secret": "51937f8a9d","title": "","loc": {"type": "Point","coordinates": [103.8375,1.342166]}} 
{"id": "8921828704","server": "5321","farm": "6","userId": "40407806@N00","secret": "9b266ab36b","title": "","loc": {"type": "Point","coordinates": [103.8375,1.342166]}} 
{"id": "8910848847","server": "5444","farm": "6","userId": "30305407@N00","secret": "826f0e1f1e","title": "More kai-lan! This time with tomatoes and vegetarian 'meat' in a spicy garlic stir-fry.","loc": {"type": "Point","coordinates": [103.84316,1.347166]}} 
{"id": "8909014776","server": "5343","farm": "6","userId": "30305407@N00","secret": "0e1eded3a8","title": "Three days in a row! It's a habit now. #acceptance #kitteh","loc": {"type": "Point","coordinates": [103.84316,1.347166]}} 
{"id": "8889373466","server": "8554","farm": "9","userId": "30305407@N00","secret": "21f6aa582b","title": "A simple shiitake and kai-lan stir fry in veggie oyster and garlicky sambal sauce. Served over brown basmati.","loc": {"type": "Point","coordinates": [103.843,1.347166]}} 
{"id": "8755780027","server": "7282","farm": "8","userId": "17883632@N03","secret": "4b8c061863","title": "SH45PTB243","loc": {"type": "Point","coordinates": [103.84277,1.345701]}} 
{"id": "8737203461","server": "7285","farm": "8","userId": "30305407@N00","secret": "da263b87f7","title": "Greek-style quinoa salad: feta, olives, tomatoes, shallots, and mixed beans with lots of parsley, served over spring greens.","loc": {"type": "Point","coordinates": [103.84316,1.347]}} 
{"id": "8719237631","server": "7311","farm": "8","userId": "46559875@N08","secret": "96b8e89789","title": "After the rain, early evening, in Toa Payoh.","loc": {"type": "Point","coordinates": [103.84802,1.340866]}} 
{"id": "8719238151","server": "7424","farm": "8","userId": "46559875@N08","secret": "904f5848e1","title": "After the rain, early evening, in Toa Payoh.","loc": {"type": "Point","coordinates": [103.84802,1.340866]}} 
{"id": "8705926113","server": "8280","farm": "9","userId": "30305407@N00","secret": "09769e4739","title": "cat nap","loc": {"type": "Point","coordinates": [103.843,1.347166]}} 
{"id": "8701750372","server": "8534","farm": "9","userId": "30305407@N00","secret": "e640e1f04f","title": "In my kitchen: Spicy and tangy eggplant chana dal, served with garlic baby kai lan.","loc": {"type": "Point","coordinates": [103.843,1.346833]}} 
{"id": "8687518469","server": "7055","farm": "8","userId": "46559875@N08","secret": "a1b35a9a97","title": "","loc": {"type": "Point","coordinates": [103.84683,1.341999]}} 
{"id": "8676909325","server": "8546","farm": "9","userId": "30305407@N00","secret": "458bf72849","title": "Broccoli, edamame, sweet corn, and shiitake ginger lemon salad. Yum!","loc": {"type": "Point","coordinates": [103.84316,1.347166]}} 
{"id": "8676906961","server": "8400","farm": "9","userId": "30305407@N00","secret": "912a0c161b","title": "Tonight: pan-fried miso-marinated faux chicken. Served with stock-infused brown rice.","loc": {"type": "Point","coordinates": [103.84316,1.347166]}} 
{"id": "8672989979","server": "8525","farm": "9","userId": "46559875@N08","secret": "588b50e926","title": "Yellow Pages Building at Braddell MRT Station, Singapore","loc": {"type": "Point","coordinates": [103.84623,1.340789]}} 
{"id": "8673787092","server": "8385","farm": "9","userId": "93610102@N06","secret": "3985bfaab2","title": "Singapore","loc": {"type": "Point","coordinates": [103.845665,1.3455]}} 
{"id": "8661734827","server": "8254","farm": "9","userId": "46559875@N08","secret": "96c7c77dcf","title": "A sea kite atop HDB flat","loc": {"type": "Point","coordinates": [103.84745,1.341852]}} 
{"id": "8633638901","server": "8534","farm": "9","userId": "30305407@N00","secret": "930118935c","title": "This dish gets better every time I make it: 'veal' tempeh pizzaiola pasta. Yummy comfort food!","loc": {"type": "Point","coordinates": [103.843,1.346833]}} 
{"id": "8620754357","server": "8541","farm": "9","userId": "30305407@N00","secret": "31e69b6391","title": "Lunch earlier today: a loaded sandwich with homemade sweet potato chips and dill pickles on the side.","loc": {"type": "Point","coordinates": [103.84316,1.347166]}} 
{"id": "8619340250","server": "8527","farm": "9","userId": "30305407@N00","secret": "1b9a869b8b","title": "Linguine alla vodka, with a wee bit of chorizo. Super yum!","loc": {"type": "Point","coordinates": [103.84316,1.347166]}} 
{"id": "8611694361","server": "8257","farm": "9","userId": "30305407@N00","secret": "c303e52f93","title": "Boiled Eggs Florentine and toast. A bit unusual but oh-so-yum!","loc": {"type": "Point","coordinates": [103.84316,1.347]}} 
{"id": "8607678693","server": "8393","farm": "9","userId": "30305407@N00","secret": "f658a778f2","title": "It's hard work, but SOMEBODY had to use up the leftover pancake batter... ;)","loc": {"type": "Point","coordinates": [103.84316,1.347]}} 
{"id": "8601678171","server": "8401","farm": "9","userId": "94331119@N04","secret": "6d2aa1dc87","title": "from 7-11 is a store and more","loc": {"type": "Point","coordinates": [103.837814,1.341883]}} 
{"id": "8520940420","server": "8365","farm": "9","userId": "74683311@N06","secret": "b57de2e865","title": "#abercrombiehot #A&F #abercrombie #addiction #model #a&fflagship #i❤sg","loc": {"type": "Point","coordinates": [103.84647,1.342689]}} 
{"id": "8508117477","server": "8368","farm": "9","userId": "74683311@N06","secret": "b90282db20","title": "#repost #moveforward  #truth #qoutes #positivity #vintage #lomo #morning","loc": {"type": "Point","coordinates": [103.84646,1.342657]}} 
{"id": "8506672963","server": "8100","farm": "9","userId": "74683311@N06","secret": "c2ae25cfa4","title": "#qoute #positivity #huffingtonpost #celebrityqoutes","loc": {"type": "Point","coordinates": [103.84647,1.34268]}} 
{"id": "8504504792","server": "8244","farm": "9","userId": "74683311@N06","secret": "bfeaaf266e","title": "#repost #ABERCROMBIEHOT #qoutes #positivity #abercrombieqoutes #abercrombie #A&F #inhollister #hollister #goodvibes #moveforward","loc": {"type": "Point","coordinates": [103.84646,1.342657]}} 
{"id": "8503938764","server": "8519","farm": "9","userId": "74683311@N06","secret": "a4972ffc4e","title": "#yusheng #chinesenewyear #luckyfood #lastdayofchinesenewyear #makeawish #luckyme","loc": {"type": "Point","coordinates": [103.84647,1.34268]}} 
{"id": "8502567144","server": "8370","farm": "9","userId": "74683311@N06","secret": "fcdae7d9f4","title": "#breakfastinbed #powerupbrekky #mcdonalds #deluxesupreme #oj #mcdonaldskuwait #hashbrown #scrambledegg #muffin #bacon #hotcakes #sausage #happytummy #goodmorning","loc": {"type": "Point","coordinates": [103.84647,1.34268]}} 
{"id": "8501202246","server": "8387","farm": "9","userId": "74683311@N06","secret": "ec1c25e216","title": "#dinner #full #happytummy #fish&chips #fries #beans #coleslaw #toast #wine  #solvedgutom #gluttony","loc": {"type": "Point","coordinates": [103.84647,1.34268]}} 
{"id": "8498617843","server": "8085","farm": "9","userId": "74683311@N06","secret": "9f41774575","title": "#repost #huffingtonpost #qouteoftheday #qoutes #goodvibes #positivity #YOLO #liveyourdreams","loc": {"type": "Point","coordinates": [103.84647,1.34268]}} 
{"id": "8496167147","server": "8391","farm": "9","userId": "74683311@N06","secret": "c39ee3c3a2","title": "#clouds #singaporeskies #plane #cloudy #awesome #picoftheday","loc": {"type": "Point","coordinates": [103.846565,1.342704]}} 
{"id": "8487742195","server": "8387","farm": "9","userId": "74683311@N06","secret": "7aa7ba7bfd","title": "#throwback #abercrombiesingapore #abercrombie&fitch #abercrombiemodel #a&fflagshipsingapore #tbt #mukalangakobasura #lol #/sixpacks #polaroid #camera #polaroidpic #fitch #A&F","loc": {"type": "Point","coordinates": [103.84647,1.342689]}} 
{"id": "8482149666","server": "8507","farm": "9","userId": "74683311@N06","secret": "dcca9406ca","title": "#repost #summer #summertime #boardshort #surfing #fun #excited #☀","loc": {"type": "Point","coordinates": [103.84647,1.34268]}} 
{"id": "8475662680","server": "8368","farm": "9","userId": "74683311@N06","secret": "a099d2beb8","title": "#abercrombie #abercrombieaddict #a&f @A&F #hollister #addict #addiction #YOLO #collection #ABERCROMBIE","loc": {"type": "Point","coordinates": [103.84646,1.342657]}} 
{"id": "8414957813","server": "8329","farm": "9","userId": "30305407@N00","secret": "0275937b2a","title": "big breakfast","loc": {"type": "Point","coordinates": [103.84333,1.347166]}} 
{"id": "8411294384","server": "8354","farm": "9","userId": "30305407@N00","secret": "c35d43fe9d","title": "Dinner","loc": {"type": "Point","coordinates": [103.84316,1.347166]}} 
{"id": "8404412499","server": "8328","farm": "9","userId": "30305407@N00","secret": "2c79357d6f","title": "Tonight: Zesty adzuki bean salad over greens.","loc": {"type": "Point","coordinates": [103.843,1.347166]}} 
{"id": "8400649776","server": "8359","farm": "9","userId": "15979795@N00","secret": "811761c234","title": "","loc": {"type": "Point","coordinates": [103.83788,1.342269]}} 
{"id": "8399557671","server": "8323","farm": "9","userId": "15979795@N00","secret": "1672e0d6f1","title": "","loc": {"type": "Point","coordinates": [103.83788,1.342269]}} 
{"id": "8400648812","server": "8505","farm": "9","userId": "15979795@N00","secret": "1b731a710c","title": "","loc": {"type": "Point","coordinates": [103.83788,1.342269]}} 
{"id": "8399154472","server": "8080","farm": "9","userId": "15979795@N00","secret": "83d7762a69","title": "","loc": {"type": "Point","coordinates": [103.83788,1.342269]}} 
{"id": "8398065957","server": "8327","farm": "9","userId": "15979795@N00","secret": "e68ace9c65","title": "","loc": {"type": "Point","coordinates": [103.83788,1.342269]}} 
{"id": "8398067383","server": "8231","farm": "9","userId": "15979795@N00","secret": "56dc131f91","title": "","loc": {"type": "Point","coordinates": [103.83788,1.342269]}} 
{"id": "8398063047","server": "8376","farm": "9","userId": "15979795@N00","secret": "753dd02e73","title": "","loc": {"type": "Point","coordinates": [103.83788,1.342269]}} 
{"id": "8398060253","server": "8193","farm": "9","userId": "15979795@N00","secret": "896ac8c972","title": "","loc": {"type": "Point","coordinates": [103.83788,1.342269]}} 
{"id": "8398061827","server": "8225","farm": "9","userId": "15979795@N00","secret": "09d3539300","title": "","loc": {"type": "Point","coordinates": [103.83788,1.342269]}} 
{"id": "8399144640","server": "8186","farm": "9","userId": "15979795@N00","secret": "86c36d5079","title": "","loc": {"type": "Point","coordinates": [103.83788,1.342269]}} 
{"id": "8399143976","server": "8211","farm": "9","userId": "15979795@N00","secret": "8b5d20c992","title": "","loc": {"type": "Point","coordinates": [103.83788,1.342269]}} 
{"id": "8399142968","server": "8469","farm": "9","userId": "15979795@N00","secret": "6b1a50879d","title": "","loc": {"type": "Point","coordinates": [103.83788,1.342269]}} 
{"id": "8399151286","server": "8496","farm": "9","userId": "15979795@N00","secret": "e0e77f765d","title": "","loc": {"type": "Point","coordinates": [103.83788,1.342269]}} 
{"id": "8399145456","server": "8224","farm": "9","userId": "15979795@N00","secret": "b6a636b0e5","title": "","loc": {"type": "Point","coordinates": [103.83788,1.342269]}} 
{"id": "8399152538","server": "8096","farm": "9","userId": "15979795@N00","secret": "9b0733b7ea","title": "","loc": {"type": "Point","coordinates": [103.83788,1.342269]}} 
{"id": "8399147234","server": "8474","farm": "9","userId": "15979795@N00","secret": "082a9c990d","title": "","loc": {"type": "Point","coordinates": [103.83788,1.342269]}} 
{"id": "8399149948","server": "8193","farm": "9","userId": "15979795@N00","secret": "29a9907b5b","title": "","loc": {"type": "Point","coordinates": [103.83788,1.342269]}} 
{"id": "8399150592","server": "8094","farm": "9","userId": "15979795@N00","secret": "bfcb496589","title": "","loc": {"type": "Point","coordinates": [103.83788,1.342269]}} 
{"id": "8399138340","server": "8236","farm": "9","userId": "15979795@N00","secret": "9ec4a00396","title": "","loc": {"type": "Point","coordinates": [103.83788,1.342269]}} 
{"id": "8398053891","server": "8225","farm": "9","userId": "15979795@N00","secret": "6c4c2c5867","title": "","loc": {"type": "Point","coordinates": [103.83788,1.342269]}} 
{"id": "8398054499","server": "8473","farm": "9","userId": "15979795@N00","secret": "af2ebe48c0","title": "","loc": {"type": "Point","coordinates": [103.83788,1.342269]}} 
{"id": "8398056097","server": "8474","farm": "9","userId": "15979795@N00","secret": "d9144aa840","title": "","loc": {"type": "Point","coordinates": [103.83788,1.342269]}} 
{"id": "8399138958","server": "8361","farm": "9","userId": "15979795@N00","secret": "aecd7bd30d","title": "","loc": {"type": "Point","coordinates": [103.83788,1.342269]}} 
{"id": "8399141410","server": "8517","farm": "9","userId": "15979795@N00","secret": "b5d4e8f927","title": "","loc": {"type": "Point","coordinates": [103.83788,1.342269]}} 
{"id": "8398053425","server": "8219","farm": "9","userId": "15979795@N00","secret": "5f9fa1c2ee","title": "","loc": {"type": "Point","coordinates": [103.83788,1.342269]}} 
{"id": "8395034900","server": "8231","farm": "9","userId": "15979795@N00","secret": "d730355e31","title": "","loc": {"type": "Point","coordinates": [103.837166,1.341833]}} 
{"id": "8395024462","server": "8506","farm": "9","userId": "15979795@N00","secret": "311661f007","title": "","loc": {"type": "Point","coordinates": [103.83788,1.342269]}} 
{"id": "8395021458","server": "8054","farm": "9","userId": "15979795@N00","secret": "728f394ebc","title": "","loc": {"type": "Point","coordinates": [103.83788,1.342269]}} 
{"id": "8393946179","server": "8514","farm": "9","userId": "15979795@N00","secret": "533b25a549","title": "","loc": {"type": "Point","coordinates": [103.837166,1.341833]}} 
{"id": "8395028010","server": "8376","farm": "9","userId": "15979795@N00","secret": "3f24e4d9d7","title": "","loc": {"type": "Point","coordinates": [103.83788,1.342269]}} 
{"id": "8395031798","server": "8324","farm": "9","userId": "15979795@N00","secret": "c789441aa8","title": "","loc": {"type": "Point","coordinates": [103.837166,1.341833]}} 
{"id": "8393934055","server": "8232","farm": "9","userId": "15979795@N00","secret": "a02cc6ca02","title": "","loc": {"type": "Point","coordinates": [103.83788,1.342269]}} 
{"id": "8393949221","server": "8217","farm": "9","userId": "15979795@N00","secret": "7c117ed63c","title": "","loc": {"type": "Point","coordinates": [103.837166,1.341833]}} 
{"id": "8393945361","server": "8050","farm": "9","userId": "15979795@N00","secret": "0237c676c9","title": "","loc": {"type": "Point","coordinates": [103.837166,1.341833]}} 
{"id": "8393935213","server": "8464","farm": "9","userId": "15979795@N00","secret": "4afdd79a80","title": "","loc": {"type": "Point","coordinates": [103.83788,1.342269]}} 
{"id": "8393933067","server": "8183","farm": "9","userId": "15979795@N00","secret": "aa3f9dcc80","title": "","loc": {"type": "Point","coordinates": [103.83788,1.342269]}} 
{"id": "8393948225","server": "8073","farm": "9","userId": "15979795@N00","secret": "40aa2ab963","title": "","loc": {"type": "Point","coordinates": [103.837166,1.341833]}} 
{"id": "8395020602","server": "8467","farm": "9","userId": "15979795@N00","secret": "00c9be4358","title": "","loc": {"type": "Point","coordinates": [103.83788,1.342269]}} 
{"id": "8393941201","server": "8374","farm": "9","userId": "15979795@N00","secret": "3fc3e1fe48","title": "","loc": {"type": "Point","coordinates": [103.83788,1.342269]}} 
{"id": "8395022504","server": "8514","farm": "9","userId": "15979795@N00","secret": "f3b92f128f","title": "","loc": {"type": "Point","coordinates": [103.83788,1.342269]}} 
{"id": "8395028874","server": "8079","farm": "9","userId": "15979795@N00","secret": "6071dcab97","title": "","loc": {"type": "Point","coordinates": [103.837166,1.341833]}} 
{"id": "8395026688","server": "8236","farm": "9","userId": "15979795@N00","secret": "432e4268cb","title": "","loc": {"type": "Point","coordinates": [103.83788,1.342269]}} 
{"id": "8393921201","server": "8364","farm": "9","userId": "15979795@N00","secret": "5b28f0d477","title": "","loc": {"type": "Point","coordinates": [103.83788,1.342269]}} 
{"id": "8395012300","server": "8222","farm": "9","userId": "15979795@N00","secret": "d733ac47cf","title": "","loc": {"type": "Point","coordinates": [103.83788,1.342269]}} 
{"id": "8393923631","server": "8093","farm": "9","userId": "15979795@N00","secret": "960e2415bc","title": "","loc": {"type": "Point","coordinates": [103.83788,1.342269]}} 
{"id": "8393920103","server": "8216","farm": "9","userId": "15979795@N00","secret": "534b2b9e78","title": "","loc": {"type": "Point","coordinates": [103.83788,1.342269]}} 
{"id": "8393918825","server": "8044","farm": "9","userId": "15979795@N00","secret": "92579e032f","title": "","loc": {"type": "Point","coordinates": [103.83788,1.342269]}} 
{"id": "8395016572","server": "8378","farm": "9","userId": "15979795@N00","secret": "7cd57f2cda","title": "","loc": {"type": "Point","coordinates": [103.83788,1.342269]}} 
{"id": "8395010544","server": "8229","farm": "9","userId": "15979795@N00","secret": "5a58066160","title": "","loc": {"type": "Point","coordinates": [103.83788,1.342269]}} 
{"id": "8393928965","server": "8472","farm": "9","userId": "15979795@N00","secret": "792ac9b176","title": "","loc": {"type": "Point","coordinates": [103.83788,1.342269]}} 
{"id": "8393931023","server": "8184","farm": "9","userId": "15979795@N00","secret": "89d2b58917","title": "","loc": {"type": "Point","coordinates": [103.83788,1.342269]}} 
{"id": "8393916261","server": "8055","farm": "9","userId": "15979795@N00","secret": "b9cdcafc46","title": "","loc": {"type": "Point","coordinates": [103.83788,1.342269]}} 
{"id": "8395007104","server": "8513","farm": "9","userId": "15979795@N00","secret": "e4a0aee112","title": "","loc": {"type": "Point","coordinates": [103.83788,1.342269]}} 
{"id": "8395011434","server": "8215","farm": "9","userId": "15979795@N00","secret": "27aaf166c6","title": "","loc": {"type": "Point","coordinates": [103.83788,1.342269]}} 
{"id": "8393925011","server": "8098","farm": "9","userId": "15979795@N00","secret": "b416179313","title": "","loc": {"type": "Point","coordinates": [103.83788,1.342269]}} 
{"id": "8393914915","server": "8366","farm": "9","userId": "15979795@N00","secret": "881435944c","title": "","loc": {"type": "Point","coordinates": [103.83788,1.342269]}} 
{"id": "8386860458","server": "8515","farm": "9","userId": "62158995@N08","secret": "d7525e5274","title": "All alone","loc": {"type": "Point","coordinates": [103.84627,1.34709]}} 
{"id": "8379586183","server": "8236","farm": "9","userId": "92276767@N08","secret": "1e79cf7794","title": "Lovers embrace.","loc": {"type": "Point","coordinates": [103.839,1.343]}} 
{"id": "8373909860","server": "8499","farm": "9","userId": "44459794@N00","secret": "a6ee5edcc2","title": "","loc": {"type": "Point","coordinates": [103.84103,1.346237]}} 
{"id": "8372838201","server": "8227","farm": "9","userId": "44459794@N00","secret": "fa4e0d4c84","title": "","loc": {"type": "Point","coordinates": [103.84206,1.346098]}} 
{"id": "8369819746","server": "8510","farm": "9","userId": "55486190@N00","secret": "7d3d12edff","title": "Welcome to this world, #baby Hannah!  Born 8 Jan 2013.  #Mum #Singapore","loc": {"type": "Point","coordinates": [103.837814,1.341883]}} 
{"id": "8318189050","server": "8077","farm": "9","userId": "55486190@N00","secret": "7819f5c0c9","title": "#ACG #2012 #Year #End #Worship, #Praise #The #Lord!, #CEFC #Singapore","loc": {"type": "Point","coordinates": [103.841805,1.342456]}} 
{"id": "8308441339","server": "8214","farm": "9","userId": "42594504@N00","secret": "979ca41b66","title": "White Spaces #singapore #iphone #iphone4gs #instasg #sgig #snapseed #eyeecity2011 #last24hrs2011 #lastdayof2011 #zengliwei #whitespaces","loc": {"type": "Point","coordinates": [103.848,1.34532]}} 
{"id": "8308441317","server": "8499","farm": "9","userId": "42594504@N00","secret": "e85c486421","title": "The photographer #zengliwei #lastdayof2011 #last24hrs2011 #eyeecity2011 #snapseed #sgig #instasg #iphone4gs #iphone #singapore","loc": {"type": "Point","coordinates": [103.848,1.345343]}} 
{"id": "8308441251","server": "8360","farm": "9","userId": "42594504@N00","secret": "89f86415a2","title": "The Trees on the hill #iphone4gs #iphone #singapore #instasg #sgig #snapseed #eyeecity2011","loc": {"type": "Point","coordinates": [103.8477,1.345837]}} 
{"id": "8309493074","server": "8224","farm": "9","userId": "42594504@N00","secret": "35883496fb","title": "Weapons of mass destruction, our stomaches #instasg #snapseed #singapore #sgig #iphone4gs #zengliwei #iphone","loc": {"type": "Point","coordinates": [103.8475,1.345544]}} 
{"id": "8309493286","server": "8504","farm": "9","userId": "42594504@N00","secret": "99356d8311","title": "White spaces #zengliwei #lastdayof2011 #last24hrs2011 #eyeecity2011 #sgig #snapseed #instasg #iphone4gs #iphone #singapore","loc": {"type": "Point","coordinates": [103.8478,1.345399]}} 
{"id": "8309499042","server": "8082","farm": "9","userId": "42594504@N00","secret": "8148f6c63f","title": "Preparing for another wake.. with @hisbelovedpig","loc": {"type": "Point","coordinates": [103.847755,1.345407]}} 
{"id": "8309493098","server": "8356","farm": "9","userId": "42594504@N00","secret": "b016632a60","title": "守夜 Reading the news to be up to date. Quan Yi Feng in the papers today for altercation with a taxi driver. #iphone4gs   #zengliwei #iphone #singapore #instasg #eyeecity2011 #sgig #snapseed","loc": {"type": "Point","coordinates": [103.8478,1.345516]}} 
{"id": "8309493204","server": "8363","farm": "9","userId": "42594504@N00","secret": "46f6118928","title": "My door is always open but people are not always willing to come in. #lastdayof2011 #last24hrs2011 #eyeecity2011 #snapseed #sgig #instasg #singapore #iphone #iphone4gs","loc": {"type": "Point","coordinates": [103.8479,1.345467]}} 
{"id": "8308441295","server": "8351","farm": "9","userId": "42594504@N00","secret": "bd343947e6","title": "The subject #singapore #iphone #iphone4gs #instasg #sgig #snapseed #eyeecity2011 #last24hrs2011 #lastdayof2011 #zengliwei","loc": {"type": "Point","coordinates": [103.848,1.345363]}} 
{"id": "8309484568","server": "8071","farm": "9","userId": "42594504@N00","secret": "2bdba96387","title": "Finally some curry (wasn't any curry on the dinner table) :)) Lets embrace each others cultures everyone! :)) @hisbelovedpig","loc": {"type": "Point","coordinates": [103.8463,1.341663]}} 
{"id": "8309487576","server": "8354","farm": "9","userId": "42594504@N00","secret": "31a580ef03","title": "Super delay in the trains took at least 7 trains b4 I could board. SMRT gonna be fined 700 again?? :)","loc": {"type": "Point","coordinates": [103.847,1.341359]}} 
{"id": "8178489309","server": "8067","farm": "9","userId": "28455224@N04","secret": "a669dd1473","title": "#genggua","loc": {"type": "Point","coordinates": [103.84294,1.346731]}} 
