{"id": "9442804121","server": "3811","farm": "4","userId": "30476053@N00","secret": "ee801674b5","title": "Bak Chor Mee for #supper I probably undid my run but v0v #foodgasm #food #yummy #instagood #htcone #ultrapixels","loc": {"type": "Point","coordinates": [103.83866,1.297915]}} 
{"id": "9436063596","server": "3732","farm": "4","userId": "8870193@N03","secret": "cbd41bd7bf","title": "Tasty ribs my mom and sister couldn't finish #vscocam #Foodporn #Nom #Lunch #Instafood","loc": {"type": "Point","coordinates": [103.84717,1.299032]}} 
{"id": "9436047274","server": "5510","farm": "6","userId": "8870193@N03","secret": "1287043cf5","title": "These were super awesomely delicious buffalo wings we had at billy bombers this afternoon! #Foodporn #Nom #Lunch #Instafood","loc": {"type": "Point","coordinates": [103.84717,1.299032]}} 
{"id": "9372021674","server": "2891","farm": "3","userId": "42223228@N04","secret": "7ac19ec722","title": "IMGP5907a","loc": {"type": "Point","coordinates": [103.84454,1.299167]}} 
{"id": "9333399857","server": "5341","farm": "6","userId": "43225758@N03","secret": "deafc192cc","title": "Group Photo","loc": {"type": "Point","coordinates": [103.84508,1.297518]}} 
{"id": "9336187252","server": "5490","farm": "6","userId": "43225758@N03","secret": "86fa2d3acc","title": "Group Photo","loc": {"type": "Point","coordinates": [103.84508,1.297518]}} 
{"id": "9336185304","server": "5473","farm": "6","userId": "43225758@N03","secret": "e8ef3f5cbc","title": "Group Photo","loc": {"type": "Point","coordinates": [103.84508,1.297518]}} 
{"id": "9333413975","server": "2845","farm": "3","userId": "43225758@N03","secret": "3c8b29f26c","title": "Group Photo","loc": {"type": "Point","coordinates": [103.84508,1.297518]}} 
{"id": "9333408107","server": "3725","farm": "4","userId": "43225758@N03","secret": "034ecbde31","title": "Group Photo","loc": {"type": "Point","coordinates": [103.84508,1.297518]}} 
{"id": "9336192906","server": "3715","farm": "4","userId": "43225758@N03","secret": "9f8bf0195c","title": "Group Photo","loc": {"type": "Point","coordinates": [103.84508,1.297518]}} 
{"id": "9333401493","server": "2867","farm": "3","userId": "43225758@N03","secret": "47bc283fc2","title": "Group Photo","loc": {"type": "Point","coordinates": [103.84508,1.297518]}} 
{"id": "9324846833","server": "5492","farm": "6","userId": "60428944@N00","secret": "afe5d676be","title": "Ballet Under the Stars (to come)","loc": {"type": "Point","coordinates": [103.847466,1.29554]}} 
{"id": "9276529924","server": "5537","farm": "6","userId": "54048808@N00","secret": "e2616eb04f","title": "Cup and shadow and wood and rim and the empty void.","loc": {"type": "Point","coordinates": [103.8385,1.298166]}} 
{"id": "9225810005","server": "5469","farm": "6","userId": "49421461@N00","secret": "98e9f53fd4","title": "untitled-9928.jpg","loc": {"type": "Point","coordinates": [103.84144,1.293302]}} 
{"id": "9225739713","server": "3753","farm": "4","userId": "49421461@N00","secret": "e56d4897ba","title": "untitled-9616.jpg","loc": {"type": "Point","coordinates": [103.83975,1.293302]}} 
{"id": "9225742687","server": "7302","farm": "8","userId": "49421461@N00","secret": "0be9498e27","title": "untitled-9632.jpg","loc": {"type": "Point","coordinates": [103.83964,1.293377]}} 
{"id": "9205491700","server": "5538","farm": "6","userId": "46125718@N05","secret": "0009c5428a","title": "Soft Boiled Egg @ Killiney Kopitiam","loc": {"type": "Point","coordinates": [103.83941,1.298906]}} 
{"id": "8866551371","server": "5441","farm": "6","userId": "62395687@N02","secret": "38a18a863e","title": "Dhoby Ghaut, SG'13","loc": {"type": "Point","coordinates": [103.84483,1.298743]}} 
{"id": "8757051891","server": "7295","farm": "8","userId": "46635911@N00","secret": "88b7359d72","title": "L x onigiri!","loc": {"type": "Point","coordinates": [103.84433,1.293333]}} 
{"id": "9403501491","server": "2849","farm": "3","userId": "33938770@N05","secret": "a2ed8ef1f5","title": "Signs on Building, Singapore","loc": {"type": "Point","coordinates": [103.84683,1.299]}} 
{"id": "9390375901","server": "7382","farm": "8","userId": "36583075@N00","secret": "cf0fa91ef1","title": "","loc": {"type": "Point","coordinates": [103.846,1.297499]}} 
{"id": "9383431841","server": "7349","farm": "8","userId": "67851013@N02","secret": "e74d7bf3a1","title": "#Food heals the #world 26/07/13.","loc": {"type": "Point","coordinates": [103.84766,1.29896]}} 
{"id": "9386179564","server": "5464","farm": "6","userId": "67851013@N02","secret": "3c9f683db4","title": "#Food heals the #world 26/07/13.","loc": {"type": "Point","coordinates": [103.84766,1.29896]}} 
{"id": "9386112052","server": "2881","farm": "3","userId": "67851013@N02","secret": "c6535c3f39","title": "#Food heals the #world 26/07/13.","loc": {"type": "Point","coordinates": [103.84766,1.29896]}} 
{"id": "9386135972","server": "5450","farm": "6","userId": "67851013@N02","secret": "19af6fea37","title": "#Food heals the #world 26/07/13.","loc": {"type": "Point","coordinates": [103.84766,1.29896]}} 
{"id": "9386130472","server": "5495","farm": "6","userId": "67851013@N02","secret": "3a208d6662","title": "#Food heals the #world 26/07/13.","loc": {"type": "Point","coordinates": [103.84766,1.29896]}} 
{"id": "9386072270","server": "2834","farm": "3","userId": "67851013@N02","secret": "f2bc2a5a13","title": "#Food heals the #world 26/07/13.","loc": {"type": "Point","coordinates": [103.84766,1.29896]}} 
{"id": "9372920149","server": "2867","farm": "3","userId": "29986481@N06","secret": "439b10fca8","title": "I think the joke lost its ring #mistranslation","loc": {"type": "Point","coordinates": [103.839294,1.298775]}} 
{"id": "9368586957","server": "3767","farm": "4","userId": "12166501@N00","secret": "6728d88cb7","title": "#instagram #foody #instafood #instamood #instadaily #yummy #tummyfiller #goody #foodporn","loc": {"type": "Point","coordinates": [103.84766,1.29896]}} 
{"id": "9368505201","server": "3674","farm": "4","userId": "12166501@N00","secret": "04568b69ef","title": "#instagram #foody #instafood #instamood #instadaily #yummy #tummyfiller #goody #foodporn","loc": {"type": "Point","coordinates": [103.84766,1.29896]}} 
{"id": "9371293624","server": "5530","farm": "6","userId": "12166501@N00","secret": "0c949ddab7","title": "#instagram #foody #instafood #instamood #instadaily #yummy #tummyfiller #goody #foodporn","loc": {"type": "Point","coordinates": [103.84766,1.29896]}} 
{"id": "9368508797","server": "7320","farm": "8","userId": "12166501@N00","secret": "3dc3e2106b","title": "#instagram #foody #instafood #instamood #instadaily #yummy #tummyfiller #goody #foodporn","loc": {"type": "Point","coordinates": [103.84766,1.29896]}} 
{"id": "9371281934","server": "5323","farm": "6","userId": "12166501@N00","secret": "9ffe542b0b","title": "#instagram #foody #instafood #instamood #instadaily #yummy #tummyfiller #goody #foodporn","loc": {"type": "Point","coordinates": [103.84766,1.29896]}} 
{"id": "9371290248","server": "5536","farm": "6","userId": "12166501@N00","secret": "f9df4fb74a","title": "#instagram #foody #instafood #instamood #instadaily #yummy #tummyfiller #goody #foodporn","loc": {"type": "Point","coordinates": [103.84766,1.29896]}} 
{"id": "9371255192","server": "3769","farm": "4","userId": "12166501@N00","secret": "bcbf475dcf","title": "#instagram #foody #instafood #instamood #instadaily #yummy #tummyfiller #goody #foodporn","loc": {"type": "Point","coordinates": [103.84766,1.29896]}} 
{"id": "9368497785","server": "2882","farm": "3","userId": "12166501@N00","secret": "8f656eac42","title": "#instagram #foody #instafood #instamood #instadaily #yummy #tummyfiller #goody #foodporn","loc": {"type": "Point","coordinates": [103.84766,1.29896]}} 
{"id": "9368473459","server": "2887","farm": "3","userId": "12166501@N00","secret": "51b16c31c9","title": "#instagram #foody #instafood #instamood #instadaily #yummy #tummyfiller #goody #foodporn","loc": {"type": "Point","coordinates": [103.84766,1.29896]}} 
{"id": "9368492089","server": "3832","farm": "4","userId": "12166501@N00","secret": "d58a13f0ee","title": "#instagram #foody #instafood #instamood #instadaily #yummy #tummyfiller #goody #foodporn","loc": {"type": "Point","coordinates": [103.84766,1.29896]}} 
{"id": "9371274084","server": "2841","farm": "3","userId": "12166501@N00","secret": "5e1c174851","title": "#instagram #foody #instafood #instamood #instadaily #yummy #tummyfiller #goody #foodporn","loc": {"type": "Point","coordinates": [103.84766,1.29896]}} 
{"id": "9368485443","server": "5543","farm": "6","userId": "12166501@N00","secret": "b34007a48d","title": "#instagram #foody #instafood #instamood #instadaily #yummy #tummyfiller #goody #foodporn","loc": {"type": "Point","coordinates": [103.84766,1.29896]}} 
{"id": "9370897962","server": "7389","farm": "8","userId": "12166501@N00","secret": "7647ba1aef","title": "#instagram #foody #instafood #instamood #instadaily #yummy #tummyfiller #goody #foodporn","loc": {"type": "Point","coordinates": [103.84766,1.29896]}} 
{"id": "9370913870","server": "3695","farm": "4","userId": "12166501@N00","secret": "6ddc76c3dd","title": "#instagram #foody #instafood #instamood #instadaily #yummy #tummyfiller #goody #foodporn","loc": {"type": "Point","coordinates": [103.84766,1.29896]}} 
{"id": "9370841934","server": "3806","farm": "4","userId": "12166501@N00","secret": "d90ee40df1","title": "#instagram #foody #instafood #instamood #instadaily #yummy #tummyfiller #goody","loc": {"type": "Point","coordinates": [103.84766,1.29896]}} 
{"id": "9368054687","server": "3704","farm": "4","userId": "12166501@N00","secret": "7859090a84","title": "#instagram #foody #instafood #instamood #instadaily #yummy #tummyfiller #goody","loc": {"type": "Point","coordinates": [103.84766,1.29896]}} 
{"id": "9368065279","server": "2853","farm": "3","userId": "12166501@N00","secret": "7112ce775d","title": "#instagram #foody #instafood #instamood #instadaily #yummy #tummyfiller #goody","loc": {"type": "Point","coordinates": [103.84766,1.29896]}} 
{"id": "9368041935","server": "7294","farm": "8","userId": "12166501@N00","secret": "f814e7b89c","title": "#instagram #foody #instafood #instamood #instadaily #yummy #tummyfiller #goody","loc": {"type": "Point","coordinates": [103.84766,1.29896]}} 
{"id": "9355985483","server": "7357","farm": "8","userId": "91448664@N05","secret": "621f2854e2","title": "Sri Tandhayuthapani - Detail","loc": {"type": "Point","coordinates": [103.84348,1.29485]}} 
{"id": "9344062502","server": "2894","farm": "3","userId": "13236380@N00","secret": "e8b8b5999d","title": ":D","loc": {"type": "Point","coordinates": [103.84717,1.299032]}} 
{"id": "9333569919","server": "7377","farm": "8","userId": "96179718@N06","secret": "e0acb764c7","title": "相机胶卷-210","loc": {"type": "Point","coordinates": [103.848,1.298666]}} 
{"id": "9333397327","server": "3743","farm": "4","userId": "43225758@N03","secret": "135a0168bb","title": "Group Photo","loc": {"type": "Point","coordinates": [103.84508,1.297518]}} 
{"id": "9333405451","server": "3706","farm": "4","userId": "43225758@N03","secret": "199ae1545f","title": "Group Photo","loc": {"type": "Point","coordinates": [103.84508,1.297518]}} 
{"id": "9333409051","server": "3729","farm": "4","userId": "43225758@N03","secret": "bd8b51c213","title": "Group Photo","loc": {"type": "Point","coordinates": [103.84508,1.297518]}} 
{"id": "9333412069","server": "2822","farm": "3","userId": "43225758@N03","secret": "e3988d5754","title": "Group Photo","loc": {"type": "Point","coordinates": [103.84508,1.297518]}} 
{"id": "9333412961","server": "3730","farm": "4","userId": "43225758@N03","secret": "b2b7f850be","title": "Group Photo","loc": {"type": "Point","coordinates": [103.84508,1.297518]}} 
{"id": "9333410865","server": "2887","farm": "3","userId": "43225758@N03","secret": "317f05f67f","title": "Group Photo","loc": {"type": "Point","coordinates": [103.84508,1.297518]}} 
{"id": "9324063513","server": "7296","farm": "8","userId": "95864920@N05","secret": "ce26d784c5","title": "my idea of 'me time'.. a perfect saturday afternoon with my dead-batt baby..","loc": {"type": "Point","coordinates": [103.84603,1.295723]}} 
{"id": "9315657388","server": "5324","farm": "6","userId": "83200386@N05","secret": "1c9bf6455c","title": "Yakiniku Yazawa Thin Slice","loc": {"type": "Point","coordinates": [103.84483,1.293499]}} 
{"id": "9302394853","server": "3786","farm": "4","userId": "96738935@N00","secret": "737d28a30b","title": "IMG_0915","loc": {"type": "Point","coordinates": [103.84333,1.293]}} 
{"id": "9300524686","server": "5452","farm": "6","userId": "11008075@N00","secret": "92838eb418","title": "Melted Happy Birthday brownie and brownie squares for @sourplumfairy @iamminpot","loc": {"type": "Point","coordinates": [103.84576,1.298998]}} 
{"id": "9288671126","server": "5444","farm": "6","userId": "25530545@N04","secret": "758fd202d6","title": "2013-06-29 at 12-59-06","loc": {"type": "Point","coordinates": [103.84783,1.298333]}} 
{"id": "9285894437","server": "2871","farm": "3","userId": "25530545@N04","secret": "ba483dd666","title": "2013-06-29 at 12-59-10","loc": {"type": "Point","coordinates": [103.84783,1.298333]}} 
{"id": "9277651254","server": "5510","farm": "6","userId": "22295589@N00","secret": "154931b2d0","title": "singappre but ramen ! delicious !","loc": {"type": "Point","coordinates": [103.841545,1.293345]}} 
{"id": "9274167923","server": "2851","farm": "3","userId": "98261513@N08","secret": "85906f0055","title": "upload","loc": {"type": "Point","coordinates": [103.84531,1.29844]}} 
{"id": "9276416382","server": "3689","farm": "4","userId": "98261513@N08","secret": "ed4c300673","title": "upload","loc": {"type": "Point","coordinates": [103.84531,1.29844]}} 
{"id": "9273551935","server": "5475","farm": "6","userId": "98261513@N08","secret": "1f09aff3bb","title": "upload","loc": {"type": "Point","coordinates": [103.84531,1.29844]}} 
{"id": "9270360378","server": "3781","farm": "4","userId": "42223228@N04","secret": "115430d802","title": "IMGP5854a","loc": {"type": "Point","coordinates": [103.847694,1.295053]}} 
{"id": "9269624698","server": "2870","farm": "3","userId": "13871957@N07","secret": "8c7cc44647","title": "Dinner with the company!","loc": {"type": "Point","coordinates": [103.841995,1.293898]}} 
{"id": "9253942598","server": "2847","farm": "3","userId": "12869409@N04","secret": "aacef84ab7","title": "Lunch!","loc": {"type": "Point","coordinates": [103.83896,1.299047]}} 
{"id": "9235469951","server": "3794","farm": "4","userId": "34404963@N00","secret": "a548c14693","title": "Happy 1st yr anni","loc": {"type": "Point","coordinates": [103.843834,1.296]}} 
{"id": "9235467771","server": "7351","farm": "8","userId": "34404963@N00","secret": "4554f44391","title": "Happy 1st yr anni","loc": {"type": "Point","coordinates": [103.843834,1.296]}} 
{"id": "9235470811","server": "5447","farm": "6","userId": "34404963@N00","secret": "e5ea6e6e55","title": "Happy 1st yr anni","loc": {"type": "Point","coordinates": [103.843834,1.296]}} 
{"id": "9235469091","server": "7433","farm": "8","userId": "34404963@N00","secret": "97e24ee50a","title": "Happy 1st yr anni","loc": {"type": "Point","coordinates": [103.843834,1.296]}} 
{"id": "9237940194","server": "3787","farm": "4","userId": "12869409@N04","secret": "85949cde66","title": "Lunch!","loc": {"type": "Point","coordinates": [103.83896,1.299047]}} 
{"id": "9218956427","server": "7328","farm": "8","userId": "13394179@N06","secret": "3806c1f1f4","title": "IMAG0479","loc": {"type": "Point","coordinates": [103.84795,1.293108]}} 
{"id": "9218956581","server": "5507","farm": "6","userId": "13394179@N06","secret": "74db0a632d","title": "IMAG0477","loc": {"type": "Point","coordinates": [103.84788,1.293394]}} 
{"id": "9221732362","server": "5475","farm": "6","userId": "13394179@N06","secret": "f7f32f0b13","title": "IMAG0478","loc": {"type": "Point","coordinates": [103.847855,1.293377]}} 
{"id": "9221732486","server": "3804","farm": "4","userId": "13394179@N06","secret": "4355436887","title": "IMAG0475","loc": {"type": "Point","coordinates": [103.84764,1.294063]}} 
{"id": "9218956585","server": "7401","farm": "8","userId": "13394179@N06","secret": "4bbceb740c","title": "IMAG0473","loc": {"type": "Point","coordinates": [103.84751,1.294127]}} 
{"id": "9218956603","server": "3787","farm": "4","userId": "13394179@N06","secret": "0cf174c462","title": "IMAG0469","loc": {"type": "Point","coordinates": [103.84809,1.294841]}} 
{"id": "9212040077","server": "7340","farm": "8","userId": "99233151@N00","secret": "7e124ff552","title": "Just in time for the weekend!","loc": {"type": "Point","coordinates": [103.839096,1.299023]}} 
{"id": "9201815608","server": "3736","farm": "4","userId": "92951889@N00","secret": "1c15cd03b6","title": "Jesus of the Six Lightsabers","loc": {"type": "Point","coordinates": [103.84386,1.296189]}} 
{"id": "9196266541","server": "3770","farm": "4","userId": "12869409@N04","secret": "7dbb7d00d6","title": "Lunch!","loc": {"type": "Point","coordinates": [103.83896,1.299047]}} 
{"id": "9187230083","server": "5461","farm": "6","userId": "51192515@N00","secret": "72a324f750","title": "IMG_5366","loc": {"type": "Point","coordinates": [103.84533,1.293499]}} 
{"id": "9190046426","server": "3774","farm": "4","userId": "51192515@N00","secret": "a339bc983b","title": "IMG_5333","loc": {"type": "Point","coordinates": [103.84533,1.293499]}} 
{"id": "9187237607","server": "3795","farm": "4","userId": "51192515@N00","secret": "e61717bc1e","title": "IMG_5353","loc": {"type": "Point","coordinates": [103.84533,1.293499]}} 
{"id": "9187239529","server": "5532","farm": "6","userId": "51192515@N00","secret": "3d25c9c740","title": "IMG_5350","loc": {"type": "Point","coordinates": [103.84533,1.293499]}} 
{"id": "9190028550","server": "5483","farm": "6","userId": "51192515@N00","secret": "e1d6d0aa7b","title": "IMG_5367","loc": {"type": "Point","coordinates": [103.84533,1.293499]}} 
{"id": "9190043296","server": "7350","farm": "8","userId": "51192515@N00","secret": "9108560480","title": "IMG_5340","loc": {"type": "Point","coordinates": [103.84533,1.293499]}} 
{"id": "9187236027","server": "5445","farm": "6","userId": "51192515@N00","secret": "734c3b8222","title": "IMG_5355","loc": {"type": "Point","coordinates": [103.84533,1.293499]}} 
{"id": "9190054288","server": "5540","farm": "6","userId": "51192515@N00","secret": "cc678fb85e","title": "IMG_5312","loc": {"type": "Point","coordinates": [103.84533,1.293499]}} 
{"id": "9187247701","server": "3693","farm": "4","userId": "51192515@N00","secret": "a8b5594ec3","title": "IMG_5331","loc": {"type": "Point","coordinates": [103.84533,1.293499]}} 
{"id": "9187248477","server": "5528","farm": "6","userId": "51192515@N00","secret": "3b81a4c630","title": "IMG_5329","loc": {"type": "Point","coordinates": [103.84533,1.293499]}} 
{"id": "9187265805","server": "2831","farm": "3","userId": "51192515@N00","secret": "30d46aa72c","title": "IMG_5285","loc": {"type": "Point","coordinates": [103.84533,1.293499]}} 
{"id": "9187255121","server": "5486","farm": "6","userId": "51192515@N00","secret": "d89e58457e","title": "IMG_5310","loc": {"type": "Point","coordinates": [103.84533,1.293499]}} 
{"id": "9187245077","server": "7456","farm": "8","userId": "51192515@N00","secret": "9488aa0257","title": "IMG_5337","loc": {"type": "Point","coordinates": [103.84533,1.293499]}} 
{"id": "9187253681","server": "2888","farm": "3","userId": "51192515@N00","secret": "6e26b8f701","title": "IMG_5316","loc": {"type": "Point","coordinates": [103.84533,1.293499]}} 
{"id": "9187255727","server": "7333","farm": "8","userId": "51192515@N00","secret": "1c40fd107f","title": "IMG_5309","loc": {"type": "Point","coordinates": [103.84533,1.293499]}} 
{"id": "9190037820","server": "5344","farm": "6","userId": "51192515@N00","secret": "ee7f178789","title": "IMG_5352","loc": {"type": "Point","coordinates": [103.84533,1.293499]}} 
{"id": "9187263801","server": "7402","farm": "8","userId": "51192515@N00","secret": "5b2ff275d0","title": "IMG_5289","loc": {"type": "Point","coordinates": [103.84533,1.293499]}} 
{"id": "9187249747","server": "3746","farm": "4","userId": "51192515@N00","secret": "9c776766cc","title": "IMG_5326","loc": {"type": "Point","coordinates": [103.84533,1.293499]}} 
{"id": "9187260073","server": "7356","farm": "8","userId": "51192515@N00","secret": "9062205aba","title": "IMG_5298","loc": {"type": "Point","coordinates": [103.84533,1.293499]}} 
{"id": "9187259329","server": "5463","farm": "6","userId": "51192515@N00","secret": "57fa906a4e","title": "IMG_5300","loc": {"type": "Point","coordinates": [103.84533,1.293499]}} 
{"id": "9187229537","server": "3825","farm": "4","userId": "51192515@N00","secret": "0e82ecb9da","title": "IMG_5305","loc": {"type": "Point","coordinates": [103.84533,1.293499]}} 
{"id": "9190061826","server": "2820","farm": "3","userId": "51192515@N00","secret": "f1bf9ac990","title": "IMG_5295","loc": {"type": "Point","coordinates": [103.84533,1.293499]}} 
{"id": "9187267559","server": "5484","farm": "6","userId": "51192515@N00","secret": "8691bedb85","title": "IMG_5279","loc": {"type": "Point","coordinates": [103.84533,1.293499]}} 
{"id": "9187257713","server": "3830","farm": "4","userId": "51192515@N00","secret": "a9b1d77cca","title": "IMG_5303","loc": {"type": "Point","coordinates": [103.84533,1.293499]}} 
{"id": "9190043938","server": "2894","farm": "3","userId": "51192515@N00","secret": "feb934e9c9","title": "IMG_5338","loc": {"type": "Point","coordinates": [103.84533,1.293499]}} 
{"id": "9187260781","server": "5323","farm": "6","userId": "51192515@N00","secret": "a68364d8ed","title": "IMG_5297","loc": {"type": "Point","coordinates": [103.84533,1.293499]}} 
{"id": "9187256321","server": "2855","farm": "3","userId": "51192515@N00","secret": "a99b817480","title": "IMG_5307","loc": {"type": "Point","coordinates": [103.84533,1.293499]}} 
{"id": "9190038588","server": "5515","farm": "6","userId": "51192515@N00","secret": "ff2f41b873","title": "IMG_5351","loc": {"type": "Point","coordinates": [103.84533,1.293499]}} 
{"id": "9190064600","server": "3667","farm": "4","userId": "51192515@N00","secret": "8f02d007b0","title": "IMG_5287","loc": {"type": "Point","coordinates": [103.84533,1.293499]}} 
{"id": "9190063960","server": "2872","farm": "3","userId": "51192515@N00","secret": "4d40db980b","title": "IMG_5288","loc": {"type": "Point","coordinates": [103.84533,1.293499]}} 
{"id": "9190036472","server": "3679","farm": "4","userId": "51192515@N00","secret": "c1100e4b9e","title": "IMG_5354","loc": {"type": "Point","coordinates": [103.84533,1.293499]}} 
{"id": "9190056728","server": "5461","farm": "6","userId": "51192515@N00","secret": "1ce648101b","title": "IMG_5304","loc": {"type": "Point","coordinates": [103.84533,1.293499]}} 
{"id": "9187258449","server": "2854","farm": "3","userId": "51192515@N00","secret": "70f6687f5a","title": "IMG_5302","loc": {"type": "Point","coordinates": [103.84533,1.293499]}} 
{"id": "9187261481","server": "7424","farm": "8","userId": "51192515@N00","secret": "1f34244c55","title": "IMG_5296","loc": {"type": "Point","coordinates": [103.84533,1.293499]}} 
{"id": "9190030466","server": "5512","farm": "6","userId": "51192515@N00","secret": "d74a1cd607","title": "IMG_5365","loc": {"type": "Point","coordinates": [103.846,1.293999]}} 
{"id": "9187266671","server": "2887","farm": "3","userId": "51192515@N00","secret": "e4a5e8b5fb","title": "IMG_5282","loc": {"type": "Point","coordinates": [103.84533,1.293499]}} 
{"id": "9190040168","server": "7451","farm": "8","userId": "51192515@N00","secret": "a8802fd995","title": "IMG_5347","loc": {"type": "Point","coordinates": [103.84533,1.293499]}} 
{"id": "9187253109","server": "5321","farm": "6","userId": "51192515@N00","secret": "42e2cfd591","title": "IMG_5317","loc": {"type": "Point","coordinates": [103.84533,1.293499]}} 
{"id": "9190048822","server": "5348","farm": "6","userId": "51192515@N00","secret": "cd5859c748","title": "IMG_5327","loc": {"type": "Point","coordinates": [103.84533,1.293499]}} 
{"id": "9187245849","server": "5321","farm": "6","userId": "51192515@N00","secret": "60b82cbf7e","title": "IMG_5335","loc": {"type": "Point","coordinates": [103.84533,1.293499]}} 
{"id": "9170532863","server": "7320","farm": "8","userId": "11512870@N00","secret": "f021d1ec75","title": "20 June 2013 meet up with Lionel.","loc": {"type": "Point","coordinates": [103.847664,1.299]}} 
{"id": "9172119112","server": "7331","farm": "8","userId": "66919430@N00","secret": "39c024abfb","title": "Singa the Lion","loc": {"type": "Point","coordinates": [103.84503,1.298802]}} 
{"id": "9160690026","server": "2888","farm": "3","userId": "68821750@N00","secret": "46b0f8d302","title": "Singapore","loc": {"type": "Point","coordinates": [103.8465,1.295]}} 
{"id": "9160709078","server": "3705","farm": "4","userId": "68821750@N00","secret": "3d0850b7ea","title": "Singapore","loc": {"type": "Point","coordinates": [103.846,1.295]}} 
{"id": "9158486021","server": "3671","farm": "4","userId": "68821750@N00","secret": "4a7b92cf55","title": "Singapore","loc": {"type": "Point","coordinates": [103.84583,1.295]}} 
{"id": "9157232744","server": "7337","farm": "8","userId": "12869409@N04","secret": "410740978f","title": "Lunch!","loc": {"type": "Point","coordinates": [103.83896,1.299047]}} 
{"id": "9142061583","server": "2877","farm": "3","userId": "56728000@N00","secret": "f3b71d48f2","title": "From beef to beet. Decided to go meatless after last night's steak. The deliciously red and moist beet millet patty, sandwiched between the fluffy buns, could pass off as minced (it looked every bit the part!). | #vegetarian #food #foodgasm #burger","loc": {"type": "Point","coordinates": [103.83865,1.298316]}} 
{"id": "9108673262","server": "3733","farm": "4","userId": "96967975@N07","secret": "b26255cfeb","title": "20130622-DSC_0055","loc": {"type": "Point","coordinates": [103.83826,1.298449]}} 
{"id": "9106446953","server": "7406","farm": "8","userId": "96967975@N07","secret": "4bcb220f81","title": "20130622-DSC_0025","loc": {"type": "Point","coordinates": [103.83826,1.298449]}} 
{"id": "9106446689","server": "7432","farm": "8","userId": "96967975@N07","secret": "49a1cbeb4c","title": "20130622-DSC_0027","loc": {"type": "Point","coordinates": [103.83826,1.298449]}} 
{"id": "9103344641","server": "7336","farm": "8","userId": "37147643@N02","secret": "1ba4f574c9","title": "19June2013s","loc": {"type": "Point","coordinates": [103.84542,1.294522]}} 
{"id": "9094898400","server": "3783","farm": "4","userId": "83981795@N08","secret": "342d1e4d65","title": "20130613-DSCN4975.jpg","loc": {"type": "Point","coordinates": [103.84552,1.295375]}} 
{"id": "9094915308","server": "7362","farm": "8","userId": "83981795@N08","secret": "b1843eefd3","title": "20130613-DSCN4979.jpg","loc": {"type": "Point","coordinates": [103.84715,1.297005]}} 
{"id": "9090508011","server": "5441","farm": "6","userId": "14385475@N05","secret": "9efcb5ecc8","title": "IMG_7186","loc": {"type": "Point","coordinates": [103.844,1.292833]}} 
{"id": "9089199048","server": "5521","farm": "6","userId": "83195865@N08","secret": "7f65859942","title": "IMG_2260.jpg","loc": {"type": "Point","coordinates": [103.8436,1.29605]}} 
{"id": "9085149669","server": "3823","farm": "4","userId": "91765621@N04","secret": "b6c9395a8e","title": "","loc": {"type": "Point","coordinates": [103.843094,1.294145]}} 
{"id": "9062694657","server": "5538","farm": "6","userId": "60378293@N07","secret": "73a5dd03c4","title": "","loc": {"type": "Point","coordinates": [103.83933,1.299167]}} 
{"id": "9062695709","server": "3795","farm": "4","userId": "60378293@N07","secret": "3b6e80a34d","title": "","loc": {"type": "Point","coordinates": [103.839165,1.299]}} 
{"id": "9057307061","server": "5502","farm": "6","userId": "9225423@N03","secret": "db0a2b0753","title": "DSC_0097","loc": {"type": "Point","coordinates": [103.84555,1.29811]}} 
{"id": "9058781208","server": "5479","farm": "6","userId": "69379954@N08","secret": "1279102ede","title": "Frappe espresso it wasn't that nice","loc": {"type": "Point","coordinates": [103.839775,1.293244]}} 
{"id": "9056551101","server": "7351","farm": "8","userId": "69379954@N08","secret": "42b515262a","title": "Sashimi I don't like","loc": {"type": "Point","coordinates": [103.83952,1.293127]}} 
{"id": "9034862391","server": "2842","farm": "3","userId": "7131703@N03","secret": "2ae0ee836d","title": "IMG_2788","loc": {"type": "Point","coordinates": [103.843666,1.299166]}} 
{"id": "9037086286","server": "2856","farm": "3","userId": "7131703@N03","secret": "9de602f49e","title": "IMG_2789","loc": {"type": "Point","coordinates": [103.843666,1.299166]}} 
{"id": "9037081022","server": "3779","farm": "4","userId": "7131703@N03","secret": "a1e2d2edec","title": "IMG_2790","loc": {"type": "Point","coordinates": [103.843666,1.299]}} 
{"id": "9032610937","server": "7436","farm": "8","userId": "92696820@N08","secret": "cb5ee54470","title": "Inside apartment...just now...sing sing sing with fellows... #ss_white21 @snhanifa @dewihanifah","loc": {"type": "Point","coordinates": [103.84289,1.292369]}} 
{"id": "9031742773","server": "3780","farm": "4","userId": "30476053@N00","secret": "442d2570e2","title": "The view at #dinner #art #photography #instagood #htcone #ultrapixels","loc": {"type": "Point","coordinates": [103.841545,1.293345]}} 
{"id": "9033172756","server": "5510","farm": "6","userId": "89212762@N02","secret": "00ffd2d0e3","title": "Best. Warm up. Ever.","loc": {"type": "Point","coordinates": [103.84599,1.29911]}} 
{"id": "8993680685","server": "3714","farm": "4","userId": "67851013@N02","secret": "a9d1db6692","title": "#Journey #home 09/06/13. #Bus #Sleeping #Nap #Man","loc": {"type": "Point","coordinates": [103.84531,1.298448]}} 
{"id": "8994110738","server": "5450","farm": "6","userId": "99942665@N00","secret": "5190d73967","title": "P1180542","loc": {"type": "Point","coordinates": [103.83898,1.298362]}} 
{"id": "8987318854","server": "5336","farm": "6","userId": "42223228@N04","secret": "066de66752","title": "IMGP5603a","loc": {"type": "Point","coordinates": [103.84525,1.298979]}} 
{"id": "8983146015","server": "3733","farm": "4","userId": "24989432@N06","secret": "794c77eb56","title": "Someone Super-sized my Minions","loc": {"type": "Point","coordinates": [103.84764,1.298914]}} 
{"id": "8978092710","server": "3779","farm": "4","userId": "42223228@N04","secret": "50874f8a34","title": "IMGP5618a","loc": {"type": "Point","coordinates": [103.846306,1.298635]}} 
{"id": "8977224740","server": "8262","farm": "9","userId": "52689468@N00","secret": "35dd8ed60f","title": "130528_SOTA4","loc": {"type": "Point","coordinates": [103.848,1.298833]}} 
{"id": "8968194799","server": "5465","farm": "6","userId": "42223228@N04","secret": "0f84d4db5c","title": "IMGP5590a","loc": {"type": "Point","coordinates": [103.84716,1.296576]}} 
{"id": "8967597899","server": "2892","farm": "3","userId": "8857720@N08","secret": "a125d9ee5a","title": "Eve of tamil new Year - Singapore","loc": {"type": "Point","coordinates": [103.84316,1.294067]}} 
{"id": "8966192570","server": "7424","farm": "8","userId": "9031961@N02","secret": "6b82f2836a","title": "After Earth! #monthlyindulgence #cathay #movie #willsmithfan #platinummoviesuites #splurge #heineken #beer #shiok","loc": {"type": "Point","coordinates": [103.84764,1.298914]}} 
{"id": "8963028155","server": "8273","farm": "9","userId": "83592540@N07","secret": "cc7b7dcb83","title": "My Last Stay to Singapre","loc": {"type": "Point","coordinates": [103.8475,1.298888]}} 
{"id": "8963015497","server": "5454","farm": "6","userId": "83592540@N07","secret": "4d6856978b","title": "My Last Stay to Singapre","loc": {"type": "Point","coordinates": [103.8475,1.298888]}} 
{"id": "8963029305","server": "8539","farm": "9","userId": "83592540@N07","secret": "ea467b0cf9","title": "My Last Stay to Singapre","loc": {"type": "Point","coordinates": [103.8475,1.298888]}} 
{"id": "8964191508","server": "5447","farm": "6","userId": "83592540@N07","secret": "d0864551d7","title": "My Last Stay to Singapre","loc": {"type": "Point","coordinates": [103.8475,1.298888]}} 
{"id": "8959385554","server": "7324","farm": "8","userId": "83592540@N07","secret": "17f10e6f69","title": "Ate Brenda's  Wedding","loc": {"type": "Point","coordinates": [103.84783,1.2945]}} 
{"id": "8958188369","server": "7298","farm": "8","userId": "83592540@N07","secret": "c00fc10559","title": "Ate Brenda's  Wedding","loc": {"type": "Point","coordinates": [103.84783,1.294666]}} 
{"id": "8959386906","server": "8545","farm": "9","userId": "83592540@N07","secret": "af964f8a98","title": "Ate Brenda's  Wedding","loc": {"type": "Point","coordinates": [103.84783,1.294666]}} 
{"id": "8959388068","server": "5336","farm": "6","userId": "83592540@N07","secret": "b73f48701b","title": "Ate Brenda's  Wedding","loc": {"type": "Point","coordinates": [103.84783,1.294666]}} 
{"id": "8959389032","server": "7416","farm": "8","userId": "83592540@N07","secret": "a997094e83","title": "Ate Brenda's  Wedding","loc": {"type": "Point","coordinates": [103.84783,1.2945]}} 
{"id": "8958189841","server": "3757","farm": "4","userId": "83592540@N07","secret": "b93605a1ba","title": "Ate Brenda's  Wedding","loc": {"type": "Point","coordinates": [103.84783,1.294666]}} 
{"id": "8958226353","server": "5341","farm": "6","userId": "83592540@N07","secret": "dabd49eb07","title": "Ate Brenda's  Wedding","loc": {"type": "Point","coordinates": [103.847664,1.294666]}} 
{"id": "8959388760","server": "8418","farm": "9","userId": "83592540@N07","secret": "d5a1fa4dc9","title": "Ate Brenda's  Wedding","loc": {"type": "Point","coordinates": [103.84783,1.294666]}} 
{"id": "8959389046","server": "2849","farm": "3","userId": "83592540@N07","secret": "0d6c40af1c","title": "Ate Brenda's  Wedding","loc": {"type": "Point","coordinates": [103.84783,1.2945]}} 
{"id": "8958192213","server": "3740","farm": "4","userId": "83592540@N07","secret": "8bc02a3425","title": "Ate Brenda's  Wedding","loc": {"type": "Point","coordinates": [103.84783,1.294833]}} 
{"id": "8959389156","server": "2861","farm": "3","userId": "83592540@N07","secret": "593ec5c45d","title": "Ate Brenda's  Wedding","loc": {"type": "Point","coordinates": [103.84783,1.2945]}} 
{"id": "8959387230","server": "2885","farm": "3","userId": "83592540@N07","secret": "deff7ab8b5","title": "Ate Brenda's  Wedding","loc": {"type": "Point","coordinates": [103.84783,1.294666]}} 
{"id": "8959388038","server": "8118","farm": "9","userId": "83592540@N07","secret": "dc126e6d27","title": "Ate Brenda's  Wedding","loc": {"type": "Point","coordinates": [103.84783,1.2945]}} 
{"id": "8954248047","server": "3808","farm": "4","userId": "36163014@N00","secret": "af469d119c","title": "P1010530","loc": {"type": "Point","coordinates": [103.84639,1.297799]}} 
{"id": "8954237389","server": "3690","farm": "4","userId": "36163014@N00","secret": "9c3890e4ae","title": "P1010525","loc": {"type": "Point","coordinates": [103.84639,1.297799]}} 
{"id": "8953629697","server": "8560","farm": "9","userId": "36163014@N00","secret": "87dc58a249","title": "P1010440","loc": {"type": "Point","coordinates": [103.84755,1.294377]}} 
{"id": "8954836192","server": "2872","farm": "3","userId": "36163014@N00","secret": "d4132c9951","title": "P1010441","loc": {"type": "Point","coordinates": [103.847885,1.293219]}} 
{"id": "8953648041","server": "3815","farm": "4","userId": "36163014@N00","secret": "a22f2647bd","title": "P1010442","loc": {"type": "Point","coordinates": [103.847885,1.293219]}} 
{"id": "8925753978","server": "2858","farm": "3","userId": "62631731@N03","secret": "0f5d7a068a","title": "Bak Kut Teh 肉骨茶","loc": {"type": "Point","coordinates": [103.83906,1.298572]}} 
{"id": "8925132753","server": "3765","farm": "4","userId": "62631731@N03","secret": "0c6803bdf8","title": "Bak Kut Teh 肉骨茶","loc": {"type": "Point","coordinates": [103.83906,1.298572]}} 
{"id": "8923894443","server": "5343","farm": "6","userId": "89380172@N06","secret": "d412db55d4","title": "Sigur Rós Live in Singapore!","loc": {"type": "Point","coordinates": [103.84645,1.295031]}} 
{"id": "8922941406","server": "7453","farm": "8","userId": "83592540@N07","secret": "8c4359d779","title": "Swimming","loc": {"type": "Point","coordinates": [103.84783,1.2945]}} 
{"id": "8922941506","server": "7306","farm": "8","userId": "83592540@N07","secret": "bf72f03c9d","title": "Swimming","loc": {"type": "Point","coordinates": [103.84783,1.294666]}} 
{"id": "8922324339","server": "5456","farm": "6","userId": "83592540@N07","secret": "709d788177","title": "Swimming","loc": {"type": "Point","coordinates": [103.84783,1.294666]}} 
{"id": "8922940290","server": "2863","farm": "3","userId": "83592540@N07","secret": "098e0355ef","title": "Swimming","loc": {"type": "Point","coordinates": [103.84783,1.2945]}} 
{"id": "8922942106","server": "5344","farm": "6","userId": "83592540@N07","secret": "766fdc4e1e","title": "Swimming","loc": {"type": "Point","coordinates": [103.84783,1.294833]}} 
{"id": "8922941468","server": "7300","farm": "8","userId": "83592540@N07","secret": "9c9d9e40e4","title": "Swimming","loc": {"type": "Point","coordinates": [103.84783,1.2945]}} 
{"id": "8922940758","server": "7364","farm": "8","userId": "83592540@N07","secret": "d331f54aca","title": "Swimming","loc": {"type": "Point","coordinates": [103.84783,1.2945]}} 
{"id": "8922325277","server": "5460","farm": "6","userId": "83592540@N07","secret": "d7fa59c9aa","title": "Swimming","loc": {"type": "Point","coordinates": [103.84783,1.294666]}} 
{"id": "8922941522","server": "5340","farm": "6","userId": "83592540@N07","secret": "a8d34575a2","title": "Swimming","loc": {"type": "Point","coordinates": [103.84783,1.294666]}} 
{"id": "8922322429","server": "3675","farm": "4","userId": "83592540@N07","secret": "3124c7bca6","title": "Swimming","loc": {"type": "Point","coordinates": [103.84783,1.2945]}} 
{"id": "8922940484","server": "8540","farm": "9","userId": "83592540@N07","secret": "ac058783d3","title": "Swimming","loc": {"type": "Point","coordinates": [103.84783,1.294666]}} 
{"id": "8922323583","server": "3705","farm": "4","userId": "83592540@N07","secret": "ca68063025","title": "Swimming","loc": {"type": "Point","coordinates": [103.84783,1.294666]}} 
{"id": "8922938966","server": "7317","farm": "8","userId": "83592540@N07","secret": "750502404e","title": "Swimming","loc": {"type": "Point","coordinates": [103.84783,1.2945]}} 
{"id": "8922941898","server": "7286","farm": "8","userId": "83592540@N07","secret": "d039558663","title": "Swimming","loc": {"type": "Point","coordinates": [103.84783,1.2945]}} 
{"id": "8921402367","server": "2887","farm": "3","userId": "83195865@N08","secret": "c674f391c4","title": "IMG_2269.jpg","loc": {"type": "Point","coordinates": [103.8436,1.29605]}} 
{"id": "8921368283","server": "5341","farm": "6","userId": "83195865@N08","secret": "74a61901c6","title": "IMG_2080.jpg","loc": {"type": "Point","coordinates": [103.8436,1.29605]}} 
{"id": "8921353793","server": "5464","farm": "6","userId": "83195865@N08","secret": "2453421247","title": "IMG_2228.jpg","loc": {"type": "Point","coordinates": [103.8436,1.29605]}} 
{"id": "8921991796","server": "7440","farm": "8","userId": "83195865@N08","secret": "5efc399e3a","title": "IMG_2233.jpg","loc": {"type": "Point","coordinates": [103.8436,1.29605]}} 
{"id": "8921976026","server": "8542","farm": "9","userId": "83195865@N08","secret": "c6c6fef777","title": "IMG_2077.jpg","loc": {"type": "Point","coordinates": [103.8436,1.29605]}} 
{"id": "8921266147","server": "7399","farm": "8","userId": "40407806@N00","secret": "34578c7486","title": "","loc": {"type": "Point","coordinates": [103.84517,1.298166]}} 
{"id": "8921268187","server": "5452","farm": "6","userId": "40407806@N00","secret": "f5c81b3ce2","title": "","loc": {"type": "Point","coordinates": [103.84533,1.298166]}} 
{"id": "8874977967","server": "2869","farm": "3","userId": "56728000@N00","secret": "09a25d1e55","title": "We got a lil too over enthusiastic with lunch...I guess | #food #foodgasm #foodies #instafood #instayum","loc": {"type": "Point","coordinates": [103.83853,1.297697]}} 
{"id": "8875024376","server": "3701","farm": "4","userId": "12869409@N04","secret": "1f679d827a","title": "Fried Rice!","loc": {"type": "Point","coordinates": [103.83896,1.299047]}} 
{"id": "8863824715","server": "7356","farm": "8","userId": "8381023@N04","secret": "3249a89472","title": "Busy Bejeweled Blitz Blazer.","loc": {"type": "Point","coordinates": [103.84763,1.298839]}} 
{"id": "8860861667","server": "3712","farm": "4","userId": "35468141938@N01","secret": "deb652a1b8","title": "Work typically gets me down, so I couple it with cycling to keep spirits high.","loc": {"type": "Point","coordinates": [103.84587,1.298084]}} 
{"id": "8839125507","server": "7452","farm": "8","userId": "19282426@N00","secret": "145aec902b","title": "Walnuts appetizers","loc": {"type": "Point","coordinates": [103.84766,1.29897]}} 
{"id": "8838052887","server": "5337","farm": "6","userId": "93109357@N05","secret": "312f331d72","title": "ระหว่างรอดู Iron man รอบ 2  จัดอาหารเย็นอย่างอิ่ม ถึงเวลาหนังเข้าหลับพอดี #aston #cathay","loc": {"type": "Point","coordinates": [103.84768,1.298989]}} 
{"id": "8837972897","server": "8550","farm": "9","userId": "99942665@N00","secret": "d3f7e1a197","title": "IMG_20130526_120404","loc": {"type": "Point","coordinates": [103.838936,1.298283]}} 
{"id": "8837185364","server": "8416","farm": "9","userId": "79063289@N02","secret": "4625e555ee","title": "SUP","loc": {"type": "Point","coordinates": [103.84545,1.298063]}} 
{"id": "8814847753","server": "5335","farm": "6","userId": "9454157@N08","secret": "c55f3b3ab9","title": "Spathe for #dinner","loc": {"type": "Point","coordinates": [103.84201,1.293813]}} 
{"id": "8814473147","server": "7452","farm": "8","userId": "9454157@N08","secret": "eae2841ac5","title": "Potato gnocchi yum! So well done!","loc": {"type": "Point","coordinates": [103.84201,1.293813]}} 
{"id": "8810866829","server": "3761","farm": "4","userId": "80217014@N00","secret": "f211c9a576","title": "Cheese platter","loc": {"type": "Point","coordinates": [103.841805,1.292452]}} 
{"id": "8801805631","server": "2819","farm": "3","userId": "56728000@N00","secret": "15af2f9942","title": "Poke! Poke! Look its the awesome Californian-inspired Tuna and Avocado Poké. Love the crunchy layer of fried shallots too. | #instayum #instafood #foodgasm #food #instaweekend","loc": {"type": "Point","coordinates": [103.84201,1.293813]}} 
{"id": "8772979561","server": "8134","farm": "9","userId": "67851013@N02","secret": "8476a80090","title": "#Listening to... 22/05/13. #The #Macs #Strumming To Your #Beat","loc": {"type": "Point","coordinates": [103.84766,1.299033]}} 
{"id": "8767892022","server": "7376","farm": "8","userId": "97236816@N00","secret": "3647e5a3a2","title": "Singapore - Fort Canning Park","loc": {"type": "Point","coordinates": [103.8458,1.293686]}} 
{"id": "8767891422","server": "7318","farm": "8","userId": "97236816@N00","secret": "6ac5d63c32","title": "Singapore - Fort Canning Park","loc": {"type": "Point","coordinates": [103.8458,1.293686]}} 
{"id": "8765123895","server": "5346","farm": "6","userId": "97236816@N00","secret": "61be741889","title": "Singapore - Fort Canning Park","loc": {"type": "Point","coordinates": [103.8458,1.293686]}} 
{"id": "8765100197","server": "5332","farm": "6","userId": "97236816@N00","secret": "2c71eea64a","title": "Singapore - Fort Canning Park","loc": {"type": "Point","coordinates": [103.84796,1.292691]}} 
{"id": "8765123231","server": "3828","farm": "4","userId": "97236816@N00","secret": "4e1c4fff66","title": "Singapore - Fort Canning Park","loc": {"type": "Point","coordinates": [103.84583,1.29478]}} 
{"id": "8757819814","server": "2853","farm": "3","userId": "31496313@N00","secret": "d61a59d4d3","title": "'Hand up' in Singapore","loc": {"type": "Point","coordinates": [103.83784,1.29723]}} 
{"id": "8756180915","server": "7432","farm": "8","userId": "19282426@N00","secret": "48603e3d8d","title": "DimSum","loc": {"type": "Point","coordinates": [103.84785,1.298828]}} 
{"id": "8757306510","server": "3712","farm": "4","userId": "19282426@N00","secret": "62052e4e1e","title": "DimSum","loc": {"type": "Point","coordinates": [103.84791,1.29885]}} 
{"id": "8752744434","server": "3734","farm": "4","userId": "19282426@N00","secret": "04129a167b","title": "Egg yolk bun","loc": {"type": "Point","coordinates": [103.84766,1.29897]}} 
{"id": "8751610006","server": "2849","farm": "3","userId": "39138472@N08","secret": "b036cf9d87","title": "IMG_0938","loc": {"type": "Point","coordinates": [103.84516,1.298818]}} 
{"id": "8750462189","server": "8118","farm": "9","userId": "39138472@N08","secret": "215128888d","title": "IMG_0882","loc": {"type": "Point","coordinates": [103.84516,1.298818]}} 
{"id": "8751586964","server": "2825","farm": "3","userId": "39138472@N08","secret": "4e2434abbf","title": "IMG_0881","loc": {"type": "Point","coordinates": [103.84516,1.298818]}} 
{"id": "8748017676","server": "8269","farm": "9","userId": "44486574@N05","secret": "1e264b814d","title": "Hotel room number","loc": {"type": "Point","coordinates": [103.84783,1.297666]}} 
{"id": "8746439533","server": "7314","farm": "8","userId": "48784929@N03","secret": "6bca3fc145","title": "With @singexplorer at Shakespeare at the park. Othello is the play we're watching this time. Can't wait! #365/137","loc": {"type": "Point","coordinates": [103.847115,1.295557]}} 
{"id": "8745982427","server": "7312","farm": "8","userId": "99233151@N00","secret": "01371ccfe0","title": "Latest haul thanks to team's birthday HMV vouchers and Amazon delivery (which coincidentally also arrived today).","loc": {"type": "Point","coordinates": [103.839096,1.299023]}} 
{"id": "8740794065","server": "7289","farm": "8","userId": "19282426@N00","secret": "a80b3a462a","title": "Crab Claw Mian Xian","loc": {"type": "Point","coordinates": [103.84766,1.29897]}} 
{"id": "8741912170","server": "7291","farm": "8","userId": "19282426@N00","secret": "c1dbc40e34","title": "A feast for the eyes as well","loc": {"type": "Point","coordinates": [103.84766,1.29897]}} 
{"id": "8740794567","server": "7289","farm": "8","userId": "19282426@N00","secret": "cda6649567","title": "Baked Lamb Shank","loc": {"type": "Point","coordinates": [103.84766,1.29897]}} 
{"id": "8730859719","server": "7417","farm": "8","userId": "99942665@N00","secret": "eeabbd99c6","title": "IMG_20130510_233050","loc": {"type": "Point","coordinates": [103.83915,1.298918]}} 
{"id": "8731543746","server": "7290","farm": "8","userId": "21997205@N00","secret": "e9c450c63e","title": "熱 : Hot","loc": {"type": "Point","coordinates": [103.84556,1.299167]}} 
{"id": "8729568727","server": "7346","farm": "8","userId": "28137664@N03","secret": "7440e2df84","title": "The Cathay, Singapore","loc": {"type": "Point","coordinates": [103.84801,1.298914]}} 
{"id": "8728165027","server": "7346","farm": "8","userId": "56728000@N00","secret": "05e2544848","title": "There is always room for dessert innit? Poached Pear Charlotte Royale with warm Chocolate Sauce. Strangely it wasn't as satisfying as it sounds. On hindsight, we should have ordered another one. | #instayum #instafood #instaweekend #dessert #food #foodgas","loc": {"type": "Point","coordinates": [103.84201,1.293813]}} 
{"id": "8728964926","server": "7283","farm": "8","userId": "56728000@N00","secret": "d20b32758c","title": "Gotta love a place with sweet convincing skills | #instaweekend #dessert","loc": {"type": "Point","coordinates": [103.84201,1.293813]}} 
{"id": "8725675164","server": "7314","farm": "8","userId": "99233151@N00","secret": "0a779e225f","title": "The Birthday Magnum: a time-honored tradition.","loc": {"type": "Point","coordinates": [103.839096,1.299023]}} 
{"id": "8722824238","server": "7418","farm": "8","userId": "68897894@N00","secret": "142ac93036","title": "China Tea","loc": {"type": "Point","coordinates": [103.84316,1.293708]}} 
{"id": "8719872279","server": "7358","farm": "8","userId": "95323653@N00","secret": "7b1da38169","title": "11.6%!!! #drink #singapore #businesstrip","loc": {"type": "Point","coordinates": [103.83853,1.297697]}} 
{"id": "8720386580","server": "7423","farm": "8","userId": "86522321@N08","secret": "ab7930b0de","title": "P1400291","loc": {"type": "Point","coordinates": [103.84729,1.293187]}} 
{"id": "8717656112","server": "7431","farm": "8","userId": "44486784@N06","secret": "5ec8c514a7","title": "The Fort Gate","loc": {"type": "Point","coordinates": [103.8459,1.294999]}} 
{"id": "8706976233","server": "8415","farm": "9","userId": "58072194@N08","secret": "80e7deaac2","title": "4_19","loc": {"type": "Point","coordinates": [103.8415,1.293333]}} 
{"id": "8706458753","server": "8277","farm": "9","userId": "83195865@N08","secret": "e347baf8fa","title": "IMG_0977.jpg","loc": {"type": "Point","coordinates": [103.843216,1.293036]}} 
{"id": "8706150589","server": "8416","farm": "9","userId": "83195865@N08","secret": "e0b52be819","title": "IMG_0964.jpg","loc": {"type": "Point","coordinates": [103.843216,1.293036]}} 
{"id": "8706155683","server": "8137","farm": "9","userId": "83195865@N08","secret": "5ae2348c3c","title": "IMG_0979.jpg","loc": {"type": "Point","coordinates": [103.843216,1.293036]}} 
{"id": "8707280840","server": "8126","farm": "9","userId": "83195865@N08","secret": "8684f32f18","title": "IMG_0980.jpg","loc": {"type": "Point","coordinates": [103.843216,1.293036]}} 
{"id": "8705274077","server": "8541","farm": "9","userId": "49421461@N00","secret": "585dd7f334","title": "untitled-8847.jpg","loc": {"type": "Point","coordinates": [103.84791,1.295144]}} 
{"id": "8698657438","server": "8547","farm": "9","userId": "93885572@N08","secret": "fae6dac2fb","title": "20130103 152307","loc": {"type": "Point","coordinates": [103.839165,1.299]}} 
{"id": "8681102540","server": "8118","farm": "9","userId": "19109134@N00","secret": "34a9e646f8","title": "The Bulge","loc": {"type": "Point","coordinates": [103.84774,1.295439]}} 
{"id": "8672973659","server": "8398","farm": "9","userId": "72009647@N06","secret": "b22ac41ab7","title": "AMG Gullwing","loc": {"type": "Point","coordinates": [103.83767,1.298333]}} 
{"id": "8651482926","server": "8538","farm": "9","userId": "89975165@N07","secret": "4e13081281","title": "Corned Beef Hash.","loc": {"type": "Point","coordinates": [103.83931,1.29583]}} 
{"id": "8641801554","server": "8539","farm": "9","userId": "72009647@N06","secret": "37022af8eb","title": "Camera Roll-1978","loc": {"type": "Point","coordinates": [103.83733,1.2955]}} 
{"id": "8579615529","server": "8089","farm": "9","userId": "42223228@N04","secret": "09479b89c5","title": "IMGP4665a","loc": {"type": "Point","coordinates": [103.84647,1.298271]}} 
{"id": "8570327726","server": "8377","farm": "9","userId": "16105436@N00","secret": "0f08ab3b32","title": "Printer config page with IP address","loc": {"type": "Point","coordinates": [103.84316,1.299]}} 
{"id": "8527727680","server": "8246","farm": "9","userId": "92593934@N04","secret": "50b65d5cb6","title": "Revisited - Poach Pear","loc": {"type": "Point","coordinates": [103.84206,1.293754]}} 
{"id": "8514745571","server": "8505","farm": "9","userId": "91937661@N05","secret": "964202c987","title": "Let's play... handcuffs! Whose kid like to play with this?","loc": {"type": "Point","coordinates": [103.84517,1.292666]}} 
{"id": "8490461695","server": "8106","farm": "9","userId": "62158995@N08","secret": "1099ec4068","title": "Gong xi fa cai from McCann Worldgroup","loc": {"type": "Point","coordinates": [103.84603,1.299111]}} 
{"id": "8485361955","server": "8090","farm": "9","userId": "79225464@N00","secret": "3a8afae3f5","title": "Hello","loc": {"type": "Point","coordinates": [103.84618,1.299075]}} 
{"id": "8485360163","server": "8100","farm": "9","userId": "79225464@N00","secret": "face7897fa","title": "Tit for Tat","loc": {"type": "Point","coordinates": [103.84618,1.299075]}} 
{"id": "8486454886","server": "8367","farm": "9","userId": "79225464@N00","secret": "07b8d89ecc","title": "Sound Space Cadet","loc": {"type": "Point","coordinates": [103.84618,1.299075]}} 
{"id": "8485281041","server": "8098","farm": "9","userId": "79225464@N00","secret": "acfb3deb0b","title": "Gong Xi Fa Cai","loc": {"type": "Point","coordinates": [103.84618,1.299075]}} 
{"id": "8485279565","server": "8365","farm": "9","userId": "79225464@N00","secret": "76f599523e","title": "Gong Xi Fa Cai","loc": {"type": "Point","coordinates": [103.84618,1.299075]}} 
{"id": "8485276463","server": "8388","farm": "9","userId": "79225464@N00","secret": "93f4571ec4","title": "The Lookout","loc": {"type": "Point","coordinates": [103.84618,1.299075]}} 
{"id": "8486370428","server": "8094","farm": "9","userId": "79225464@N00","secret": "6310a6fe40","title": "Gong Xi Fa Cai","loc": {"type": "Point","coordinates": [103.84618,1.299075]}} 
{"id": "8475241000","server": "8092","farm": "9","userId": "79225464@N00","secret": "57d8d1187d","title": "Food for Thought","loc": {"type": "Point","coordinates": [103.84618,1.299075]}} 
{"id": "8703367523","server": "8131","farm": "9","userId": "57629484@N03","secret": "250cbabe5e","title": "Traveling on the MRT here in Singapore is one of the most civilized experience of public travel I've ever had ;) thumbs up to the locals.","loc": {"type": "Point","coordinates": [103.84556,1.299167]}} 
{"id": "8698965894","server": "8402","farm": "9","userId": "24989432@N06","secret": "a01b1b654f","title": "We came well prepared for a picnic :) @patricoantonio @amri_n","loc": {"type": "Point","coordinates": [103.847466,1.295539]}} 
{"id": "8694246676","server": "8263","farm": "9","userId": "62806266@N06","secret": "acceb7d63d","title": "DSCF7339 copy","loc": {"type": "Point","coordinates": [103.84615,1.295257]}} 
{"id": "8693128361","server": "8120","farm": "9","userId": "62806266@N06","secret": "e36f610b59","title": "DSCF7467","loc": {"type": "Point","coordinates": [103.84636,1.295246]}} 
{"id": "8693128895","server": "8254","farm": "9","userId": "62806266@N06","secret": "68eaa4a62c","title": "S0317623 copy","loc": {"type": "Point","coordinates": [103.846085,1.29634]}} 
{"id": "8693077004","server": "8397","farm": "9","userId": "37305800@N00","secret": "d2b0facc60","title": "City Hall Platform","loc": {"type": "Point","coordinates": [103.846664,1.298333]}} 
{"id": "8688149695","server": "7048","farm": "8","userId": "55218919@N06","secret": "ef0a1d565f","title": "The Cathay","loc": {"type": "Point","coordinates": [103.84788,1.299086]}} 
{"id": "8687466243","server": "7050","farm": "8","userId": "83195865@N08","secret": "f257de9524","title": "IMG_0248.jpg","loc": {"type": "Point","coordinates": [103.84186,1.293922]}} 
{"id": "8688585594","server": "7056","farm": "8","userId": "83195865@N08","secret": "0bb0ae406d","title": "IMG_0251.jpg","loc": {"type": "Point","coordinates": [103.842255,1.294216]}} 
{"id": "8685206419","server": "8257","farm": "9","userId": "28137664@N03","secret": "1400e09272","title": "Big bolt for a big door..... Fort Canning, Singapore","loc": {"type": "Point","coordinates": [103.846,1.295203]}} 
{"id": "8686327852","server": "8394","farm": "9","userId": "28137664@N03","secret": "e5a7ecee77","title": "Sally Port, Fort Canning, Singapore","loc": {"type": "Point","coordinates": [103.84653,1.296093]}} 
{"id": "8685207651","server": "8256","farm": "9","userId": "28137664@N03","secret": "b00504b192","title": "Calming Green, Fort Canning, Singapore","loc": {"type": "Point","coordinates": [103.84679,1.29531]}} 
{"id": "8686325398","server": "8257","farm": "9","userId": "28137664@N03","secret": "d26953aa21","title": "This way please..... Fort Canning, Singapore","loc": {"type": "Point","coordinates": [103.846,1.295203]}} 
{"id": "8686328088","server": "8263","farm": "9","userId": "28137664@N03","secret": "372844bb9e","title": "Sally Port, Fort Canning, Singapore","loc": {"type": "Point","coordinates": [103.84653,1.296093]}} 
{"id": "8686324762","server": "8247","farm": "9","userId": "28137664@N03","secret": "8de950d255","title": "Old Gatehouse, Fort Canning, Singapore","loc": {"type": "Point","coordinates": [103.846,1.295203]}} 
{"id": "8685207513","server": "8262","farm": "9","userId": "28137664@N03","secret": "4125f60bfd","title": "Mooooo! Fort Canning, Singapore","loc": {"type": "Point","coordinates": [103.84679,1.29531]}} 
{"id": "8686324488","server": "8125","farm": "9","userId": "28137664@N03","secret": "a8f479ed18","title": "Clemenceau Avenue, Singapore (from Fort Canning)","loc": {"type": "Point","coordinates": [103.84616,1.293401]}} 
{"id": "8685206245","server": "8119","farm": "9","userId": "28137664@N03","secret": "451dd2413c","title": "Old Gatehouse, Fort Canning, Singapore","loc": {"type": "Point","coordinates": [103.846,1.295203]}} 
{"id": "8686327536","server": "8258","farm": "9","userId": "28137664@N03","secret": "46c4f9aecd","title": "Colourful Rubbish, Fort Canning, Singapore","loc": {"type": "Point","coordinates": [103.84655,1.295611]}} 
{"id": "8685206843","server": "8116","farm": "9","userId": "28137664@N03","secret": "2a9b05a9d8","title": "Metal Cow Sculptures, Fort Canning, Singapore","loc": {"type": "Point","coordinates": [103.846,1.295203]}} 
{"id": "8685207159","server": "8260","farm": "9","userId": "28137664@N03","secret": "34d436df1b","title": "Emergency Escape Tunnel, Fort Canning, Singapore","loc": {"type": "Point","coordinates": [103.846,1.295203]}} 
{"id": "8685207821","server": "8261","farm": "9","userId": "28137664@N03","secret": "d42f72f6bb","title": "Green Glow, Fort Canning, Singapore","loc": {"type": "Point","coordinates": [103.84679,1.29531]}} 
{"id": "8686327156","server": "8120","farm": "9","userId": "28137664@N03","secret": "b6273cf8d7","title": "Pretty doors all in a row... Fort Canning, Singapore","loc": {"type": "Point","coordinates": [103.84679,1.29531]}} 
{"id": "8684807319","server": "8260","farm": "9","userId": "19282426@N00","secret": "a9f1c8a9b1","title": "Crab claw mian xian from the #clubsnap Makan photography outing today, I hope you all had fun","loc": {"type": "Point","coordinates": [103.84766,1.29897]}} 
{"id": "8685659832","server": "8537","farm": "9","userId": "83195865@N08","secret": "f8b4d9f3d2","title": "IMG_0085.jpg","loc": {"type": "Point","coordinates": [103.84299,1.295744]}} 
{"id": "8677478097","server": "8388","farm": "9","userId": "14976902@N00","secret": "29658e97f4","title": "IMAG0326","loc": {"type": "Point","coordinates": [103.84776,1.294469]}} 
{"id": "8672533925","server": "8391","farm": "9","userId": "94573077@N08","secret": "069dcfe5e1","title": "","loc": {"type": "Point","coordinates": [103.84417,1.297333]}} 
{"id": "8672532435","server": "8256","farm": "9","userId": "94573077@N08","secret": "0b2e190f36","title": "","loc": {"type": "Point","coordinates": [103.84433,1.297333]}} 
{"id": "8672859424","server": "8398","farm": "9","userId": "94573077@N08","secret": "8b04e7c3d4","title": "","loc": {"type": "Point","coordinates": [103.84417,1.297499]}} 
{"id": "8672831068","server": "8263","farm": "9","userId": "94573077@N08","secret": "3d7b952abc","title": "","loc": {"type": "Point","coordinates": [103.84417,1.297499]}} 
{"id": "8672801964","server": "8540","farm": "9","userId": "94573077@N08","secret": "e2893feb83","title": "","loc": {"type": "Point","coordinates": [103.84417,1.297499]}} 
{"id": "8668008340","server": "8531","farm": "9","userId": "99942665@N00","secret": "e30a560140","title": "P1180024","loc": {"type": "Point","coordinates": [103.837875,1.297738]}} 
{"id": "8666905437","server": "8533","farm": "9","userId": "99942665@N00","secret": "8efacf21ab","title": "P1180020","loc": {"type": "Point","coordinates": [103.837875,1.297738]}} 
{"id": "8666906761","server": "8541","farm": "9","userId": "99942665@N00","secret": "afdfaef3bc","title": "P1180027","loc": {"type": "Point","coordinates": [103.837875,1.297738]}} 
{"id": "8666904979","server": "8544","farm": "9","userId": "99942665@N00","secret": "f31b1b40a9","title": "P1180017","loc": {"type": "Point","coordinates": [103.837875,1.297738]}} 
{"id": "8665117603","server": "8257","farm": "9","userId": "95165424@N08","secret": "b7c48be8dc","title": "Raffles Terrace","loc": {"type": "Point","coordinates": [103.846634,1.29353]}} 
{"id": "8666217150","server": "8249","farm": "9","userId": "95165424@N08","secret": "506a436871","title": "Canon","loc": {"type": "Point","coordinates": [103.84721,1.293358]}} 
{"id": "8666216476","server": "8248","farm": "9","userId": "95165424@N08","secret": "48e49c03bb","title": "Ce petit chemin","loc": {"type": "Point","coordinates": [103.84777,1.294216]}} 
{"id": "8666217544","server": "8250","farm": "9","userId": "95165424@N08","secret": "01e9ac85b1","title": "Fleur Noir&Blanc + rouge","loc": {"type": "Point","coordinates": [103.846634,1.292715]}} 
{"id": "8665118821","server": "8259","farm": "9","userId": "95165424@N08","secret": "4cd9c8a782","title": "Fleur blanche","loc": {"type": "Point","coordinates": [103.84674,1.292886]}} 
{"id": "8666217752","server": "8264","farm": "9","userId": "95165424@N08","secret": "0f3259eb3c","title": "Fleur jaune","loc": {"type": "Point","coordinates": [103.846954,1.293315]}} 
{"id": "8666217956","server": "8250","farm": "9","userId": "95165424@N08","secret": "bb4047bdea","title": "Fleur rouge","loc": {"type": "Point","coordinates": [103.84692,1.293165]}} 
{"id": "8666214372","server": "8241","farm": "9","userId": "95165424@N08","secret": "81787b22be","title": "Feuilles Details","loc": {"type": "Point","coordinates": [103.84668,1.292543]}} 
{"id": "8665118753","server": "8245","farm": "9","userId": "95165424@N08","secret": "944acdd20b","title": "Fleur","loc": {"type": "Point","coordinates": [103.84668,1.292414]}} 
{"id": "8666218180","server": "8260","farm": "9","userId": "95165424@N08","secret": "13a43a8326","title": "Delonix Regia2","loc": {"type": "Point","coordinates": [103.847046,1.293079]}} 
{"id": "8665118323","server": "8262","farm": "9","userId": "95165424@N08","secret": "b539abb51d","title": "Canon","loc": {"type": "Point","coordinates": [103.84698,1.293187]}} 
{"id": "8665104701","server": "8265","farm": "9","userId": "95165424@N08","secret": "14bebb7dd3","title": "Fleur rose seule","loc": {"type": "Point","coordinates": [103.84685,1.292414]}} 
{"id": "8666200532","server": "8246","farm": "9","userId": "95165424@N08","secret": "798bba2fdc","title": "Fleur rose","loc": {"type": "Point","coordinates": [103.847046,1.292757]}} 
{"id": "8665097335","server": "8264","farm": "9","userId": "95165424@N08","secret": "9ea501c48c","title": "Greenwashing2","loc": {"type": "Point","coordinates": [103.847,1.292929]}} 
{"id": "8666205644","server": "8266","farm": "9","userId": "95165424@N08","secret": "b86389d3cb","title": "Gravure2","loc": {"type": "Point","coordinates": [103.847084,1.2925]}} 
{"id": "8664392065","server": "8240","farm": "9","userId": "83195865@N08","secret": "49d81fe68a","title": "IMG_9172.jpg","loc": {"type": "Point","coordinates": [103.84277,1.295]}} 
{"id": "8665496054","server": "8258","farm": "9","userId": "83195865@N08","secret": "9686e64065","title": "IMG_9122.jpg","loc": {"type": "Point","coordinates": [103.84277,1.295]}} 
{"id": "8665450840","server": "8256","farm": "9","userId": "28137664@N03","secret": "b31a9e396c","title": "Fort Canning, Singapore","loc": {"type": "Point","coordinates": [103.84488,1.292779]}} 
{"id": "8664349297","server": "8255","farm": "9","userId": "28137664@N03","secret": "67bc6a5671","title": "Fort Canning, Singapore","loc": {"type": "Point","coordinates": [103.84488,1.292779]}} 
{"id": "8665422634","server": "8248","farm": "9","userId": "71141369@N03","secret": "f031ca2ace","title": "The one with the really hot weather","loc": {"type": "Point","coordinates": [103.84587,1.298084]}} 
{"id": "8665093266","server": "8258","farm": "9","userId": "67229958@N02","secret": "43368966eb","title": "Orchard Road - Christmas 1","loc": {"type": "Point","coordinates": [103.84616,1.298678]}} 
{"id": "8663784671","server": "8265","farm": "9","userId": "89975165@N07","secret": "d493663c8d","title": "Gruyere Cheese & Bacon Rösti & a Cappucino for today's brunch featuring my brand new Arty ring from my loveliest friends. ❤❤❤","loc": {"type": "Point","coordinates": [103.84206,1.293754]}} 
{"id": "8663174638","server": "8248","farm": "9","userId": "35602139@N06","secret": "eb62b121d7","title": "#salmon","loc": {"type": "Point","coordinates": [103.83931,1.29583]}} 
{"id": "8663179762","server": "8265","farm": "9","userId": "35602139@N06","secret": "f521a54ed3","title": "Para syang #beefsapicao sarap","loc": {"type": "Point","coordinates": [103.83931,1.29583]}} 
{"id": "8661782545","server": "8239","farm": "9","userId": "46577167@N00","secret": "985a399323","title": "Othello stage","loc": {"type": "Point","coordinates": [103.847664,1.295999]}} 
{"id": "8661782805","server": "8258","farm": "9","userId": "46577167@N00","secret": "81d082371a","title": "Bond Terrace","loc": {"type": "Point","coordinates": [103.847664,1.293]}} 
{"id": "8660324788","server": "8111","farm": "9","userId": "62158995@N08","secret": "fd170e8454","title": "View from MRM office","loc": {"type": "Point","coordinates": [103.84603,1.298807]}} 
{"id": "8655028836","server": "8261","farm": "9","userId": "71141369@N03","secret": "c8a235edd4","title": "Hipsters in attendance adjacent to course venue","loc": {"type": "Point","coordinates": [103.84677,1.298801]}} 
{"id": "8650459937","server": "8528","farm": "9","userId": "89975165@N07","secret": "2c1fbc256b","title": "Chocolate Crème Brûlée.","loc": {"type": "Point","coordinates": [103.83931,1.29583]}} 
{"id": "8648275493","server": "8528","farm": "9","userId": "9334061@N06","secret": "703766156e","title": "Orchard 22","loc": {"type": "Point","coordinates": [103.84764,1.298828]}} 
{"id": "8648275851","server": "8546","farm": "9","userId": "9334061@N06","secret": "d5e0ff02e7","title": "The Cathay","loc": {"type": "Point","coordinates": [103.84769,1.298893]}} 
{"id": "8648572352","server": "8541","farm": "9","userId": "83195865@N08","secret": "ffc60ba09d","title": "Over the Falls","loc": {"type": "Point","coordinates": [103.842964,1.295727]}} 
{"id": "8647470237","server": "8117","farm": "9","userId": "83195865@N08","secret": "c2c9af0486","title": "Red Reflections II","loc": {"type": "Point","coordinates": [103.842964,1.295727]}} 
{"id": "8648567378","server": "8115","farm": "9","userId": "83195865@N08","secret": "7fe5ab9e30","title": "Mirror Image","loc": {"type": "Point","coordinates": [103.84238,1.294741]}} 
{"id": "8648571530","server": "8110","farm": "9","userId": "83195865@N08","secret": "7b8264e299","title": "Red Reflections III","loc": {"type": "Point","coordinates": [103.842964,1.295727]}} 
{"id": "8648568786","server": "8243","farm": "9","userId": "83195865@N08","secret": "4445d60417","title": "Red Reflections I","loc": {"type": "Point","coordinates": [103.842964,1.295727]}} 
{"id": "8648566592","server": "8120","farm": "9","userId": "83195865@N08","secret": "8c31375732","title": "After the Rain I","loc": {"type": "Point","coordinates": [103.84238,1.294741]}} 
{"id": "8647382389","server": "8527","farm": "9","userId": "83195865@N08","secret": "e1e25066a9","title": "Reflecting Reflections","loc": {"type": "Point","coordinates": [103.842964,1.295727]}} 
{"id": "8648407400","server": "8258","farm": "9","userId": "83195865@N08","secret": "c6fedd2e85","title": "Henna Hand","loc": {"type": "Point","coordinates": [103.842545,1.295472]}} 
{"id": "8647307111","server": "8391","farm": "9","userId": "83195865@N08","secret": "fa53d00986","title": "IMG_3213.jpg","loc": {"type": "Point","coordinates": [103.842316,1.29468]}} 
{"id": "8645330865","server": "8405","farm": "9","userId": "51294514@N06","secret": "b4abc111de","title": "The Fallen #androidography #tree","loc": {"type": "Point","coordinates": [103.84642,1.295074]}} 
{"id": "8640697490","server": "8126","farm": "9","userId": "94346589@N03","secret": "cb482b036e","title": "","loc": {"type": "Point","coordinates": [103.847664,1.299]}} 
{"id": "8639529329","server": "8393","farm": "9","userId": "19109134@N00","secret": "2a672b254e","title": "Nice View","loc": {"type": "Point","coordinates": [103.84734,1.295847]}} 
{"id": "8640632164","server": "8399","farm": "9","userId": "19109134@N00","secret": "54a8668f01","title": "Front","loc": {"type": "Point","coordinates": [103.847496,1.295632]}} 
{"id": "8639840624","server": "8116","farm": "9","userId": "51489026@N02","secret": "36b010ab36","title": "The tall and the short","loc": {"type": "Point","coordinates": [103.84764,1.298914]}} 
{"id": "8634075097","server": "8529","farm": "9","userId": "7311038@N03","secret": "694d429f0e","title": "W12 - Connected ...  – Project #13-52","loc": {"type": "Point","coordinates": [103.84806,1.298308]}} 
{"id": "8633744085","server": "8387","farm": "9","userId": "19109134@N00","secret": "7986230547","title": "The Scene","loc": {"type": "Point","coordinates": [103.84758,1.295482]}} 
{"id": "8631113083","server": "8115","farm": "9","userId": "18338366@N00","secret": "b907c2556c","title": "SMRT Buses MAN NL323F (A22)","loc": {"type": "Point","coordinates": [103.847824,1.298201]}} 
{"id": "8627379077","server": "8525","farm": "9","userId": "19109134@N00","secret": "29e208f22c","title": "Disco Lights Laser Beams","loc": {"type": "Point","coordinates": [103.84731,1.295353]}} 
{"id": "8621084021","server": "8380","farm": "9","userId": "42223228@N04","secret": "b3c0c38641","title": "IMGP5064a","loc": {"type": "Point","coordinates": [103.84454,1.29915]}} 
{"id": "8621759052","server": "8535","farm": "9","userId": "19282426@N00","secret": "1eece5ffdd","title": "Cathay Crispy Roasted Chicken","loc": {"type": "Point","coordinates": [103.84766,1.29897]}} 
{"id": "8621336336","server": "8253","farm": "9","userId": "94652033@N05","secret": "df1619daa2","title": "IMG_8135","loc": {"type": "Point","coordinates": [103.84777,1.299204]}} 
{"id": "8609051698","server": "8388","farm": "9","userId": "62806266@N06","secret": "f860a25a49","title": "DSCF7547","loc": {"type": "Point","coordinates": [103.84634,1.294903]}} 
{"id": "8607944637","server": "8106","farm": "9","userId": "62806266@N06","secret": "7ed8c43de0","title": "DSCF7709 copy","loc": {"type": "Point","coordinates": [103.8464,1.294431]}} 
{"id": "8605517407","server": "8533","farm": "9","userId": "67602555@N00","secret": "eb58424ddd","title": "March_Singapore - 15","loc": {"type": "Point","coordinates": [103.84533,1.293]}} 
{"id": "8606623100","server": "8261","farm": "9","userId": "67602555@N00","secret": "8d09a4d1ea","title": "March_Singapore - 18","loc": {"type": "Point","coordinates": [103.84717,1.293]}} 
{"id": "8606011856","server": "8400","farm": "9","userId": "43225758@N03","secret": "cd768b3e84","title": "IMG_0869","loc": {"type": "Point","coordinates": [103.84508,1.297518]}} 
{"id": "8606007050","server": "8393","farm": "9","userId": "43225758@N03","secret": "379a3c8f44","title": "IMG_0733","loc": {"type": "Point","coordinates": [103.84508,1.297518]}} 
{"id": "8606010462","server": "8542","farm": "9","userId": "43225758@N03","secret": "f3b165004d","title": "IMG_0841","loc": {"type": "Point","coordinates": [103.84508,1.297518]}} 
{"id": "8604908069","server": "8534","farm": "9","userId": "43225758@N03","secret": "c222145b75","title": "IMG_0871","loc": {"type": "Point","coordinates": [103.84508,1.297518]}} 
{"id": "8606011388","server": "8261","farm": "9","userId": "43225758@N03","secret": "5293fb0e5f","title": "IMG_0867","loc": {"type": "Point","coordinates": [103.84508,1.297518]}} 
{"id": "8606007428","server": "8519","farm": "9","userId": "43225758@N03","secret": "c11d4d2db9","title": "IMG_0751","loc": {"type": "Point","coordinates": [103.84508,1.297518]}} 
{"id": "8606008130","server": "8522","farm": "9","userId": "43225758@N03","secret": "62710a569c","title": "IMG_0793","loc": {"type": "Point","coordinates": [103.84508,1.297518]}} 
{"id": "8606008658","server": "8248","farm": "9","userId": "43225758@N03","secret": "8ae9db695d","title": "IMG_0810","loc": {"type": "Point","coordinates": [103.84508,1.297518]}} 
{"id": "8606004148","server": "8245","farm": "9","userId": "43225758@N03","secret": "aa40ae07d6","title": "IMG_0667","loc": {"type": "Point","coordinates": [103.84508,1.297518]}} 
{"id": "8605998180","server": "8539","farm": "9","userId": "43225758@N03","secret": "f07c14a6a4","title": "IMG_0445","loc": {"type": "Point","coordinates": [103.84508,1.297518]}} 
{"id": "8604895091","server": "8400","farm": "9","userId": "43225758@N03","secret": "1aca614e6d","title": "IMG_0461","loc": {"type": "Point","coordinates": [103.84508,1.297518]}} 
{"id": "8604894023","server": "8387","farm": "9","userId": "43225758@N03","secret": "612b8b360b","title": "IMG_0446","loc": {"type": "Point","coordinates": [103.84508,1.297518]}} 
{"id": "8606003696","server": "8381","farm": "9","userId": "43225758@N03","secret": "d709b318eb","title": "IMG_0650","loc": {"type": "Point","coordinates": [103.84508,1.297518]}} 
{"id": "8604896817","server": "8544","farm": "9","userId": "43225758@N03","secret": "a66b772f37","title": "IMG_0527","loc": {"type": "Point","coordinates": [103.84508,1.297518]}} 
{"id": "8604897865","server": "8534","farm": "9","userId": "43225758@N03","secret": "017bf4574a","title": "IMG_0597","loc": {"type": "Point","coordinates": [103.84508,1.297518]}} 
{"id": "8605997310","server": "8241","farm": "9","userId": "43225758@N03","secret": "9cb9075524","title": "IMG_0432","loc": {"type": "Point","coordinates": [103.84508,1.297518]}} 
{"id": "8606009154","server": "8528","farm": "9","userId": "43225758@N03","secret": "c78b099d77","title": "IMG_0812","loc": {"type": "Point","coordinates": [103.84508,1.297518]}} 
{"id": "8606006268","server": "8531","farm": "9","userId": "43225758@N03","secret": "bd4ede7613","title": "IMG_0720","loc": {"type": "Point","coordinates": [103.84508,1.297518]}} 
{"id": "8604893177","server": "8526","farm": "9","userId": "43225758@N03","secret": "4262c6b341","title": "IMG_0438","loc": {"type": "Point","coordinates": [103.84508,1.297518]}} 
{"id": "8606009610","server": "8264","farm": "9","userId": "43225758@N03","secret": "c72fdc1c32","title": "IMG_0819","loc": {"type": "Point","coordinates": [103.84508,1.297518]}} 
{"id": "8604897201","server": "8253","farm": "9","userId": "43225758@N03","secret": "79d1cd1759","title": "IMG_0551","loc": {"type": "Point","coordinates": [103.84508,1.297518]}} 
{"id": "8606006648","server": "8122","farm": "9","userId": "43225758@N03","secret": "562b3f17f6","title": "IMG_0722","loc": {"type": "Point","coordinates": [103.84508,1.297518]}} 
{"id": "8604900243","server": "8380","farm": "9","userId": "43225758@N03","secret": "9bd9166b25","title": "IMG_0687","loc": {"type": "Point","coordinates": [103.84508,1.297518]}} 
{"id": "8606003284","server": "8240","farm": "9","userId": "43225758@N03","secret": "50161a9558","title": "IMG_0646","loc": {"type": "Point","coordinates": [103.84508,1.297518]}} 
{"id": "8605999784","server": "8251","farm": "9","userId": "43225758@N03","secret": "12ac17620f","title": "IMG_0469","loc": {"type": "Point","coordinates": [103.84508,1.297518]}} 
{"id": "8605998848","server": "8109","farm": "9","userId": "43225758@N03","secret": "0798099483","title": "IMG_0447","loc": {"type": "Point","coordinates": [103.84508,1.297518]}} 
{"id": "8606005494","server": "8405","farm": "9","userId": "43225758@N03","secret": "4f90159cfe","title": "IMG_0712","loc": {"type": "Point","coordinates": [103.84508,1.297518]}} 
{"id": "8604898667","server": "8393","farm": "9","userId": "43225758@N03","secret": "4b8a0335fd","title": "IMG_0639","loc": {"type": "Point","coordinates": [103.84508,1.297518]}} 
{"id": "8604894779","server": "8526","farm": "9","userId": "43225758@N03","secret": "44b452a0d5","title": "IMG_0457","loc": {"type": "Point","coordinates": [103.84508,1.297518]}} 
{"id": "8606008398","server": "8542","farm": "9","userId": "43225758@N03","secret": "9876552c74","title": "IMG_0794","loc": {"type": "Point","coordinates": [103.84508,1.297518]}} 
{"id": "8606004854","server": "8112","farm": "9","userId": "43225758@N03","secret": "85d63bd20d","title": "IMG_0707","loc": {"type": "Point","coordinates": [103.84508,1.297518]}} 
{"id": "8606007702","server": "8243","farm": "9","userId": "43225758@N03","secret": "6899762f43","title": "IMG_0699b","loc": {"type": "Point","coordinates": [103.84508,1.297518]}} 
{"id": "8606001902","server": "8261","farm": "9","userId": "43225758@N03","secret": "3e6caa77ab","title": "IMG_0566","loc": {"type": "Point","coordinates": [103.84508,1.297518]}} 
{"id": "8606002714","server": "8526","farm": "9","userId": "43225758@N03","secret": "dba75fd410","title": "IMG_0632","loc": {"type": "Point","coordinates": [103.84508,1.297518]}} 
{"id": "8604895809","server": "8533","farm": "9","userId": "43225758@N03","secret": "7b66fec424","title": "IMG_0470","loc": {"type": "Point","coordinates": [103.84508,1.297518]}} 
{"id": "8604896181","server": "8545","farm": "9","userId": "43225758@N03","secret": "87447b843f","title": "IMG_0491","loc": {"type": "Point","coordinates": [103.84508,1.297518]}} 
{"id": "8604893445","server": "8265","farm": "9","userId": "43225758@N03","secret": "e625436ef9","title": "IMG_0442","loc": {"type": "Point","coordinates": [103.84508,1.297518]}} 
{"id": "8606005956","server": "8394","farm": "9","userId": "43225758@N03","secret": "4a5015a1be","title": "IMG_0715","loc": {"type": "Point","coordinates": [103.84508,1.297518]}} 
{"id": "8605822556","server": "8529","farm": "9","userId": "94512171@N00","secret": "de4050fa3a","title": "Visibility is low. Cool change is always welcomed. #singapore #sg #igsg #instasg","loc": {"type": "Point","coordinates": [103.83902,1.293796]}} 
{"id": "8604667645","server": "8541","farm": "9","userId": "28261482@N05","secret": "b09e9c7e60","title": "Drinking time...","loc": {"type": "Point","coordinates": [103.84594,1.298582]}} 
{"id": "8599712636","server": "8247","farm": "9","userId": "69921557@N00","secret": "b65c5deec5","title": "I am told that our body registers all the sensory input which gets filed away in dreams at night. And yet we can only recall one memory at a time, and there is so much we don't even know we knew. How those drinks line up behind the kids chit chatting in f","loc": {"type": "Point","coordinates": [103.83931,1.29583]}} 
{"id": "8591785425","server": "8510","farm": "9","userId": "38662956@N00","secret": "babbbace7c","title": "Bloc Party","loc": {"type": "Point","coordinates": [103.84642,1.295074]}} 
{"id": "8590962265","server": "8517","farm": "9","userId": "51489026@N02","secret": "c6293249f1","title": "The green tea ice cream and the gourmand Lady with her lemon top","loc": {"type": "Point","coordinates": [103.84089,1.292457]}} 
{"id": "8584329195","server": "8520","farm": "9","userId": "7310714@N06","secret": "a417c3b97a","title": "","loc": {"type": "Point","coordinates": [103.84533,1.293166]}} 
{"id": "8585430700","server": "8089","farm": "9","userId": "7310714@N06","secret": "f18b82e9ca","title": "","loc": {"type": "Point","coordinates": [103.84533,1.293166]}} 
{"id": "8582490423","server": "8380","farm": "9","userId": "7151283@N05","secret": "32ae949384","title": "Hakata Motsu nabe","loc": {"type": "Point","coordinates": [103.84483,1.293499]}} 
{"id": "8581506861","server": "8371","farm": "9","userId": "22304304@N06","secret": "958a93a2fd","title": "Five foot walkway","loc": {"type": "Point","coordinates": [103.84643,1.299]}} 
{"id": "8582609576","server": "8517","farm": "9","userId": "22304304@N06","secret": "93ac5237c4","title": "Off to dinner","loc": {"type": "Point","coordinates": [103.84705,1.298828]}} 
{"id": "8582120796","server": "8522","farm": "9","userId": "91405201@N04","secret": "c63990f0aa","title": "","loc": {"type": "Point","coordinates": [103.838165,1.293166]}} 
{"id": "8582040636","server": "8240","farm": "9","userId": "58902274@N05","secret": "fa8e1c4f37","title": "Craving for red velvet!","loc": {"type": "Point","coordinates": [103.83921,1.295853]}} 
{"id": "8580180413","server": "8096","farm": "9","userId": "22304304@N06","secret": "c90f90c0b6","title": "Cathay","loc": {"type": "Point","coordinates": [103.84786,1.298936]}} 
{"id": "8580459244","server": "8251","farm": "9","userId": "24989432@N06","secret": "db88525cbc","title": "Presenting the #rockandroots AM class of 2013.... The Next Generation \m/ Thanks guys. It has indeed been an honor & privilege :)","loc": {"type": "Point","coordinates": [103.847466,1.295539]}} 
{"id": "8578174814","server": "8230","farm": "9","userId": "94273448@N06","secret": "183c639bc4","title": "Pickle","loc": {"type": "Point","coordinates": [103.83826,1.298449]}} 
{"id": "8576790503","server": "8105","farm": "9","userId": "28261482@N05","secret": "db1963d997","title": "Rock & roots","loc": {"type": "Point","coordinates": [103.847466,1.295539]}} 
{"id": "8576266537","server": "8517","farm": "9","userId": "28261482@N05","secret": "1703b77cf6","title": "Another Pear cider woohoo","loc": {"type": "Point","coordinates": [103.84437,1.297768]}} 
{"id": "8569229633","server": "8368","farm": "9","userId": "16105436@N00","secret": "e581489cdd","title": "2013-03-18_17.04.22","loc": {"type": "Point","coordinates": [103.84316,1.299]}} 
{"id": "8570325954","server": "8388","farm": "9","userId": "16105436@N00","secret": "0e31e08d80","title": "View from the Printer innovation center","loc": {"type": "Point","coordinates": [103.84316,1.299]}} 
{"id": "8570328638","server": "8521","farm": "9","userId": "16105436@N00","secret": "488f2cdd85","title": "Testing the printer= API","loc": {"type": "Point","coordinates": [103.84316,1.299]}} 
{"id": "8569230637","server": "8507","farm": "9","userId": "16105436@N00","secret": "3d5c286a6e","title": "Aficio SP 4310N","loc": {"type": "Point","coordinates": [103.84316,1.299]}} 
{"id": "8570326818","server": "8231","farm": "9","userId": "16105436@N00","secret": "38b78fd5ab","title": "2013-03-18_17.04.14","loc": {"type": "Point","coordinates": [103.84316,1.299]}} 
{"id": "8570326510","server": "8378","farm": "9","userId": "16105436@N00","secret": "13fddca858","title": "Webconverger & Ricoh","loc": {"type": "Point","coordinates": [103.84316,1.299]}} 
{"id": "8563587767","server": "8518","farm": "9","userId": "42223228@N04","secret": "2b6a11953f","title": "IMGP4553a","loc": {"type": "Point","coordinates": [103.84613,1.298764]}} 
{"id": "8563573671","server": "8232","farm": "9","userId": "42223228@N04","secret": "d6716c140d","title": "IMGP4541a","loc": {"type": "Point","coordinates": [103.846176,1.298743]}} 
{"id": "8560966463","server": "8531","farm": "9","userId": "26007569@N03","secret": "8325bcf07b","title": "Badminton uli with @noinee @darkwhiteknight @jpgvalenzuela @billybasco","loc": {"type": "Point","coordinates": [103.84743,1.298721]}} 
{"id": "8544683625","server": "8250","farm": "9","userId": "67851013@N02","secret": "ac87ee972f","title": "#Food heals the #world 08/03/13.","loc": {"type": "Point","coordinates": [103.83914,1.298857]}} 
{"id": "8544675927","server": "8228","farm": "9","userId": "67851013@N02","secret": "23e927a03d","title": "#Food heals the #world 08/03/13.","loc": {"type": "Point","coordinates": [103.83914,1.298857]}} 
{"id": "8544627709","server": "8108","farm": "9","userId": "67851013@N02","secret": "21d80b98f6","title": "#Food heals the #world 08/03/13.","loc": {"type": "Point","coordinates": [103.83914,1.298857]}} 
{"id": "8543024775","server": "8092","farm": "9","userId": "69379954@N08","secret": "d3459631d6","title": "Mango","loc": {"type": "Point","coordinates": [103.84526,1.292662]}} 
{"id": "8542941197","server": "8384","farm": "9","userId": "67851013@N02","secret": "1b89fdebf5","title": "#Food heals the #world 08/03/13.","loc": {"type": "Point","coordinates": [103.83914,1.298857]}} 
{"id": "8533882668","server": "8509","farm": "9","userId": "27686425@N06","secret": "afe211c86c","title": "Yellow-Vented Bulbuls","loc": {"type": "Point","coordinates": [103.84516,1.296511]}} 
{"id": "8533884816","server": "8095","farm": "9","userId": "27686425@N06","secret": "e004960de0","title": "Wedding Roses","loc": {"type": "Point","coordinates": [103.84517,1.296169]}} 
{"id": "8533880356","server": "8517","farm": "9","userId": "27686425@N06","secret": "6627bba55f","title": "Hotel Swimming","loc": {"type": "Point","coordinates": [103.84515,1.295613]}} 
{"id": "8533484548","server": "8103","farm": "9","userId": "89975165@N07","secret": "31bbec98e5","title": "Crabmeat Linguine for brunch with momma.","loc": {"type": "Point","coordinates": [103.84587,1.298084]}} 
{"id": "8530626131","server": "8232","farm": "9","userId": "63283397@N08","secret": "0458f3bed2","title": "Mentaiko pasta","loc": {"type": "Point","coordinates": [103.83931,1.29583]}} 
{"id": "8530617281","server": "8510","farm": "9","userId": "63283397@N08","secret": "06ce7628f4","title": "Strawberry meringue dessert","loc": {"type": "Point","coordinates": [103.83931,1.29583]}} 
{"id": "8527751740","server": "8391","farm": "9","userId": "92593934@N04","secret": "8bf317f859","title": "Revisited - Chicken & The Sea","loc": {"type": "Point","coordinates": [103.84206,1.293754]}} 
{"id": "8521425344","server": "8519","farm": "9","userId": "51294514@N06","secret": "1234ba4903","title": "Retired POPE-YES!!! #androidography #popeyes #food","loc": {"type": "Point","coordinates": [103.84769,1.29896]}} 
{"id": "8502159678","server": "8519","farm": "9","userId": "83195865@N08","secret": "8b48e689dc","title": "_MG_0053-Edit-2.jpg","loc": {"type": "Point","coordinates": [103.842445,1.292666]}} 
{"id": "8500380116","server": "8244","farm": "9","userId": "89432759@N02","secret": "dd19826199","title": "Wonton Wonder by Jenifir","loc": {"type": "Point","coordinates": [103.84033,1.293666]}} 
{"id": "8487612223","server": "8527","farm": "9","userId": "92391615@N06","secret": "384ab315f6","title": "20 Century Singapore! lol","loc": {"type": "Point","coordinates": [103.84529,1.29344]}} 
{"id": "8472585890","server": "8234","farm": "9","userId": "19454593@N00","secret": "78b16059b1","title": "Fort Canning Reservior","loc": {"type": "Point","coordinates": [103.84709,1.293555]}} 
{"id": "8472585476","server": "8529","farm": "9","userId": "19454593@N00","secret": "0b625d6717","title": "","loc": {"type": "Point","coordinates": [103.84685,1.294261]}} 
{"id": "8471489171","server": "8237","farm": "9","userId": "19454593@N00","secret": "b8420036b6","title": "","loc": {"type": "Point","coordinates": [103.84636,1.296633]}} 
{"id": "8471489927","server": "8236","farm": "9","userId": "19454593@N00","secret": "6d62e2c900","title": "Hotel Fort Canning","loc": {"type": "Point","coordinates": [103.845375,1.296086]}} 
{"id": "8472580442","server": "8235","farm": "9","userId": "19454593@N00","secret": "873e067198","title": "National Museum of Singapore","loc": {"type": "Point","coordinates": [103.847885,1.296555]}} 
{"id": "8471487237","server": "8109","farm": "9","userId": "19454593@N00","secret": "205c78e943","title": "","loc": {"type": "Point","coordinates": [103.84744,1.296316]}} 
{"id": "8472584980","server": "8390","farm": "9","userId": "19454593@N00","secret": "d677f97a06","title": "Fort Canning Centre","loc": {"type": "Point","coordinates": [103.846886,1.295066]}} 
{"id": "8469835245","server": "8367","farm": "9","userId": "10757800@N00","secret": "1aabeb0d1a","title": "Don't photograph me! | Singapore","loc": {"type": "Point","coordinates": [103.84085,1.294645]}} 
{"id": "8470646500","server": "8108","farm": "9","userId": "14385475@N05","secret": "6333dd6a6e","title": "IMG_2670","loc": {"type": "Point","coordinates": [103.8475,1.299]}} 
{"id": "8470646036","server": "8520","farm": "9","userId": "14385475@N05","secret": "d16cfa4157","title": "IMG_2669","loc": {"type": "Point","coordinates": [103.847664,1.299]}} 
{"id": "8467079113","server": "8516","farm": "9","userId": "94512171@N00","secret": "4c037c97ab","title": "First visit since Lunar New Year. Stocking up the pantry!","loc": {"type": "Point","coordinates": [103.83848,1.297477]}} 
{"id": "8462228110","server": "8247","farm": "9","userId": "37357556@N00","secret": "2107c653b2","title": "Crossing","loc": {"type": "Point","coordinates": [103.84346,1.293187]}} 
{"id": "8460922140","server": "8097","farm": "9","userId": "97478728@N00","secret": "360da33192","title": "hello stranger","loc": {"type": "Point","coordinates": [103.845474,1.298689]}} 
{"id": "8459823825","server": "8239","farm": "9","userId": "97478728@N00","secret": "45a14a446f","title": "upload","loc": {"type": "Point","coordinates": [103.845474,1.298689]}} 
{"id": "8460898006","server": "8248","farm": "9","userId": "97478728@N00","secret": "89cb63a9c1","title": "The hamster thinks its cauliflower.","loc": {"type": "Point","coordinates": [103.845474,1.298689]}} 
{"id": "8460875236","server": "8232","farm": "9","userId": "97478728@N00","secret": "6893967a5c","title": "upload","loc": {"type": "Point","coordinates": [103.845474,1.298689]}} 
{"id": "8460859676","server": "8105","farm": "9","userId": "97478728@N00","secret": "657b4b2907","title": "upload","loc": {"type": "Point","coordinates": [103.845474,1.298689]}} 
{"id": "8460843282","server": "8226","farm": "9","userId": "97478728@N00","secret": "4133c81d7c","title": "#kaleidacam tiles in sam","loc": {"type": "Point","coordinates": [103.845474,1.298689]}} 
{"id": "8459735943","server": "8512","farm": "9","userId": "97478728@N00","secret": "a6009249dd","title": "upload","loc": {"type": "Point","coordinates": [103.845474,1.298689]}} 
{"id": "8460839456","server": "8227","farm": "9","userId": "97478728@N00","secret": "9a8b783875","title": "Art auntie.","loc": {"type": "Point","coordinates": [103.845474,1.298689]}} 
{"id": "8460833208","server": "8233","farm": "9","userId": "97478728@N00","secret": "0e35652b3f","title": "Crushed.","loc": {"type": "Point","coordinates": [103.845474,1.298689]}} 
{"id": "8458067182","server": "8087","farm": "9","userId": "23436061@N00","secret": "4952529920","title": "Spicy #indonesian #rice #beefrendang #chicken #egg #bananaleaf #foodporn","loc": {"type": "Point","coordinates": [103.83905,1.299096]}} 
{"id": "8450263280","server": "8088","farm": "9","userId": "8857720@N08","secret": "216e488d1f","title": "Thaipusam 2013 #25","loc": {"type": "Point","coordinates": [103.84306,1.29413]}} 
{"id": "8449178993","server": "8353","farm": "9","userId": "8857720@N08","secret": "a829d5baa6","title": "Thaipusam 2013 #27 - Vel Kavadi","loc": {"type": "Point","coordinates": [103.84306,1.29413]}} 
{"id": "8449178531","server": "8235","farm": "9","userId": "8857720@N08","secret": "4d296301c1","title": "Thaipusam 2013 #24 - Happier","loc": {"type": "Point","coordinates": [103.84306,1.29413]}} 
{"id": "8449178799","server": "8186","farm": "9","userId": "8857720@N08","secret": "12f8151448","title": "Thaipusam 2013 #26","loc": {"type": "Point","coordinates": [103.84306,1.29413]}} 
{"id": "8446698019","server": "8507","farm": "9","userId": "94459908@N00","secret": "f1d76e73c3","title": "Fort Canning Park-96","loc": {"type": "Point","coordinates": [103.84625,1.295546]}} 
{"id": "8446712965","server": "8515","farm": "9","userId": "94459908@N00","secret": "43afb7b890","title": "Fort Canning Park-8","loc": {"type": "Point","coordinates": [103.84625,1.295546]}} 
{"id": "8446699257","server": "8048","farm": "9","userId": "94459908@N00","secret": "a761fb63b8","title": "Fort Canning Park-95","loc": {"type": "Point","coordinates": [103.84625,1.295546]}} 
{"id": "8447785096","server": "8228","farm": "9","userId": "94459908@N00","secret": "82395ea743","title": "Graduation","loc": {"type": "Point","coordinates": [103.84625,1.295546]}} 
{"id": "8446707975","server": "8193","farm": "9","userId": "94459908@N00","secret": "ede67f2560","title": "Fort Canning Park-45","loc": {"type": "Point","coordinates": [103.84625,1.295546]}} 
{"id": "8447797920","server": "8097","farm": "9","userId": "94459908@N00","secret": "9d652c9e5a","title": "Solitude","loc": {"type": "Point","coordinates": [103.84625,1.295546]}} 
{"id": "8447793398","server": "8086","farm": "9","userId": "94459908@N00","secret": "e19ba3b0bc","title": "Fort Canning Park-71","loc": {"type": "Point","coordinates": [103.84625,1.295546]}} 
{"id": "8446715617","server": "8211","farm": "9","userId": "94459908@N00","secret": "0a2dde7dde","title": "Fort Canning Park-3","loc": {"type": "Point","coordinates": [103.84625,1.295546]}} 
{"id": "8446696535","server": "8094","farm": "9","userId": "94459908@N00","secret": "28e1322c3b","title": "Fort Canning Park-98","loc": {"type": "Point","coordinates": [103.84625,1.295546]}} 
{"id": "8446700767","server": "8213","farm": "9","userId": "94459908@N00","secret": "8f5c2fd1d3","title": "Fort Canning Park-90","loc": {"type": "Point","coordinates": [103.84625,1.295546]}} 
{"id": "8446703211","server": "8049","farm": "9","userId": "94459908@N00","secret": "f7c5403a07","title": "Fort Canning Park-75","loc": {"type": "Point","coordinates": [103.84625,1.295546]}} 
{"id": "8446708295","server": "8217","farm": "9","userId": "94459908@N00","secret": "d0fb9bce1a","title": "Fort Canning Park-36","loc": {"type": "Point","coordinates": [103.84625,1.295546]}} 
{"id": "8447795304","server": "8089","farm": "9","userId": "94459908@N00","secret": "3db385207c","title": "Fort Canning Park-63And4more_tonemapped-2","loc": {"type": "Point","coordinates": [103.84625,1.295546]}} 
{"id": "8446711167","server": "8095","farm": "9","userId": "94459908@N00","secret": "ffabe78a69","title": "Fort Canning Park-12","loc": {"type": "Point","coordinates": [103.84625,1.295546]}} 
{"id": "8447792584","server": "8052","farm": "9","userId": "94459908@N00","secret": "af2d6d710f","title": "Fort Canning Park-73","loc": {"type": "Point","coordinates": [103.84625,1.295546]}} 
{"id": "8447790236","server": "8371","farm": "9","userId": "94459908@N00","secret": "e76ab0e445","title": "Fort Canning Park-76","loc": {"type": "Point","coordinates": [103.84625,1.295546]}} 
{"id": "8446716543","server": "8504","farm": "9","userId": "94459908@N00","secret": "df45df3538","title": "Fort Canning Park-1","loc": {"type": "Point","coordinates": [103.84625,1.295546]}} 
{"id": "8445593839","server": "8189","farm": "9","userId": "62158995@N08","secret": "cd839de621","title": "Good morning!","loc": {"type": "Point","coordinates": [103.84602,1.29911]}} 
{"id": "8444704314","server": "8093","farm": "9","userId": "46275416@N04","secret": "cb8052db7d","title": "Fort Canning Centre","loc": {"type": "Point","coordinates": [103.84715,1.295353]}} 
{"id": "8443797884","server": "8361","farm": "9","userId": "92593934@N04","secret": "0275753534","title": "Have you had your cuppa today?","loc": {"type": "Point","coordinates": [103.84206,1.293754]}} 
{"id": "8440799546","server": "8211","farm": "9","userId": "9544998@N04","secret": "77b4773016","title": "The cure for waiting is to have a cup of good coffee..","loc": {"type": "Point","coordinates": [103.845406,1.297949]}} 
{"id": "8440658132","server": "8196","farm": "9","userId": "8857720@N08","secret": "70fae8347c","title": "Thapusam 2013 #22","loc": {"type": "Point","coordinates": [103.84306,1.29413]}} 
{"id": "8440658312","server": "8514","farm": "9","userId": "8857720@N08","secret": "6f6251075e","title": "Thapusam 2013 #23","loc": {"type": "Point","coordinates": [103.84306,1.29413]}} 
{"id": "8439566533","server": "8056","farm": "9","userId": "8857720@N08","secret": "539f43e9e9","title": "Thapusam 2013 #19","loc": {"type": "Point","coordinates": [103.84306,1.29413]}} 
{"id": "8440657938","server": "8216","farm": "9","userId": "8857720@N08","secret": "d9004d2c6b","title": "Thapusam 2013 #21","loc": {"type": "Point","coordinates": [103.84306,1.29413]}} 
{"id": "8439566799","server": "8050","farm": "9","userId": "8857720@N08","secret": "3b39329ae2","title": "Thapusam 2013 #20","loc": {"type": "Point","coordinates": [103.84306,1.29413]}} 
{"id": "8438734792","server": "8364","farm": "9","userId": "74855524@N00","secret": "3e236e101f","title": "","loc": {"type": "Point","coordinates": [103.848,1.2925]}} 
{"id": "8437647023","server": "8187","farm": "9","userId": "74855524@N00","secret": "d3c2f28b82","title": "","loc": {"type": "Point","coordinates": [103.84717,1.294166]}} 
{"id": "8437643881","server": "8356","farm": "9","userId": "74855524@N00","secret": "75e38a2fd9","title": "","loc": {"type": "Point","coordinates": [103.84634,1.296166]}} 
