{"id": "8396780655","server": "8212","farm": "9","userId": "62528795@N05","secret": "5245b27d9f","title": "Blogged. http://whyshetravels.wordpress.com","loc": {"type": "Point","coordinates": [103.77238,1.383575]}} 
{"id": "9228649462","server": "7340","farm": "8","userId": "27629197@N03","secret": "4830925a97","title": "Galaxy S4 LTE","loc": {"type": "Point","coordinates": [103.77152,1.383831]}} 
{"id": "9217330191","server": "7359","farm": "8","userId": "27629197@N03","secret": "1ca04678a4","title": "Morning view from a high level apartment","loc": {"type": "Point","coordinates": [103.771996,1.383788]}} 
{"id": "9125672280","server": "3826","farm": "4","userId": "62528795@N05","secret": "2a5acc9c72","title": "Just chilling in my room after a day of snorkeling in Maldives & waiting for the rain to pass.","loc": {"type": "Point","coordinates": [103.77342,1.383575]}} 
{"id": "9086594184","server": "5523","farm": "6","userId": "62528795@N05","secret": "70788c8d7d","title": "I hope it's safe to sleep tonight. Stay safe Sumatra. I miss you, your satay & the people. You're definitely a beauty <3","loc": {"type": "Point","coordinates": [103.77313,1.383575]}} 
{"id": "9056600180","server": "7372","farm": "8","userId": "27629197@N03","secret": "31c81b4887","title": "New HDB's BTO Housing","loc": {"type": "Point","coordinates": [103.77152,1.388121]}} 
{"id": "9033601706","server": "7398","farm": "8","userId": "62528795@N05","secret": "d3bf8a796d","title": "Shall i plan for a second trip? Another atoll perhaps.","loc": {"type": "Point","coordinates": [103.77342,1.383575]}} 
{"id": "8733137825","server": "7305","farm": "8","userId": "77557991@N07","secret": "49d051e744","title": "DSC02611","loc": {"type": "Point","coordinates": [103.771706,1.382372]}} 
{"id": "8734253048","server": "7321","farm": "8","userId": "77557991@N07","secret": "e2f2bde7b9","title": "DSC02620","loc": {"type": "Point","coordinates": [103.771706,1.382372]}} 
{"id": "8734253826","server": "7311","farm": "8","userId": "77557991@N07","secret": "1303a6678e","title": "DSC02613","loc": {"type": "Point","coordinates": [103.771706,1.382372]}} 
{"id": "8733129525","server": "7313","farm": "8","userId": "77557991@N07","secret": "de1eb2416c","title": "DSC02698","loc": {"type": "Point","coordinates": [103.771706,1.382372]}} 
{"id": "8734258590","server": "7314","farm": "8","userId": "77557991@N07","secret": "c14284278e","title": "DSC02585","loc": {"type": "Point","coordinates": [103.771706,1.382372]}} 
{"id": "8733136079","server": "7314","farm": "8","userId": "77557991@N07","secret": "e61b7ca6a5","title": "DSC02626","loc": {"type": "Point","coordinates": [103.771706,1.382372]}} 
{"id": "8734246650","server": "7300","farm": "8","userId": "77557991@N07","secret": "9144aca086","title": "DSC02696","loc": {"type": "Point","coordinates": [103.771706,1.382372]}} 
{"id": "8734259620","server": "7325","farm": "8","userId": "77557991@N07","secret": "02afe8983e","title": "DSC02577","loc": {"type": "Point","coordinates": [103.771706,1.382372]}} 
{"id": "8734255622","server": "7285","farm": "8","userId": "77557991@N07","secret": "3978afb1d1","title": "DSC02601","loc": {"type": "Point","coordinates": [103.771706,1.382372]}} 
{"id": "8733132385","server": "7310","farm": "8","userId": "77557991@N07","secret": "d0bf8fb3eb","title": "DSC02668","loc": {"type": "Point","coordinates": [103.771706,1.382372]}} 
{"id": "8733132517","server": "7295","farm": "8","userId": "77557991@N07","secret": "a1f848339c","title": "DSC02664","loc": {"type": "Point","coordinates": [103.771706,1.382372]}} 
{"id": "8733140173","server": "7298","farm": "8","userId": "77557991@N07","secret": "e06e6ce31d","title": "DSC02593","loc": {"type": "Point","coordinates": [103.771706,1.382372]}} 
{"id": "8733132263","server": "7301","farm": "8","userId": "77557991@N07","secret": "b5e63cc443","title": "DSC02669","loc": {"type": "Point","coordinates": [103.771706,1.382372]}} 
{"id": "8734252382","server": "7294","farm": "8","userId": "77557991@N07","secret": "25c7cbf81f","title": "DSC02628","loc": {"type": "Point","coordinates": [103.771706,1.382372]}} 
{"id": "8733143915","server": "7298","farm": "8","userId": "77557991@N07","secret": "aefc2197d5","title": "DSC02573","loc": {"type": "Point","coordinates": [103.771706,1.382372]}} 
{"id": "8733144121","server": "7310","farm": "8","userId": "77557991@N07","secret": "864581050e","title": "DSC02572","loc": {"type": "Point","coordinates": [103.771706,1.382372]}} 
{"id": "8733134807","server": "7281","farm": "8","userId": "77557991@N07","secret": "4e67959f86","title": "DSC02638","loc": {"type": "Point","coordinates": [103.771706,1.382372]}} 
{"id": "8733130531","server": "7322","farm": "8","userId": "77557991@N07","secret": "b8e1b8ae16","title": "DSC02691","loc": {"type": "Point","coordinates": [103.771706,1.382372]}} 
{"id": "8734258250","server": "7295","farm": "8","userId": "77557991@N07","secret": "45ffd01a97","title": "DSC02586","loc": {"type": "Point","coordinates": [103.771706,1.382372]}} 
{"id": "8734253236","server": "7324","farm": "8","userId": "77557991@N07","secret": "aed090b51f","title": "DSC02617","loc": {"type": "Point","coordinates": [103.771706,1.382372]}} 
{"id": "8733145447","server": "7305","farm": "8","userId": "77557991@N07","secret": "5e2f696073","title": "DSC02560","loc": {"type": "Point","coordinates": [103.771706,1.382372]}} 
{"id": "8733138299","server": "7314","farm": "8","userId": "77557991@N07","secret": "733a07f41a","title": "DSC02609","loc": {"type": "Point","coordinates": [103.771706,1.382372]}} 
{"id": "8734258958","server": "7314","farm": "8","userId": "77557991@N07","secret": "0b3e9958bb","title": "DSC02582","loc": {"type": "Point","coordinates": [103.771706,1.382372]}} 
{"id": "8734264256","server": "7282","farm": "8","userId": "77557991@N07","secret": "21b72ef49d","title": "DSC02543","loc": {"type": "Point","coordinates": [103.771706,1.382372]}} 
{"id": "8733135567","server": "7308","farm": "8","userId": "77557991@N07","secret": "3bfef57444","title": "DSC02629","loc": {"type": "Point","coordinates": [103.771706,1.382372]}} 
{"id": "8734244294","server": "7300","farm": "8","userId": "77557991@N07","secret": "93b2529879","title": "DSC02714","loc": {"type": "Point","coordinates": [103.771706,1.382372]}} 
{"id": "8733148669","server": "7284","farm": "8","userId": "77557991@N07","secret": "8db4870e5f","title": "DSC02534","loc": {"type": "Point","coordinates": [103.771706,1.382372]}} 
{"id": "8733139805","server": "7289","farm": "8","userId": "77557991@N07","secret": "9128caf97e","title": "DSC02594","loc": {"type": "Point","coordinates": [103.771706,1.382372]}} 
{"id": "8733132655","server": "7294","farm": "8","userId": "77557991@N07","secret": "377c9904d4","title": "DSC02662","loc": {"type": "Point","coordinates": [103.771706,1.382372]}} 
{"id": "8733147687","server": "7283","farm": "8","userId": "77557991@N07","secret": "edb66d2abe","title": "DSC02544","loc": {"type": "Point","coordinates": [103.771706,1.382372]}} 
{"id": "8734257674","server": "7303","farm": "8","userId": "77557991@N07","secret": "87279aac7d","title": "DSC02588","loc": {"type": "Point","coordinates": [103.771706,1.382372]}} 
{"id": "8733134215","server": "7299","farm": "8","userId": "77557991@N07","secret": "3f9573292d","title": "DSC02643","loc": {"type": "Point","coordinates": [103.771706,1.382372]}} 
{"id": "8734248344","server": "7291","farm": "8","userId": "77557991@N07","secret": "3a24ec9992","title": "DSC02680","loc": {"type": "Point","coordinates": [103.771706,1.382372]}} 
{"id": "8733146101","server": "7293","farm": "8","userId": "77557991@N07","secret": "ec5e405f6f","title": "DSC02557","loc": {"type": "Point","coordinates": [103.771706,1.382372]}} 
{"id": "8734263378","server": "7289","farm": "8","userId": "77557991@N07","secret": "586c5b4304","title": "DSC02551","loc": {"type": "Point","coordinates": [103.771706,1.382372]}} 
{"id": "8733139261","server": "7291","farm": "8","userId": "77557991@N07","secret": "2a2bd3eecf","title": "DSC02600","loc": {"type": "Point","coordinates": [103.771706,1.382372]}} 
{"id": "8734245128","server": "7281","farm": "8","userId": "77557991@N07","secret": "98979a092f","title": "DSC02707","loc": {"type": "Point","coordinates": [103.771706,1.382372]}} 
{"id": "8733141253","server": "7282","farm": "8","userId": "77557991@N07","secret": "49f7ac1d11","title": "DSC02587","loc": {"type": "Point","coordinates": [103.771706,1.382372]}} 
{"id": "8733148375","server": "7283","farm": "8","userId": "77557991@N07","secret": "e9130f24c9","title": "DSC02539","loc": {"type": "Point","coordinates": [103.771706,1.382372]}} 
{"id": "8733144707","server": "7295","farm": "8","userId": "77557991@N07","secret": "111493f7b2","title": "DSC02569","loc": {"type": "Point","coordinates": [103.771706,1.382372]}} 
{"id": "8733133045","server": "7309","farm": "8","userId": "77557991@N07","secret": "aec8493069","title": "DSC02658","loc": {"type": "Point","coordinates": [103.771706,1.382372]}} 
{"id": "8734251808","server": "7281","farm": "8","userId": "77557991@N07","secret": "b44d819db9","title": "DSC02631","loc": {"type": "Point","coordinates": [103.771706,1.382372]}} 
{"id": "8733146771","server": "7291","farm": "8","userId": "77557991@N07","secret": "52d0af353b","title": "DSC02552","loc": {"type": "Point","coordinates": [103.771706,1.382372]}} 
{"id": "8734253552","server": "7301","farm": "8","userId": "77557991@N07","secret": "7b4d86d15e","title": "DSC02615","loc": {"type": "Point","coordinates": [103.771706,1.382372]}} 
{"id": "8734250550","server": "7287","farm": "8","userId": "77557991@N07","secret": "2f4f76ce95","title": "DSC02647","loc": {"type": "Point","coordinates": [103.771706,1.382372]}} 
{"id": "8734244238","server": "7313","farm": "8","userId": "77557991@N07","secret": "131a0a65e8","title": "DSC02716","loc": {"type": "Point","coordinates": [103.771706,1.382372]}} 
{"id": "8734258728","server": "7313","farm": "8","userId": "77557991@N07","secret": "1f39187d43","title": "DSC02584","loc": {"type": "Point","coordinates": [103.771706,1.382372]}} 
{"id": "8734246936","server": "7319","farm": "8","userId": "77557991@N07","secret": "8e6e1277a6","title": "DSC02694","loc": {"type": "Point","coordinates": [103.771706,1.382372]}} 
{"id": "8734259392","server": "7299","farm": "8","userId": "77557991@N07","secret": "3eb5634fbe","title": "DSC02578","loc": {"type": "Point","coordinates": [103.771706,1.382372]}} 
{"id": "8734252930","server": "7309","farm": "8","userId": "77557991@N07","secret": "988ed31636","title": "DSC02621","loc": {"type": "Point","coordinates": [103.771706,1.382372]}} 
{"id": "8733133663","server": "7296","farm": "8","userId": "77557991@N07","secret": "6ac03e82e5","title": "DSC02650","loc": {"type": "Point","coordinates": [103.771706,1.382372]}} 
{"id": "8733146477","server": "7291","farm": "8","userId": "77557991@N07","secret": "a470a8e005","title": "DSC02553","loc": {"type": "Point","coordinates": [103.771706,1.382372]}} 
{"id": "8733148989","server": "7307","farm": "8","userId": "77557991@N07","secret": "8dc2147b62","title": "DSC02533","loc": {"type": "Point","coordinates": [103.771706,1.382372]}} 
{"id": "8734245944","server": "7283","farm": "8","userId": "77557991@N07","secret": "651cbee6ed","title": "DSC02699","loc": {"type": "Point","coordinates": [103.771706,1.382372]}} 
{"id": "8734245324","server": "7321","farm": "8","userId": "77557991@N07","secret": "4664f53914","title": "DSC02703","loc": {"type": "Point","coordinates": [103.771706,1.382372]}} 
{"id": "8733129661","server": "7321","farm": "8","userId": "77557991@N07","secret": "d1c6a77b29","title": "DSC02697","loc": {"type": "Point","coordinates": [103.771706,1.382372]}} 
{"id": "8733127347","server": "7318","farm": "8","userId": "77557991@N07","secret": "6d41be8279","title": "DSC02719","loc": {"type": "Point","coordinates": [103.771706,1.382372]}} 
{"id": "8733139523","server": "7325","farm": "8","userId": "77557991@N07","secret": "0a2a1ee1c2","title": "DSC02596","loc": {"type": "Point","coordinates": [103.771706,1.382372]}} 
{"id": "8734247462","server": "7318","farm": "8","userId": "77557991@N07","secret": "ff6563792b","title": "DSC02689","loc": {"type": "Point","coordinates": [103.771706,1.382372]}} 
{"id": "8734261590","server": "7318","farm": "8","userId": "77557991@N07","secret": "a2c80d9cac","title": "DSC02562","loc": {"type": "Point","coordinates": [103.771706,1.382372]}} 
{"id": "8733140763","server": "7301","farm": "8","userId": "77557991@N07","secret": "6e34b2f71b","title": "DSC02589","loc": {"type": "Point","coordinates": [103.771706,1.382372]}} 
{"id": "8734264550","server": "7325","farm": "8","userId": "77557991@N07","secret": "47c464d1a3","title": "DSC02541","loc": {"type": "Point","coordinates": [103.771706,1.382372]}} 
{"id": "8733137591","server": "7323","farm": "8","userId": "77557991@N07","secret": "590d14199f","title": "DSC02612","loc": {"type": "Point","coordinates": [103.771706,1.382372]}} 
{"id": "8733128995","server": "7291","farm": "8","userId": "77557991@N07","secret": "e6d4c85bff","title": "DSC02702","loc": {"type": "Point","coordinates": [103.771706,1.382372]}} 
{"id": "8734262670","server": "7324","farm": "8","userId": "77557991@N07","secret": "dbd4e7651a","title": "DSC02554","loc": {"type": "Point","coordinates": [103.771706,1.382372]}} 
{"id": "8733144959","server": "7319","farm": "8","userId": "77557991@N07","secret": "46b1f2580e","title": "DSC02567","loc": {"type": "Point","coordinates": [103.771706,1.382372]}} 
{"id": "8734260238","server": "7295","farm": "8","userId": "77557991@N07","secret": "4ccc2543e6","title": "DSC02574","loc": {"type": "Point","coordinates": [103.771706,1.382372]}} 
{"id": "8733140341","server": "7316","farm": "8","userId": "77557991@N07","secret": "37aabbe5f3","title": "DSC02592","loc": {"type": "Point","coordinates": [103.771706,1.382372]}} 
{"id": "8734255164","server": "7301","farm": "8","userId": "77557991@N07","secret": "a0e05c277b","title": "DSC02608","loc": {"type": "Point","coordinates": [103.771706,1.382372]}} 
{"id": "8733137997","server": "7299","farm": "8","userId": "77557991@N07","secret": "5832224ca0","title": "DSC02610","loc": {"type": "Point","coordinates": [103.771706,1.382372]}} 
{"id": "8734244886","server": "7312","farm": "8","userId": "77557991@N07","secret": "a054b12fe4","title": "DSC02709","loc": {"type": "Point","coordinates": [103.771706,1.382372]}} 
{"id": "8733131029","server": "7286","farm": "8","userId": "77557991@N07","secret": "64bf9bd5d2","title": "DSC02686","loc": {"type": "Point","coordinates": [103.771706,1.382372]}} 
{"id": "8734263810","server": "7315","farm": "8","userId": "77557991@N07","secret": "0298bd0065","title": "DSC02549","loc": {"type": "Point","coordinates": [103.771706,1.382372]}} 
{"id": "8733135167","server": "7316","farm": "8","userId": "77557991@N07","secret": "b67e23e271","title": "DSC02634","loc": {"type": "Point","coordinates": [103.771706,1.382372]}} 
{"id": "8734248514","server": "7291","farm": "8","userId": "77557991@N07","secret": "9c84005b6a","title": "DSC02677","loc": {"type": "Point","coordinates": [103.771706,1.382372]}} 
{"id": "8734262186","server": "7284","farm": "8","userId": "77557991@N07","secret": "2bcab8e57a","title": "DSC02559","loc": {"type": "Point","coordinates": [103.771706,1.382372]}} 
{"id": "8733138787","server": "7317","farm": "8","userId": "77557991@N07","secret": "f67f32177b","title": "DSC02605","loc": {"type": "Point","coordinates": [103.771706,1.382372]}} 
{"id": "8733127127","server": "7281","farm": "8","userId": "77557991@N07","secret": "47eb76efcf","title": "DSC02722","loc": {"type": "Point","coordinates": [103.771706,1.382372]}} 
{"id": "8733143533","server": "7320","farm": "8","userId": "77557991@N07","secret": "e2345fc3ba","title": "DSC02575","loc": {"type": "Point","coordinates": [103.771706,1.382372]}} 
{"id": "8733133261","server": "7284","farm": "8","userId": "77557991@N07","secret": "12057ed34a","title": "DSC02656","loc": {"type": "Point","coordinates": [103.771706,1.382372]}} 
{"id": "8734248082","server": "7313","farm": "8","userId": "77557991@N07","secret": "4c36eb31da","title": "DSC02684","loc": {"type": "Point","coordinates": [103.771706,1.382372]}} 
{"id": "8733142607","server": "7317","farm": "8","userId": "77557991@N07","secret": "c0f6978402","title": "DSC02580","loc": {"type": "Point","coordinates": [103.771706,1.382372]}} 
{"id": "8734251140","server": "7289","farm": "8","userId": "77557991@N07","secret": "9b4501d83c","title": "DSC02639","loc": {"type": "Point","coordinates": [103.771706,1.382372]}} 
{"id": "8708939075","server": "8397","farm": "9","userId": "62528795@N05","secret": "d56c291349","title": "Pretty night.","loc": {"type": "Point","coordinates": [103.77313,1.383575]}} 
{"id": "8707039574","server": "8415","farm": "9","userId": "62528795@N05","secret": "e4d6bf646b","title": "Home sweet home.","loc": {"type": "Point","coordinates": [103.77315,1.383784]}} 
{"id": "8537715194","server": "8513","farm": "9","userId": "62528795@N05","secret": "c4d2d1d0c1","title": "'I love cats. Not copycats. What's wrong with just being yourself?' image Â©a.r.t","loc": {"type": "Point","coordinates": [103.77342,1.383838]}} 
{"id": "8535053484","server": "8236","farm": "9","userId": "62528795@N05","secret": "e2e7bcdcfa","title": "Mount Merapi in the foreground. Still an active volcano, last erupted on Oct 2010.","loc": {"type": "Point","coordinates": [103.77316,1.383575]}} 
{"id": "8533942721","server": "8512","farm": "9","userId": "62528795@N05","secret": "21fc0b52ed","title": "Mount Merapi on the foreground. Still an active volcano, last erupted on Oct 2010.","loc": {"type": "Point","coordinates": [103.77316,1.383575]}} 
{"id": "8502722684","server": "8105","farm": "9","userId": "62528795@N05","secret": "c9f22ba469","title": "Low tide.","loc": {"type": "Point","coordinates": [103.772964,1.383575]}} 
{"id": "8423384045","server": "8506","farm": "9","userId": "62528795@N05","secret": "cbbb02ea90","title": "I had to hold my breath. A tripod would have been handy.","loc": {"type": "Point","coordinates": [103.77342,1.383575]}} 
{"id": "8329724995","server": "8493","farm": "9","userId": "72329178@N00","secret": "4384793697","title": "first attempt of stuffed roast chicken was satisfactory","loc": {"type": "Point","coordinates": [103.7725,1.388333]}} 
{"id": "8130926705","server": "8195","farm": "9","userId": "55486190@N00","secret": "31aeb4ca33","title": "#Enoch is now a #big #GorGor (#elder #brother in #Cantonese)! :-)","loc": {"type": "Point","coordinates": [103.7726,1.384323]}} 
{"id": "8129678135","server": "8054","farm": "9","userId": "55486190@N00","secret": "36b66fee58","title": "#YuMin & #baby #Sophie. Doesn't #she #look #like #Andy? #Singapore #America #Fullmonth","loc": {"type": "Point","coordinates": [103.772,1.384666]}} 
{"id": "8107250104","server": "8476","farm": "9","userId": "62528795@N05","secret": "4e3ea4988e","title": "The Indian Ocean.","loc": {"type": "Point","coordinates": [103.77342,1.383575]}} 
{"id": "8089740354","server": "8475","farm": "9","userId": "62528795@N05","secret": "93a1224e5d","title": "Hustling to work.","loc": {"type": "Point","coordinates": [103.77342,1.383575]}} 
{"id": "8080531747","server": "8465","farm": "9","userId": "62528795@N05","secret": "afb671b013","title": "They told me heaven was special.","loc": {"type": "Point","coordinates": [103.7729,1.383575]}} 
{"id": "8070453712","server": "8032","farm": "9","userId": "62528795@N05","secret": "01f9a53832","title": "A little piece of home.","loc": {"type": "Point","coordinates": [103.77342,1.383575]}} 
{"id": "8042697546","server": "8042","farm": "9","userId": "62528795@N05","secret": "bcedacbaf2","title": "High up.","loc": {"type": "Point","coordinates": [103.77342,1.3837]}} 
