{"id": "9424932753","server": "2885","farm": "3","userId": "89588429@N00","secret": "bf727a3556","title": "","loc": {"type": "Point","coordinates": [103.7915,1.2805]}} 
{"id": "8262348880","server": "8346","farm": "9","userId": "24141292@N02","secret": "dcd309df67","title": "Lion Dog","loc": {"type": "Point","coordinates": [103.78274,1.28437]}} 
{"id": "8261281039","server": "8224","farm": "9","userId": "24141292@N02","secret": "78f7b3a33e","title": "Leopard","loc": {"type": "Point","coordinates": [103.78274,1.28437]}} 
{"id": "8256260735","server": "8060","farm": "9","userId": "24141292@N02","secret": "23cee2fe85","title": "Sea no More","loc": {"type": "Point","coordinates": [103.78274,1.28437]}} 
{"id": "8251088274","server": "8068","farm": "9","userId": "24141292@N02","secret": "c291b9fc59","title": "Colourful Ladies","loc": {"type": "Point","coordinates": [103.78262,1.285217]}} 
{"id": "8251090142","server": "8477","farm": "9","userId": "24141292@N02","secret": "0b943ed7d8","title": "Virtues & Vices Tableaux","loc": {"type": "Point","coordinates": [103.78262,1.285217]}} 
{"id": "8247467241","server": "8479","farm": "9","userId": "24141292@N02","secret": "bb51ef1657","title": "Virtues & Vices Tableaux, Tiger Balm Gardens","loc": {"type": "Point","coordinates": [103.78262,1.285217]}} 
{"id": "8247470493","server": "8340","farm": "9","userId": "24141292@N02","secret": "b3ce2fd3d5","title": "Tiger Attack","loc": {"type": "Point","coordinates": [103.78262,1.285217]}} 
{"id": "8248538658","server": "8208","farm": "9","userId": "24141292@N02","secret": "44d36cde20","title": "Unhappy Gentlemen","loc": {"type": "Point","coordinates": [103.78262,1.285217]}} 
{"id": "8247470009","server": "8069","farm": "9","userId": "24141292@N02","secret": "d0686a3f47","title": "Virtue & Vice Tableaux, Tiger Balm Gardens","loc": {"type": "Point","coordinates": [103.78262,1.285217]}} 
{"id": "8248535438","server": "8478","farm": "9","userId": "24141292@N02","secret": "0e758d2984","title": "Fasting Monk, Tiger Balm Gardens","loc": {"type": "Point","coordinates": [103.78262,1.285217]}} 
{"id": "8245808522","server": "8059","farm": "9","userId": "24141292@N02","secret": "9d4ec07bb9","title": "Nine Dragon Screen, Tiger Balm Gardens","loc": {"type": "Point","coordinates": [103.78262,1.285217]}} 
{"id": "8244741001","server": "8199","farm": "9","userId": "24141292@N02","secret": "1736f5522f","title": "Dragon Screen, Tiger Balm Gardens","loc": {"type": "Point","coordinates": [103.78262,1.285217]}} 
{"id": "8245808842","server": "8490","farm": "9","userId": "24141292@N02","secret": "f3534b19ed","title": "Dragon, Tiger Balm Gardens","loc": {"type": "Point","coordinates": [103.78262,1.285217]}} 
{"id": "8244747515","server": "8337","farm": "9","userId": "24141292@N02","secret": "c877109f6b","title": "Tiger Balm Gardens","loc": {"type": "Point","coordinates": [103.78262,1.285217]}} 
{"id": "8244742013","server": "8347","farm": "9","userId": "24141292@N02","secret": "d4e18dbc53","title": "Kwan Yin, Tiger Balm Gardens","loc": {"type": "Point","coordinates": [103.78262,1.285217]}} 
{"id": "8245815106","server": "8338","farm": "9","userId": "24141292@N02","secret": "f3410416c0","title": "Aw Boon Haw Tiger, Tiger Balm Gardens","loc": {"type": "Point","coordinates": [103.78262,1.285217]}} 
{"id": "8244739637","server": "8064","farm": "9","userId": "24141292@N02","secret": "ea499e016f","title": "Tiger Balm Gardens","loc": {"type": "Point","coordinates": [103.78262,1.285217]}} 
{"id": "8245817984","server": "8199","farm": "9","userId": "24141292@N02","secret": "04762536bd","title": "Virtues & Vices Tableaux, Tiger Balm Gardens","loc": {"type": "Point","coordinates": [103.78262,1.285217]}} 
{"id": "8085275250","server": "8192","farm": "9","userId": "66358983@N07","secret": "440320deb8","title": "Racket Tailed Drongo","loc": {"type": "Point","coordinates": [103.793365,1.2812]}} 
{"id": "8957382643","server": "3674","farm": "4","userId": "90343499@N04","secret": "e9c7786f70","title": "Tanzin draws Monster High","loc": {"type": "Point","coordinates": [103.78702,1.278912]}} 
{"id": "8897304663","server": "3812","farm": "4","userId": "90343499@N04","secret": "d59fd0b9a6","title": "Beautiful Blue Skies Today","loc": {"type": "Point","coordinates": [103.78882,1.279601]}} 
{"id": "8874295445","server": "5461","farm": "6","userId": "78686549@N00","secret": "7e1d0370c0","title": "Duck from 'that duck' stall.","loc": {"type": "Point","coordinates": [103.786995,1.280922]}} 
{"id": "8866210090","server": "2810","farm": "3","userId": "95929504@N04","secret": "11674e7b30","title": "","loc": {"type": "Point","coordinates": [103.78828,1.281105]}} 
{"id": "8866154448","server": "8268","farm": "9","userId": "95929504@N04","secret": "152c9ea4b8","title": "","loc": {"type": "Point","coordinates": [103.790344,1.284111]}} 
{"id": "8839482036","server": "5337","farm": "6","userId": "66358983@N07","secret": "53f9e22d7d","title": "White Crested Laughing Thrush","loc": {"type": "Point","coordinates": [103.79222,1.281388]}} 
{"id": "8754702367","server": "7314","farm": "8","userId": "31872365@N08","secret": "29c03275f5","title": "Good Monday Morning!","loc": {"type": "Point","coordinates": [103.7908,1.283898]}} 
{"id": "8745969172","server": "8397","farm": "9","userId": "31872365@N08","secret": "cbff650ba5","title": "Mroning!","loc": {"type": "Point","coordinates": [103.7908,1.283898]}} 
{"id": "8743672418","server": "7285","farm": "8","userId": "90343499@N04","secret": "47ecf3e16c","title": "They think it's feeding time","loc": {"type": "Point","coordinates": [103.78702,1.278912]}} 
{"id": "8740472227","server": "7287","farm": "8","userId": "23307377@N06","secret": "863cfe72a3","title": "Pink-necked Green Pigeon (Juvenile)","loc": {"type": "Point","coordinates": [103.79093,1.283082]}} 
{"id": "8740471337","server": "7288","farm": "8","userId": "23307377@N06","secret": "529b59007e","title": "Red-whiskered Bulbul","loc": {"type": "Point","coordinates": [103.791405,1.282761]}} 
{"id": "8741589452","server": "7291","farm": "8","userId": "23307377@N06","secret": "fc0db21b9e","title": "Blue-throated Bee-eater","loc": {"type": "Point","coordinates": [103.790695,1.283082]}} 
{"id": "8741589412","server": "7294","farm": "8","userId": "23307377@N06","secret": "966d957678","title": "Blue-throated Bee-eater","loc": {"type": "Point","coordinates": [103.790955,1.283168]}} 
{"id": "8731136520","server": "7357","farm": "8","userId": "90343499@N04","secret": "9bfa69e1da","title": "Woo! Bahraini Skies","loc": {"type": "Point","coordinates": [103.78977,1.279701]}} 
{"id": "8725872036","server": "7312","farm": "8","userId": "95599694@N03","secret": "bbf34f21e9","title": "IMG_0085","loc": {"type": "Point","coordinates": [103.79017,1.284333]}} 
{"id": "8598688971","server": "8367","farm": "9","userId": "90343499@N04","secret": "765a6aed1d","title": "Good Friday treats","loc": {"type": "Point","coordinates": [103.78702,1.278912]}} 
{"id": "8594961912","server": "8519","farm": "9","userId": "89975165@N07","secret": "fb88c2b1ac","title": "Jumping on the bandwagon.","loc": {"type": "Point","coordinates": [103.786995,1.280922]}} 
{"id": "8591518351","server": "8092","farm": "9","userId": "90343499@N04","secret": "948d5f8a4b","title": "Chilling","loc": {"type": "Point","coordinates": [103.78699,1.278892]}} 
{"id": "8579419870","server": "8098","farm": "9","userId": "90343499@N04","secret": "d59a5cbab4","title": "Out for a walk with the dog and just found tea.","loc": {"type": "Point","coordinates": [103.78964,1.280691]}} 
{"id": "8568629742","server": "8100","farm": "9","userId": "61670399@N07","secret": "bfd8a40903","title": "Love the duck rice here","loc": {"type": "Point","coordinates": [103.786995,1.280922]}} 
{"id": "8560214103","server": "8369","farm": "9","userId": "90343499@N04","secret": "701c7d7474","title": "Our local strip of shophouses,  not demolished","loc": {"type": "Point","coordinates": [103.78662,1.280465]}} 
{"id": "8558649503","server": "8522","farm": "9","userId": "25076731@N05","secret": "0344e580ac","title": "Statue of Confucius, or Kong Zi at Haw Par Villa","loc": {"type": "Point","coordinates": [103.78248,1.28349]}} 
{"id": "8513858263","server": "8092","farm": "9","userId": "90343499@N04","secret": "aecfd9e20e","title": "Its onky taken 4 months to get here. Amazing.","loc": {"type": "Point","coordinates": [103.78702,1.278912]}} 
{"id": "8485979912","server": "8517","farm": "9","userId": "92886069@N00","secret": "d7f4b2ab31","title": "2013-02-09 11.23.28","loc": {"type": "Point","coordinates": [103.7905,1.283666]}} 
{"id": "8486001754","server": "8103","farm": "9","userId": "92886069@N00","secret": "9399d297c3","title": "2013-02-09 11.41.06","loc": {"type": "Point","coordinates": [103.791,1.283166]}} 
{"id": "8484842277","server": "8107","farm": "9","userId": "92886069@N00","secret": "b17c51fb32","title": "2013-02-09 11.45.40","loc": {"type": "Point","coordinates": [103.79117,1.283333]}} 
{"id": "8484909815","server": "8112","farm": "9","userId": "92886069@N00","secret": "fb44d66a25","title": "2013-02-09 11.43.53","loc": {"type": "Point","coordinates": [103.791,1.283166]}} 
{"id": "8484886769","server": "8093","farm": "9","userId": "92886069@N00","secret": "1cdd192ed3","title": "2013-02-09 11.22.17","loc": {"type": "Point","coordinates": [103.7905,1.283499]}} 
{"id": "8484907135","server": "8226","farm": "9","userId": "92886069@N00","secret": "dd0847499c","title": "2013-02-09 11.23.45","loc": {"type": "Point","coordinates": [103.7905,1.283666]}} 
{"id": "8486002260","server": "8365","farm": "9","userId": "92886069@N00","secret": "ddbf6e4f34","title": "2013-02-09 11.43.23","loc": {"type": "Point","coordinates": [103.791,1.283166]}} 
{"id": "8484907941","server": "8095","farm": "9","userId": "92886069@N00","secret": "0df14eb15f","title": "2013-02-09 11.40.50","loc": {"type": "Point","coordinates": [103.791,1.283166]}} 
{"id": "8484842739","server": "8375","farm": "9","userId": "92886069@N00","secret": "f9e102bd91","title": "2013-02-09 11.44.58","loc": {"type": "Point","coordinates": [103.791,1.283333]}} 
{"id": "8484841213","server": "8229","farm": "9","userId": "92886069@N00","secret": "7a3a78b4ac","title": "2013-02-09 11.58.37","loc": {"type": "Point","coordinates": [103.792336,1.281833]}} 
{"id": "8484910359","server": "8246","farm": "9","userId": "92886069@N00","secret": "f951db6b27","title": "2013-02-09 11.44.34","loc": {"type": "Point","coordinates": [103.791,1.283333]}} 
{"id": "8486000456","server": "8385","farm": "9","userId": "92886069@N00","secret": "af252f5600","title": "2013-02-09 11.24.13","loc": {"type": "Point","coordinates": [103.7905,1.283666]}} 
{"id": "8399951093","server": "8324","farm": "9","userId": "90343499@N04","secret": "1dff3bbb29","title": "Our first Joss Paper burning. Remembering our ancestors towards the start of the new lunar year.","loc": {"type": "Point","coordinates": [103.78702,1.278912]}} 
{"id": "8396853279","server": "8235","farm": "9","userId": "76980764@N08","secret": "05aac5d52f","title": "Scarlet Sunbird, Singapore","loc": {"type": "Point","coordinates": [103.7852,1.282911]}} 
{"id": "8361111450","server": "8515","farm": "9","userId": "90343499@N04","secret": "9e5465a69e","title": "Ceiling fan","loc": {"type": "Point","coordinates": [103.78702,1.278912]}} 
{"id": "8353566190","server": "8045","farm": "9","userId": "90343499@N04","secret": "91f47839ee","title": "Finally Tan gets her pressie from Santa. Thanks to the Reads for coming to the rescue.","loc": {"type": "Point","coordinates": [103.78702,1.278912]}} 
{"id": "8311775545","server": "8358","farm": "9","userId": "90343499@N04","secret": "f438746009","title": "In the days before Instagram","loc": {"type": "Point","coordinates": [103.78702,1.278912]}} 
{"id": "8306695980","server": "8221","farm": "9","userId": "90343499@N04","secret": "cf96101920","title": "All gone.","loc": {"type": "Point","coordinates": [103.78702,1.278912]}} 
{"id": "8306694306","server": "8359","farm": "9","userId": "90343499@N04","secret": "035c5988a1","title": "Fully loaded. Biggest meal of the year.","loc": {"type": "Point","coordinates": [103.78702,1.278912]}} 
{"id": "8306182412","server": "8499","farm": "9","userId": "90343499@N04","secret": "3619f967be","title": "The Monster High collection","loc": {"type": "Point","coordinates": [103.78702,1.278912]}} 
{"id": "8306160688","server": "8356","farm": "9","userId": "90343499@N04","secret": "910a7e32d7","title": "Big bear looks hungry","loc": {"type": "Point","coordinates": [103.78702,1.278912]}} 
{"id": "8306170844","server": "8492","farm": "9","userId": "90343499@N04","secret": "9906ef9f83","title": "Monster High's Draculaura and Frankie Stein","loc": {"type": "Point","coordinates": [103.78702,1.278912]}} 
{"id": "8306135502","server": "8501","farm": "9","userId": "90343499@N04","secret": "d345cac092","title": "Table's ready","loc": {"type": "Point","coordinates": [103.78702,1.278912]}} 
{"id": "8304596677","server": "8360","farm": "9","userId": "90343499@N04","secret": "b065bc1a28","title": "Santa's been","loc": {"type": "Point","coordinates": [103.78702,1.278912]}} 
{"id": "8305633848","server": "8497","farm": "9","userId": "90343499@N04","secret": "d93b4a41aa","title": "Santa's been","loc": {"type": "Point","coordinates": [103.78702,1.278912]}} 
{"id": "8303710534","server": "8359","farm": "9","userId": "90343499@N04","secret": "26eae24d5e","title": "Bubbly Christmas","loc": {"type": "Point","coordinates": [103.78702,1.278912]}} 
{"id": "8302650762","server": "8356","farm": "9","userId": "90343499@N04","secret": "af5024f522","title": "Merry Christmas and a happy and prosperous 2013","loc": {"type": "Point","coordinates": [103.78702,1.278912]}} 
{"id": "8297032496","server": "8215","farm": "9","userId": "90343499@N04","secret": "5895c8c2ba","title": "One down","loc": {"type": "Point","coordinates": [103.78702,1.278912]}} 
{"id": "8286739791","server": "8357","farm": "9","userId": "91223673@N06","secret": "5baca67452","title": "Squirrel","loc": {"type": "Point","coordinates": [103.78251,1.283597]}} 
{"id": "8285365163","server": "8070","farm": "9","userId": "90343499@N04","secret": "cae205bef8","title": "Shades and light","loc": {"type": "Point","coordinates": [103.78702,1.278912]}} 
{"id": "8262349274","server": "8223","farm": "9","userId": "24141292@N02","secret": "3e3883f840","title": "Quizzical Lion Dog","loc": {"type": "Point","coordinates": [103.78274,1.28437]}} 
{"id": "8260922306","server": "8344","farm": "9","userId": "24141292@N02","secret": "12f0f0c8e0","title": "Monkey, the Great Sage","loc": {"type": "Point","coordinates": [103.78274,1.28437]}} 
{"id": "8259854879","server": "8080","farm": "9","userId": "24141292@N02","secret": "f687d27a18","title": "Tripitaka's Horse","loc": {"type": "Point","coordinates": [103.78274,1.28437]}} 
{"id": "8260922850","server": "8076","farm": "9","userId": "24141292@N02","secret": "738e6d2834","title": "Pigsy","loc": {"type": "Point","coordinates": [103.78274,1.28437]}} 
{"id": "8259856719","server": "8063","farm": "9","userId": "24141292@N02","secret": "d3ac9d8fce","title": "Monkey","loc": {"type": "Point","coordinates": [103.78274,1.28437]}} 
{"id": "8257342666","server": "8200","farm": "9","userId": "24141292@N02","secret": "3b3c96f323","title": "Monkey in Battle","loc": {"type": "Point","coordinates": [103.78274,1.28437]}} 
{"id": "8256268157","server": "8359","farm": "9","userId": "24141292@N02","secret": "66810d911a","title": "Sandy in Trouble","loc": {"type": "Point","coordinates": [103.78274,1.28437]}} 
{"id": "8257342132","server": "8079","farm": "9","userId": "24141292@N02","secret": "1f789dbb5e","title": "Tripitaka on Horseback","loc": {"type": "Point","coordinates": [103.78274,1.28437]}} 
{"id": "8257342426","server": "8218","farm": "9","userId": "24141292@N02","secret": "063bc3dd75","title": "Pigsy","loc": {"type": "Point","coordinates": [103.78274,1.28437]}} 
{"id": "8257337454","server": "8211","farm": "9","userId": "24141292@N02","secret": "5863d82f08","title": "Pigsy after too much Drink","loc": {"type": "Point","coordinates": [103.78274,1.28437]}} 
{"id": "8257337214","server": "8356","farm": "9","userId": "24141292@N02","secret": "ee81eeabee","title": "Seductresses tempt Tripitaka","loc": {"type": "Point","coordinates": [103.78274,1.28437]}} 
{"id": "8248539178","server": "8203","farm": "9","userId": "24141292@N02","secret": "257d04d7a6","title": "Sinking Ship","loc": {"type": "Point","coordinates": [103.78262,1.285217]}} 
{"id": "8248538164","server": "8343","farm": "9","userId": "24141292@N02","secret": "33e2d7b61e","title": "Bridge over Troubled Waters","loc": {"type": "Point","coordinates": [103.78262,1.285217]}} 
{"id": "8248539970","server": "8202","farm": "9","userId": "24141292@N02","secret": "a9f916bfc1","title": "Strange Sea Creatures","loc": {"type": "Point","coordinates": [103.78262,1.285217]}} 
{"id": "8248543820","server": "8204","farm": "9","userId": "24141292@N02","secret": "6319e0b1de","title": "Shell Lady","loc": {"type": "Point","coordinates": [103.78262,1.285217]}} 
{"id": "8247474847","server": "8487","farm": "9","userId": "24141292@N02","secret": "13e8174205","title": "Bear's Picnic","loc": {"type": "Point","coordinates": [103.78262,1.285217]}} 
{"id": "8247475091","server": "8069","farm": "9","userId": "24141292@N02","secret": "9727bb1e0b","title": "Look Who's Coming to Dinner","loc": {"type": "Point","coordinates": [103.78262,1.285217]}} 
{"id": "8248544090","server": "8477","farm": "9","userId": "24141292@N02","secret": "73bbca84a8","title": "FrogMan","loc": {"type": "Point","coordinates": [103.78262,1.285217]}} 
{"id": "8248536220","server": "8486","farm": "9","userId": "24141292@N02","secret": "245e21342c","title": "Modern Life Vignettes","loc": {"type": "Point","coordinates": [103.78262,1.285217]}} 
{"id": "8248535980","server": "8348","farm": "9","userId": "24141292@N02","secret": "231d40ea83","title": "Animal Band","loc": {"type": "Point","coordinates": [103.78262,1.285217]}} 
{"id": "8247471709","server": "8338","farm": "9","userId": "24141292@N02","secret": "bb9a6a3142","title": "Traffic Victim & Gamblers","loc": {"type": "Point","coordinates": [103.78262,1.285217]}} 
{"id": "8244739971","server": "8066","farm": "9","userId": "24141292@N02","secret": "aa7637b745","title": "Chinese Opera Masks, Tiger Balm Gardens","loc": {"type": "Point","coordinates": [103.78262,1.285217]}} 
{"id": "8244741291","server": "8063","farm": "9","userId": "24141292@N02","secret": "2d9cd1160f","title": "Scary Mask, Tiger Balm Gardens","loc": {"type": "Point","coordinates": [103.78262,1.285217]}} 
{"id": "8244746175","server": "8208","farm": "9","userId": "24141292@N02","secret": "e687e3820b","title": "Tiger Balm Gardens","loc": {"type": "Point","coordinates": [103.78262,1.285217]}} 
{"id": "8245809874","server": "8480","farm": "9","userId": "24141292@N02","secret": "dfc2306aed","title": "Red Mask, Tiger Balm Gardens","loc": {"type": "Point","coordinates": [103.78262,1.285217]}} 
{"id": "8245818834","server": "8069","farm": "9","userId": "24141292@N02","secret": "1feca344c1","title": "Aged Mask, Tiger Balm Gardens","loc": {"type": "Point","coordinates": [103.78262,1.285217]}} 
{"id": "8235041076","server": "8208","farm": "9","userId": "43225758@N03","secret": "26d4ed0d64","title": "","loc": {"type": "Point","coordinates": [103.789,1.2835]}} 
{"id": "8235016830","server": "8343","farm": "9","userId": "43225758@N03","secret": "4d2953b15c","title": "","loc": {"type": "Point","coordinates": [103.789,1.283167]}} 
{"id": "8233925347","server": "8344","farm": "9","userId": "43225758@N03","secret": "a2d1521402","title": "","loc": {"type": "Point","coordinates": [103.789,1.283]}} 
{"id": "8234983308","server": "8058","farm": "9","userId": "43225758@N03","secret": "33e0e11681","title": "","loc": {"type": "Point","coordinates": [103.78883,1.283333]}} 
{"id": "8228589727","server": "8067","farm": "9","userId": "90343499@N04","secret": "1dbdbf3763","title": "Neighbourhood just went up in value by a couple of hundred thousand sing dollars","loc": {"type": "Point","coordinates": [103.78844,1.280496]}} 
{"id": "8229036024","server": "8202","farm": "9","userId": "90343499@N04","secret": "937d37340f","title": "Somethings don't need renaming.","loc": {"type": "Point","coordinates": [103.79057,1.283614]}} 
{"id": "8227961251","server": "8060","farm": "9","userId": "90343499@N04","secret": "5846b6cb51","title": "View from Lookout Point @ Kent Ridge, across our Condo and Pasir Panjang docks to the Southern Islands","loc": {"type": "Point","coordinates": [103.79071,1.283609]}} 
{"id": "8228980166","server": "8063","farm": "9","userId": "90343499@N04","secret": "371255bec9","title": "Train your dog to bounce poo into the wastebins provided","loc": {"type": "Point","coordinates": [103.79046,1.283684]}} 
{"id": "8228973632","server": "8479","farm": "9","userId": "90343499@N04","secret": "c8bbe4ea57","title": "Kent Ridge Park","loc": {"type": "Point","coordinates": [103.7908,1.283898]}} 
{"id": "8228987428","server": "8064","farm": "9","userId": "90343499@N04","secret": "f84d3782a1","title": "Lest we forget","loc": {"type": "Point","coordinates": [103.790405,1.283651]}} 
{"id": "8222772330","server": "8485","farm": "9","userId": "90343499@N04","secret": "f2599cbe78","title": "Storm drain is tidal this morning and teaming full of fish","loc": {"type": "Point","coordinates": [103.78977,1.279746]}} 
{"id": "8220560956","server": "8204","farm": "9","userId": "90343499@N04","secret": "bcaae553c5","title": "It's getting all Christmasy at the condo!?","loc": {"type": "Point","coordinates": [103.78703,1.279219]}} 
{"id": "8209758903","server": "8062","farm": "9","userId": "90343499@N04","secret": "e6f90d7202","title": "Gushing rain AGAIN!","loc": {"type": "Point","coordinates": [103.78703,1.279219]}} 
{"id": "8206720417","server": "8058","farm": "9","userId": "90343499@N04","secret": "14d91a5d6a","title": "Towel drying the pooch after a post storm Jalan","loc": {"type": "Point","coordinates": [103.78635,1.27861]}} 
{"id": "8085265900","server": "8195","farm": "9","userId": "66358983@N07","secret": "62080ea6f7","title": "Black Naped Oriole","loc": {"type": "Point","coordinates": [103.793335,1.281166]}} 
