{"id": "9187318137","server": "3818","farm": "4","userId": "14385475@N05","secret": "47f3c049b4","title": "IMG_8398","loc": {"type": "Point","coordinates": [103.77216,1.374833]}} 
{"id": "9190066708","server": "3779","farm": "4","userId": "14385475@N05","secret": "d25180d49a","title": "IMG_8368","loc": {"type": "Point","coordinates": [103.772835,1.375]}} 
{"id": "9187254051","server": "7429","farm": "8","userId": "14385475@N05","secret": "a8008c7b73","title": "IMG_8361","loc": {"type": "Point","coordinates": [103.77267,1.375]}} 
{"id": "9164337908","server": "7364","farm": "8","userId": "15170730@N07","secret": "3c39450b13","title": "mutton briyani","loc": {"type": "Point","coordinates": [103.77339,1.376823]}} 
{"id": "8733126705","server": "7313","farm": "8","userId": "77557991@N07","secret": "079a9b07e2","title": "DSC02724","loc": {"type": "Point","coordinates": [103.77181,1.380946]}} 
{"id": "8733126819","server": "7293","farm": "8","userId": "77557991@N07","secret": "6e045dbb5f","title": "DSC02723","loc": {"type": "Point","coordinates": [103.77181,1.380946]}} 
{"id": "8734243306","server": "7302","farm": "8","userId": "77557991@N07","secret": "dffefe676e","title": "DSC02726","loc": {"type": "Point","coordinates": [103.77181,1.380946]}} 
{"id": "8734242964","server": "7293","farm": "8","userId": "77557991@N07","secret": "cd8cc420de","title": "DSC02727","loc": {"type": "Point","coordinates": [103.77181,1.380946]}} 
{"id": "8519215425","server": "8103","farm": "9","userId": "15170730@N07","secret": "ef2c24e9e3","title": "halfway","loc": {"type": "Point","coordinates": [103.77561,1.378801]}} 
{"id": "8338796376","server": "8083","farm": "9","userId": "15488769@N00","secret": "48d462cbf7","title": "","loc": {"type": "Point","coordinates": [103.773315,1.377269]}} 
{"id": "8221652664","server": "8066","farm": "9","userId": "40208989@N00","secret": "e64091c532","title": "upload","loc": {"type": "Point","coordinates": [103.77484,1.378317]}} 
