{"id": "9366602133","server": "5441","farm": "6","userId": "94307415@N04","secret": "13a3ea600b","title": "Our own tiramisu~","loc": {"type": "Point","coordinates": [103.75788,1.322347]}} 
{"id": "9420205926","server": "5532","farm": "6","userId": "87679711@N00","secret": "f009cd93a6","title": "","loc": {"type": "Point","coordinates": [103.75287,1.322769]}} 
{"id": "9393675354","server": "2871","farm": "3","userId": "91787158@N07","secret": "e542e17e86","title": "USS shrek attraction drink shop","loc": {"type": "Point","coordinates": [103.75788,1.322347]}} 
{"id": "9214119657","server": "5525","farm": "6","userId": "96909191@N06","secret": "bbb4129cd2","title": "Super ambitious today. I may spill some colors on it. Unable to draw it halfway as the cabin got choked with people and I literally had no room. I now know where's the only spot to stand in situation like this I will do it again next Friday night . #Frida","loc": {"type": "Point","coordinates": [103.75788,1.322347]}} 
{"id": "9073332381","server": "3801","farm": "4","userId": "94798923@N05","secret": "4f396357cd","title": "Last day in Singapore","loc": {"type": "Point","coordinates": [103.75788,1.322347]}} 
{"id": "9075561274","server": "7347","farm": "8","userId": "94798923@N05","secret": "d6748ff3a1","title": "Last day in Singapore","loc": {"type": "Point","coordinates": [103.75788,1.322347]}} 
{"id": "9073322487","server": "3768","farm": "4","userId": "94798923@N05","secret": "340256f435","title": "Last day in Singapore","loc": {"type": "Point","coordinates": [103.75788,1.322347]}} 
{"id": "9075554504","server": "2893","farm": "3","userId": "94798923@N05","secret": "5ee6459c7a","title": "Last day in Singapore","loc": {"type": "Point","coordinates": [103.75788,1.322347]}} 
{"id": "9073320917","server": "2886","farm": "3","userId": "94798923@N05","secret": "91e50995c0","title": "Last day in Singapore","loc": {"type": "Point","coordinates": [103.75788,1.322347]}} 
{"id": "9073327939","server": "7290","farm": "8","userId": "94798923@N05","secret": "de540d6cda","title": "Last day in Singapore","loc": {"type": "Point","coordinates": [103.75788,1.322347]}} 
{"id": "9073326957","server": "3675","farm": "4","userId": "94798923@N05","secret": "ec5c123377","title": "Last day in Singapore","loc": {"type": "Point","coordinates": [103.75788,1.322347]}} 
{"id": "9075539598","server": "7453","farm": "8","userId": "94798923@N05","secret": "9c724a82f1","title": "Last day in Singapore","loc": {"type": "Point","coordinates": [103.75788,1.322347]}} 
{"id": "9075540674","server": "7316","farm": "8","userId": "94798923@N05","secret": "7ee1a07ef5","title": "Last day in Singapore","loc": {"type": "Point","coordinates": [103.75788,1.322347]}} 
{"id": "9075547864","server": "7408","farm": "8","userId": "94798923@N05","secret": "c6d7d8a965","title": "Last day in Singapore","loc": {"type": "Point","coordinates": [103.75788,1.322347]}} 
{"id": "9073307553","server": "3815","farm": "4","userId": "94798923@N05","secret": "039e551e87","title": "Last day in Singapore","loc": {"type": "Point","coordinates": [103.75788,1.322347]}} 
{"id": "9075546696","server": "3801","farm": "4","userId": "94798923@N05","secret": "17ca8d56fa","title": "Last day in Singapore","loc": {"type": "Point","coordinates": [103.75788,1.322347]}} 
{"id": "9073318995","server": "3737","farm": "4","userId": "94798923@N05","secret": "25f3b413bb","title": "Last day in Singapore","loc": {"type": "Point","coordinates": [103.75788,1.322347]}} 
{"id": "9075553418","server": "3780","farm": "4","userId": "94798923@N05","secret": "1a023aedb7","title": "Last day in Singapore","loc": {"type": "Point","coordinates": [103.75788,1.322347]}} 
{"id": "9075563214","server": "7357","farm": "8","userId": "94798923@N05","secret": "e177d8cb2d","title": "Last day in Singapore","loc": {"type": "Point","coordinates": [103.75788,1.322347]}} 
{"id": "9075543640","server": "7441","farm": "8","userId": "94798923@N05","secret": "d53335346d","title": "Last day in Singapore","loc": {"type": "Point","coordinates": [103.75788,1.322347]}} 
{"id": "9075544816","server": "5480","farm": "6","userId": "94798923@N05","secret": "68413e5a58","title": "Last day in Singapore","loc": {"type": "Point","coordinates": [103.75788,1.322347]}} 
{"id": "9075560268","server": "5468","farm": "6","userId": "94798923@N05","secret": "b58db06424","title": "Last day in Singapore","loc": {"type": "Point","coordinates": [103.75788,1.322347]}} 
{"id": "9075549986","server": "5531","farm": "6","userId": "94798923@N05","secret": "73f50e8650","title": "Last day in Singapore","loc": {"type": "Point","coordinates": [103.75788,1.322347]}} 
{"id": "9073325883","server": "3767","farm": "4","userId": "94798923@N05","secret": "03916b403e","title": "Last day in Singapore","loc": {"type": "Point","coordinates": [103.75788,1.322347]}} 
{"id": "9073305309","server": "2889","farm": "3","userId": "94798923@N05","secret": "7bcde10997","title": "Last day in Singapore","loc": {"type": "Point","coordinates": [103.75788,1.322347]}} 
{"id": "9075545806","server": "7436","farm": "8","userId": "94798923@N05","secret": "0824b768e2","title": "Last day in Singapore","loc": {"type": "Point","coordinates": [103.75788,1.322347]}} 
{"id": "9075531918","server": "3718","farm": "4","userId": "94798923@N05","secret": "13d8d1b762","title": "Last day in Singapore","loc": {"type": "Point","coordinates": [103.75788,1.322347]}} 
{"id": "9075533994","server": "7331","farm": "8","userId": "94798923@N05","secret": "fe78c8edd3","title": "Last day in Singapore","loc": {"type": "Point","coordinates": [103.75788,1.322347]}} 
{"id": "9073302875","server": "5333","farm": "6","userId": "94798923@N05","secret": "a9ca458ce8","title": "Last day in Singapore","loc": {"type": "Point","coordinates": [103.75788,1.322347]}} 
{"id": "9075530658","server": "3798","farm": "4","userId": "94798923@N05","secret": "e27b5246a4","title": "Last day in Singapore","loc": {"type": "Point","coordinates": [103.75788,1.322347]}} 
{"id": "9002181853","server": "5465","farm": "6","userId": "82417989@N04","secret": "05ac2f7236","title": "A bird set up her nest on our balcony and laid two eggs. They finally hatched!","loc": {"type": "Point","coordinates": [103.75788,1.322347]}} 
{"id": "8728377556","server": "7289","farm": "8","userId": "34811143@N00","secret": "47e1148c8b","title": "Cycling around Singapore, 1st Attempt - 11 May 2013","loc": {"type": "Point","coordinates": [103.751945,1.322222]}} 
{"id": "8727258753","server": "7283","farm": "8","userId": "34811143@N00","secret": "d8663acd91","title": "Cycling around Singapore, 1st Attempt - 11 May 2013","loc": {"type": "Point","coordinates": [103.751945,1.322222]}} 
{"id": "8680263672","server": "8539","farm": "9","userId": "36919220@N00","secret": "db72d4c25e","title": "Kedondong","loc": {"type": "Point","coordinates": [103.75023,1.324799]}} 
{"id": "8666786039","server": "8531","farm": "9","userId": "92381791@N05","secret": "e0fc1dfcd6","title": "mom's version is the best!","loc": {"type": "Point","coordinates": [103.756,1.323666]}} 
{"id": "8667885702","server": "8534","farm": "9","userId": "92381791@N05","secret": "eb0a2c5c14","title": "rainstorm","loc": {"type": "Point","coordinates": [103.756,1.323666]}} 
{"id": "8639771602","server": "8256","farm": "9","userId": "92381791@N05","secret": "0189ddd182","title": "tokyo bananas!","loc": {"type": "Point","coordinates": [103.756,1.323666]}} 
{"id": "8639789872","server": "8249","farm": "9","userId": "92381791@N05","secret": "37147a3e08","title": "oh my deer","loc": {"type": "Point","coordinates": [103.75567,1.323166]}} 
{"id": "8638661253","server": "8113","farm": "9","userId": "92381791@N05","secret": "a56da07a6b","title": "udon","loc": {"type": "Point","coordinates": [103.756,1.323333]}} 
{"id": "8639790342","server": "8402","farm": "9","userId": "92381791@N05","secret": "459478fb40","title": "angelfall","loc": {"type": "Point","coordinates": [103.756,1.323666]}} 
{"id": "8639772050","server": "8536","farm": "9","userId": "92381791@N05","secret": "04c19c18a7","title": "cream puff heaven","loc": {"type": "Point","coordinates": [103.756,1.323666]}} 
{"id": "8639789604","server": "8545","farm": "9","userId": "92381791@N05","secret": "7647eab354","title": "vivid","loc": {"type": "Point","coordinates": [103.756,1.323833]}} 
{"id": "8597538668","server": "8514","farm": "9","userId": "76804634@N00","secret": "094b7b93a4","title": "Rainy afternoon. #rain #window #raindrops","loc": {"type": "Point","coordinates": [103.7559,1.322269]}} 
{"id": "8431754491","server": "8095","farm": "9","userId": "43225758@N03","secret": "9e89792c37","title": "Actspressions Valentine's Day Cards | IMG_9007","loc": {"type": "Point","coordinates": [103.757835,1.321833]}} 
{"id": "8432834240","server": "8096","farm": "9","userId": "43225758@N03","secret": "343e60e9cc","title": "Actspressions Valentine's Day Cards | IMG_8970","loc": {"type": "Point","coordinates": [103.757835,1.321833]}} 
{"id": "8432834900","server": "8506","farm": "9","userId": "43225758@N03","secret": "cf87b7235d","title": "Actspressions Valentine's Day Cards | IMG_8973","loc": {"type": "Point","coordinates": [103.757835,1.321833]}} 
{"id": "8432835926","server": "8327","farm": "9","userId": "43225758@N03","secret": "b97fe22dc7","title": "Actspressions Valentine's Day Cards | IMG_8978","loc": {"type": "Point","coordinates": [103.757835,1.321833]}} 
{"id": "8432838146","server": "8476","farm": "9","userId": "43225758@N03","secret": "a0aa5f3827","title": "Actspressions Valentine's Day Cards | IMG_8988","loc": {"type": "Point","coordinates": [103.757835,1.321833]}} 
{"id": "8431752655","server": "8498","farm": "9","userId": "43225758@N03","secret": "63ec1681c3","title": "Actspressions Valentine's Day Cards | IMG_8986","loc": {"type": "Point","coordinates": [103.757835,1.321833]}} 
{"id": "8431750585","server": "8330","farm": "9","userId": "43225758@N03","secret": "ee3730a8b9","title": "Actspressions Valentine's Day Cards | IMG_8977","loc": {"type": "Point","coordinates": [103.757835,1.321833]}} 
{"id": "8431754093","server": "8472","farm": "9","userId": "43225758@N03","secret": "386ea24721","title": "Actspressions Valentine's Day Cards | IMG_9000","loc": {"type": "Point","coordinates": [103.757835,1.321833]}} 
{"id": "8432836676","server": "8503","farm": "9","userId": "43225758@N03","secret": "0857350bfc","title": "Actspressions Valentine's Day Cards | IMG_8981","loc": {"type": "Point","coordinates": [103.757835,1.321833]}} 
{"id": "8431749061","server": "8367","farm": "9","userId": "43225758@N03","secret": "92654362d6","title": "Actspressions Valentine's Day Cards | IMG_8968","loc": {"type": "Point","coordinates": [103.757835,1.321833]}} 
{"id": "8431748807","server": "8050","farm": "9","userId": "43225758@N03","secret": "dbb2f752e7","title": "Actspressions Valentine's Day Cards | IMG_8967","loc": {"type": "Point","coordinates": [103.757835,1.321833]}} 
{"id": "8432836394","server": "8235","farm": "9","userId": "43225758@N03","secret": "fd9542fabc","title": "Actspressions Valentine's Day Cards | IMG_8980","loc": {"type": "Point","coordinates": [103.757835,1.321833]}} 
{"id": "8431750241","server": "8368","farm": "9","userId": "43225758@N03","secret": "aa95a6c53c","title": "Actspressions Valentine's Day Cards | IMG_8976","loc": {"type": "Point","coordinates": [103.757835,1.321833]}} 
{"id": "8432837020","server": "8497","farm": "9","userId": "43225758@N03","secret": "3b722b5331","title": "Actspressions Valentine's Day Cards | IMG_8982","loc": {"type": "Point","coordinates": [103.757835,1.321833]}} 
{"id": "8431752343","server": "8512","farm": "9","userId": "43225758@N03","secret": "3480f75bd1","title": "Actspressions Valentine's Day Cards | IMG_8985","loc": {"type": "Point","coordinates": [103.757835,1.321833]}} 
{"id": "8432836172","server": "8475","farm": "9","userId": "43225758@N03","secret": "83a6f49a81","title": "Actspressions Valentine's Day Cards | IMG_8979","loc": {"type": "Point","coordinates": [103.757835,1.321833]}} 
{"id": "8431754815","server": "8496","farm": "9","userId": "43225758@N03","secret": "bedec7bb53","title": "Actspressions Valentine's Day Cards | IMG_9013","loc": {"type": "Point","coordinates": [103.757835,1.321833]}} 
{"id": "8379774029","server": "8330","farm": "9","userId": "28463369@N06","secret": "e34acc35fd","title": "Camera Roll-72","loc": {"type": "Point","coordinates": [103.75066,1.321333]}} 
{"id": "8349256152","server": "8085","farm": "9","userId": "34811143@N00","secret": "947c2a06ca","title": "Morning cycling to Chinese Garden","loc": {"type": "Point","coordinates": [103.75963,1.323063]}} 
{"id": "8349253418","server": "8324","farm": "9","userId": "34811143@N00","secret": "d9dab54520","title": "Morning cycling to Chinese Garden","loc": {"type": "Point","coordinates": [103.75052,1.325188]}} 
{"id": "8348199089","server": "8191","farm": "9","userId": "34811143@N00","secret": "a5a0bdf959","title": "Morning cycling to Chinese Garden","loc": {"type": "Point","coordinates": [103.75966,1.323069]}} 
{"id": "8348197313","server": "8515","farm": "9","userId": "34811143@N00","secret": "f085a464d5","title": "Morning cycling to Chinese Garden","loc": {"type": "Point","coordinates": [103.75394,1.323483]}} 
{"id": "8314501218","server": "8080","farm": "9","userId": "43225758@N03","secret": "496af031e3","title": "Reverend 15th Anniversary Flatroc | IMG_7534","loc": {"type": "Point","coordinates": [103.757835,1.321833]}} 
{"id": "8314501866","server": "8072","farm": "9","userId": "43225758@N03","secret": "48f7c871e6","title": "Reverend 15th Anniversary Flatroc | IMG_7536","loc": {"type": "Point","coordinates": [103.757835,1.321833]}} 
{"id": "8314500434","server": "8357","farm": "9","userId": "43225758@N03","secret": "94b0360eb1","title": "Reverend 15th Anniversary Flatroc | IMG_7532","loc": {"type": "Point","coordinates": [103.757835,1.321833]}} 
{"id": "8313452201","server": "8363","farm": "9","userId": "43225758@N03","secret": "c0316534ef","title": "Reverend 15th Anniversary Flatroc | IMG_7574","loc": {"type": "Point","coordinates": [103.757835,1.321833]}} 
{"id": "8313453125","server": "8355","farm": "9","userId": "43225758@N03","secret": "a890b20d7b","title": "Reverend 15th Anniversary Flatroc | IMG_7586","loc": {"type": "Point","coordinates": [103.757835,1.321833]}} 
{"id": "8314478978","server": "8221","farm": "9","userId": "43225758@N03","secret": "9a14b93514","title": "Genesis Acoustic Guitar | IMG_7557","loc": {"type": "Point","coordinates": [103.757835,1.321833]}} 
{"id": "8314479316","server": "8081","farm": "9","userId": "43225758@N03","secret": "438a2ec704","title": "Genesis Acoustic Guitar | IMG_7563","loc": {"type": "Point","coordinates": [103.757835,1.321833]}} 
{"id": "8313442477","server": "8073","farm": "9","userId": "43225758@N03","secret": "a641f9bc7c","title": "Fender 60th Anniversary Stratocaster | IMG_7617","loc": {"type": "Point","coordinates": [103.757835,1.321833]}} 
{"id": "8313440489","server": "8075","farm": "9","userId": "43225758@N03","secret": "80f48a4791","title": "Fender 60th Anniversary Stratocaster | IMG_7611","loc": {"type": "Point","coordinates": [103.757835,1.321833]}} 
{"id": "8313441265","server": "8071","farm": "9","userId": "43225758@N03","secret": "024137d8f2","title": "Fender 60th Anniversary Stratocaster | IMG_7615","loc": {"type": "Point","coordinates": [103.757835,1.321833]}} 
{"id": "8314487562","server": "8073","farm": "9","userId": "43225758@N03","secret": "f440e51857","title": "Taylor 310CE | IMG_7600","loc": {"type": "Point","coordinates": [103.757835,1.321833]}} 
{"id": "8313443327","server": "8363","farm": "9","userId": "43225758@N03","secret": "3be3e5a1ab","title": "Fender 60th Anniversary Stratocaster | IMG_7621","loc": {"type": "Point","coordinates": [103.757835,1.321833]}} 
{"id": "8313429253","server": "8082","farm": "9","userId": "43225758@N03","secret": "e0558450c6","title": "Genesis Acoustic Guitar | IMG_7565","loc": {"type": "Point","coordinates": [103.757835,1.321833]}} 
{"id": "8314486624","server": "8495","farm": "9","userId": "43225758@N03","secret": "bc53d3f130","title": "Taylor 310CE | IMG_7588","loc": {"type": "Point","coordinates": [103.757835,1.321833]}} 
{"id": "8314491254","server": "8502","farm": "9","userId": "43225758@N03","secret": "8322d93b5e","title": "Fender 60th Anniversary Stratocaster | IMG_7614","loc": {"type": "Point","coordinates": [103.757835,1.321833]}} 
{"id": "8313437529","server": "8494","farm": "9","userId": "43225758@N03","secret": "794e75631a","title": "Taylor 310CE | IMG_7603","loc": {"type": "Point","coordinates": [103.757835,1.321833]}} 
{"id": "8314493122","server": "8497","farm": "9","userId": "43225758@N03","secret": "0f47a300bd","title": "Fender 60th Anniversary Stratocaster | IMG_7618","loc": {"type": "Point","coordinates": [103.757835,1.321833]}} 
{"id": "8314486902","server": "8364","farm": "9","userId": "43225758@N03","secret": "a09e425b20","title": "Taylor 310CE | IMG_7591","loc": {"type": "Point","coordinates": [103.757835,1.321833]}} 
{"id": "8151268129","server": "7139","farm": "8","userId": "43225758@N03","secret": "739747e6c5","title": "Finding Miss Wally 2","loc": {"type": "Point","coordinates": [103.757835,1.321833]}} 
{"id": "8151290970","server": "7119","farm": "8","userId": "43225758@N03","secret": "b21d7fb71b","title": "Behind the Scenes of Where's Miss Wally","loc": {"type": "Point","coordinates": [103.757835,1.321667]}} 
{"id": "8120793929","server": "8044","farm": "9","userId": "58166221@N07","secret": "8924ba2b94","title": "Random giant box. :o","loc": {"type": "Point","coordinates": [103.75788,1.322347]}} 
{"id": "8112779288","server": "8323","farm": "9","userId": "58166221@N07","secret": "ea2a14a22c","title": "Sheltered vending machine.","loc": {"type": "Point","coordinates": [103.75788,1.322347]}} 
{"id": "8046071287","server": "8176","farm": "9","userId": "87827337@N08","secret": "67c71f61a4","title": "Science activities at the Singapore Science Centre","loc": {"type": "Point","coordinates": [103.751,1.324833]}} 
