{"id": "9390564369","server": "5445","farm": "6","userId": "13394179@N06","secret": "f16b9499bb","title": "DSCN0031","loc": {"type": "Point","coordinates": [103.80277,1.272319]}} 
{"id": "8580282996","server": "8092","farm": "9","userId": "77823697@N00","secret": "fc44fa55a3","title": "Scrumptiously simple seafood. The drinks are crazy-delishus.","loc": {"type": "Point","coordinates": [103.804184,1.275441]}} 
{"id": "8474141073","server": "8391","farm": "9","userId": "79225464@N00","secret": "ed473a4377","title": "","loc": {"type": "Point","coordinates": [103.80211,1.277432]}} 
{"id": "8443508441","server": "8217","farm": "9","userId": "89975165@N07","secret": "3e9c361c5b","title": "Chasing the Monday Blues away.","loc": {"type": "Point","coordinates": [103.80393,1.278384]}} 
{"id": "8324965594","server": "8220","farm": "9","userId": "66358983@N07","secret": "66ec8701bb","title": "Malay Lacewing","loc": {"type": "Point","coordinates": [103.79985,1.278479]}} 
{"id": "9393339252","server": "3778","farm": "4","userId": "13394179@N06","secret": "2fd7c25129","title": "DSCN0030","loc": {"type": "Point","coordinates": [103.80277,1.272319]}} 
{"id": "9390565063","server": "7433","farm": "8","userId": "13394179@N06","secret": "e29e590058","title": "DSCN0024","loc": {"type": "Point","coordinates": [103.803055,1.272238]}} 
{"id": "9393339584","server": "2805","farm": "3","userId": "13394179@N06","secret": "26623d9243","title": "DSCN0021","loc": {"type": "Point","coordinates": [103.803055,1.272238]}} 
{"id": "9390564903","server": "3819","farm": "4","userId": "13394179@N06","secret": "0b992a837a","title": "DSCN0029","loc": {"type": "Point","coordinates": [103.80277,1.272319]}} 
{"id": "9393339354","server": "7425","farm": "8","userId": "13394179@N06","secret": "717351f4e0","title": "DSCN0026","loc": {"type": "Point","coordinates": [103.803055,1.272238]}} 
{"id": "9392602398","server": "5349","farm": "6","userId": "30552649@N00","secret": "dca031523f","title": "修练之I don't want to look my age..","loc": {"type": "Point","coordinates": [103.801575,1.273665]}} 
{"id": "9385310341","server": "7448","farm": "8","userId": "14385475@N05","secret": "7a9f1044cb","title": "IMG_9716","loc": {"type": "Point","coordinates": [103.804,1.275166]}} 
{"id": "9388087362","server": "5466","farm": "6","userId": "14385475@N05","secret": "c15d317983","title": "IMG_9717","loc": {"type": "Point","coordinates": [103.804,1.275166]}} 
{"id": "9372666203","server": "7312","farm": "8","userId": "35468141938@N01","secret": "9195bbb594","title": "Not a single soul.","loc": {"type": "Point","coordinates": [103.804085,1.278126]}} 
{"id": "9367950287","server": "7323","farm": "8","userId": "96909191@N06","secret": "7d97029b6f","title": "Testing out the strokes and painting is sneaking into my line studies . This is my pen. I found it ;) #lamy2000 #fountainpen #Ef #love #sketch #drawing #art #doodles #sketching #sketchbook #instaart #madebyhand #myart #cherngzhi #singapore #mrt #usksg","loc": {"type": "Point","coordinates": [103.802216,1.272378]}} 
{"id": "9366547809","server": "5449","farm": "6","userId": "77252475@N08","secret": "6c75618058","title": "Enjoying the Serenity of Beautiful Nature with","loc": {"type": "Point","coordinates": [103.804085,1.278126]}} 
{"id": "9352692361","server": "3776","farm": "4","userId": "96364464@N05","secret": "235d34e714","title": "Herbalife is proud to be the Global Nutrition Partner of Cristiano Ronaldo http://www.youtube.com/watch?v=M4sH0TvA1-M&sns=tw via @youtube","loc": {"type": "Point","coordinates": [103.80176,1.275151]}} 
{"id": "9260458738","server": "5549","farm": "6","userId": "29842984@N00","secret": "fb40093372","title": "Cloudscape over Singapore","loc": {"type": "Point","coordinates": [103.79821,1.27477]}} 
{"id": "9257675981","server": "5504","farm": "6","userId": "29842984@N00","secret": "b77c4732dd","title": "Singapore is getting bigger","loc": {"type": "Point","coordinates": [103.79821,1.27477]}} 
{"id": "9256499820","server": "7290","farm": "8","userId": "22535240@N00","secret": "050c08ac96","title": "McDonald's Double Rendang Beef Burger!","loc": {"type": "Point","coordinates": [103.80173,1.274566]}} 
{"id": "9253722853","server": "2875","farm": "3","userId": "22535240@N00","secret": "eceaac14a3","title": "McDonald's Rose McFizz.","loc": {"type": "Point","coordinates": [103.80173,1.274566]}} 
{"id": "9254591154","server": "3801","farm": "4","userId": "96289040@N00","secret": "174b651979","title": "Napping machine","loc": {"type": "Point","coordinates": [103.79801,1.27492]}} 
{"id": "9169833095","server": "7406","farm": "8","userId": "96364464@N05","secret": "70d21c7fd7","title": "Best of Friends!","loc": {"type": "Point","coordinates": [103.801575,1.273665]}} 
{"id": "9138035575","server": "3811","farm": "4","userId": "96364464@N05","secret": "707d7b7225","title": "Hard at Work.","loc": {"type": "Point","coordinates": [103.80176,1.275151]}} 
{"id": "9093063095","server": "7373","farm": "8","userId": "22535240@N00","secret": "37a26b3343","title": "Samsung #PREMIERE 2013 live streaming.","loc": {"type": "Point","coordinates": [103.799194,1.274637]}} 
{"id": "8969916114","server": "2841","farm": "3","userId": "19739656@N00","secret": "bc7e42dbb9","title": "Good night Vader","loc": {"type": "Point","coordinates": [103.796165,1.273333]}} 
{"id": "8967804538","server": "5458","farm": "6","userId": "19739656@N00","secret": "d2c976c77e","title": "HipstaPrint","loc": {"type": "Point","coordinates": [103.796,1.273499]}} 
{"id": "8966576701","server": "3687","farm": "4","userId": "19739656@N00","secret": "c83a1733d7","title": "HipstaPrint","loc": {"type": "Point","coordinates": [103.79633,1.273499]}} 
{"id": "8967687766","server": "7433","farm": "8","userId": "19739656@N00","secret": "4db39824e3","title": "HipstaPrint","loc": {"type": "Point","coordinates": [103.796165,1.273499]}} 
{"id": "8967589962","server": "3791","farm": "4","userId": "19739656@N00","secret": "3d46e01bcf","title": "HipstaPrint","loc": {"type": "Point","coordinates": [103.79633,1.273499]}} 
{"id": "8966136345","server": "5330","farm": "6","userId": "19739656@N00","secret": "5c9a8360fc","title": "HipstaPrint","loc": {"type": "Point","coordinates": [103.79583,1.273333]}} 
{"id": "8947229154","server": "3792","farm": "4","userId": "71615487@N00","secret": "d76a3e96ef","title": "Monsters coming to town #MonstersInc","loc": {"type": "Point","coordinates": [103.801575,1.273665]}} 
{"id": "8945405150","server": "7327","farm": "8","userId": "71615487@N00","secret": "c53daa4d32","title": "#Foodtographer #Food #Beef","loc": {"type": "Point","coordinates": [103.801575,1.273665]}} 
{"id": "8920209999","server": "7289","farm": "8","userId": "21997205@N00","secret": "5418593478","title": "On set with film director Lee Thean-Jeen.","loc": {"type": "Point","coordinates": [103.79948,1.274652]}} 
{"id": "8920232955","server": "3772","farm": "4","userId": "21997205@N00","secret": "83dba7522f","title": "With PM Chick on location...","loc": {"type": "Point","coordinates": [103.79948,1.274652]}} 
{"id": "8920749774","server": "3827","farm": "4","userId": "21997205@N00","secret": "cdcf21f7b1","title": "Joakim, myself, and Shireen.","loc": {"type": "Point","coordinates": [103.79948,1.274652]}} 
{"id": "8920730866","server": "5326","farm": "6","userId": "21997205@N00","secret": "2a08b5f512","title": "I'm the real deal, okay?","loc": {"type": "Point","coordinates": [103.79948,1.274652]}} 
{"id": "8919595768","server": "3729","farm": "4","userId": "21997205@N00","secret": "87fe329685","title": "Mural","loc": {"type": "Point","coordinates": [103.79948,1.274652]}} 
{"id": "8918956913","server": "8135","farm": "9","userId": "21997205@N00","secret": "36f7f9bd90","title": "Trumpets","loc": {"type": "Point","coordinates": [103.79948,1.274652]}} 
{"id": "8918230116","server": "7289","farm": "8","userId": "21997205@N00","secret": "c5bc37bc22","title": "Morning shoot.","loc": {"type": "Point","coordinates": [103.79948,1.274652]}} 
{"id": "8918124628","server": "2889","farm": "3","userId": "21997205@N00","secret": "3a5575f87a","title": "Morning shoot.","loc": {"type": "Point","coordinates": [103.79948,1.274652]}} 
{"id": "8875206638","server": "7340","farm": "8","userId": "71615487@N00","secret": "a4798726bd","title": "upload","loc": {"type": "Point","coordinates": [103.8,1.274776]}} 
{"id": "8862942683","server": "2875","farm": "3","userId": "65526809@N00","secret": "652a064ea9","title": "#randomtext that makes no sense","loc": {"type": "Point","coordinates": [103.802216,1.272378]}} 
{"id": "8761323849","server": "3672","farm": "4","userId": "52537869@N00","secret": "c2555c6131","title": "Cloudy day","loc": {"type": "Point","coordinates": [103.802185,1.272261]}} 
{"id": "8743683873","server": "7286","farm": "8","userId": "22535240@N00","secret": "e1d69b4a8a","title": "McDonald's Red Peri Scorcher!","loc": {"type": "Point","coordinates": [103.80173,1.274566]}} 
{"id": "8725811890","server": "7322","farm": "8","userId": "64933363@N06","secret": "e5f4812d30","title": "yeahhhh @hyperisland you say hi you get a beer. fantastic!","loc": {"type": "Point","coordinates": [103.80336,1.273884]}} 
{"id": "8722878988","server": "7310","farm": "8","userId": "64933363@N06","secret": "269d0ecb71","title": "president of the united states art directing a mobile app project #obama @hyperisland #himc","loc": {"type": "Point","coordinates": [103.80336,1.273884]}} 
{"id": "8713174415","server": "8269","farm": "9","userId": "29842984@N00","secret": "27a071c13b","title": "The view from Pasir Panjang","loc": {"type": "Point","coordinates": [103.79825,1.27515]}} 
{"id": "8714287764","server": "8406","farm": "9","userId": "29842984@N00","secret": "e0206591d8","title": "Keppel Harbour","loc": {"type": "Point","coordinates": [103.79825,1.27515]}} 
{"id": "8711947999","server": "8132","farm": "9","userId": "64933363@N06","secret": "e71a458f3b","title": "switch off use your mobile phone #himc #MobileLab #hyperisland","loc": {"type": "Point","coordinates": [103.80336,1.273884]}} 
{"id": "8691852223","server": "8116","farm": "9","userId": "46275416@N04","secret": "288824bba7","title": "Telok Blangah Area","loc": {"type": "Point","coordinates": [103.80379,1.274673]}} 
{"id": "8650398657","server": "8520","farm": "9","userId": "96289040@N00","secret": "711f9c34e7","title": "Bank Run","loc": {"type": "Point","coordinates": [103.79801,1.27492]}} 
{"id": "8644000425","server": "8114","farm": "9","userId": "75976719@N00","secret": "c4a7d9f5cc","title": "Social media art","loc": {"type": "Point","coordinates": [103.803894,1.277536]}} 
{"id": "8645070518","server": "8546","farm": "9","userId": "75976719@N00","secret": "0a034bb8e9","title": "Art is not always high","loc": {"type": "Point","coordinates": [103.803894,1.277536]}} 
{"id": "8645065826","server": "8266","farm": "9","userId": "75976719@N00","secret": "348d4eb86c","title": "Yang Fudong","loc": {"type": "Point","coordinates": [103.803894,1.277536]}} 
{"id": "8642839362","server": "8526","farm": "9","userId": "76161318@N08","secret": "958fbd6c03","title": "Imagination Singapore","loc": {"type": "Point","coordinates": [103.79419,1.276221]}} 
{"id": "8630782002","server": "8527","farm": "9","userId": "80217014@N00","secret": "acdd1b683f","title": "Monday ride and lunch","loc": {"type": "Point","coordinates": [103.794914,1.275209]}} 
{"id": "8616137717","server": "8252","farm": "9","userId": "14385475@N05","secret": "ace52d6657","title": "IMG_4339","loc": {"type": "Point","coordinates": [103.80383,1.275833]}} 
{"id": "8617245304","server": "8390","farm": "9","userId": "14385475@N05","secret": "b54d3fef46","title": "IMG_4340","loc": {"type": "Point","coordinates": [103.803665,1.275166]}} 
{"id": "8616139997","server": "8395","farm": "9","userId": "14385475@N05","secret": "58818cff49","title": "IMG_4341","loc": {"type": "Point","coordinates": [103.8035,1.275]}} 
{"id": "8617243028","server": "8259","farm": "9","userId": "14385475@N05","secret": "607fac91e1","title": "IMG_4338","loc": {"type": "Point","coordinates": [103.8035,1.2765]}} 
{"id": "8617247274","server": "8124","farm": "9","userId": "14385475@N05","secret": "b2b250c13e","title": "IMG_4342","loc": {"type": "Point","coordinates": [103.8035,1.275666]}} 
{"id": "8616135917","server": "8531","farm": "9","userId": "14385475@N05","secret": "b9f3853d83","title": "IMG_4337","loc": {"type": "Point","coordinates": [103.80333,1.275]}} 
{"id": "8617238538","server": "8543","farm": "9","userId": "14385475@N05","secret": "76204c49ac","title": "IMG_4333","loc": {"type": "Point","coordinates": [103.803,1.277166]}} 
{"id": "8616133105","server": "8105","farm": "9","userId": "14385475@N05","secret": "66edbc1532","title": "IMG_4334","loc": {"type": "Point","coordinates": [103.80317,1.277333]}} 
{"id": "8617240064","server": "8383","farm": "9","userId": "14385475@N05","secret": "9af8e0495f","title": "IMG_4335","loc": {"type": "Point","coordinates": [103.80317,1.277333]}} 
{"id": "8616129429","server": "8519","farm": "9","userId": "14385475@N05","secret": "9d5278a9a8","title": "IMG_4344","loc": {"type": "Point","coordinates": [103.80383,1.275833]}} 
{"id": "8617241416","server": "8543","farm": "9","userId": "14385475@N05","secret": "f87f49d281","title": "IMG_4336","loc": {"type": "Point","coordinates": [103.80333,1.275]}} 
{"id": "8606920338","server": "8395","farm": "9","userId": "52689468@N00","secret": "869c06fc5e","title": "IMG_9343","loc": {"type": "Point","coordinates": [103.80383,1.278]}} 
{"id": "8605812373","server": "8255","farm": "9","userId": "52689468@N00","secret": "8ca69c0d27","title": "IMG_9341","loc": {"type": "Point","coordinates": [103.80383,1.277833]}} 
{"id": "8602553615","server": "8121","farm": "9","userId": "62326582@N00","secret": "fbe500d84c","title": "Dark Glassy Tiger","loc": {"type": "Point","coordinates": [103.8009,1.277955]}} 
{"id": "8603656614","server": "8406","farm": "9","userId": "62326582@N00","secret": "f353c73d7d","title": "Plain Tiger","loc": {"type": "Point","coordinates": [103.8003,1.278427]}} 
{"id": "8602549147","server": "8543","farm": "9","userId": "62326582@N00","secret": "a85f02e018","title": "Plain Tiger","loc": {"type": "Point","coordinates": [103.80112,1.277912]}} 
{"id": "8601732557","server": "8522","farm": "9","userId": "21997205@N00","secret": "6f30a62beb","title": "My quick 5-min Pentel Pocket Brushpen sketch of the Balinese gateway at Gillman Barrack's Timbre, done just in time for the show-and-tell session. Will add colour later.","loc": {"type": "Point","coordinates": [103.80394,1.278412]}} 
{"id": "8601724925","server": "8540","farm": "9","userId": "21997205@N00","secret": "4b42950b1f","title": "My watercolour painting of the Balinese gateway at Gillman Barrack's Timbre.","loc": {"type": "Point","coordinates": [103.80394,1.278412]}} 
{"id": "8602826804","server": "8106","farm": "9","userId": "21997205@N00","secret": "334b683be8","title": "My watercolour painting of the Balinese gateway at Gillman Barrack's Timbre.","loc": {"type": "Point","coordinates": [103.80394,1.278412]}} 
{"id": "8602816826","server": "8520","farm": "9","userId": "21997205@N00","secret": "eec8e56b36","title": "Post-sketchwalk lunch at Masons at Gillman Barracks: Asian Duck Pizza and Coffee (S$10++).","loc": {"type": "Point","coordinates": [103.80378,1.277754]}} 
{"id": "8539945351","server": "8375","farm": "9","userId": "17528871@N00","secret": "643bbd64b3","title": "Eggs Benedict ala Prata","loc": {"type": "Point","coordinates": [103.79527,1.275056]}} 
{"id": "8519918367","server": "8242","farm": "9","userId": "25802865@N08","secret": "f786169cd7","title": "PSA Building","loc": {"type": "Point","coordinates": [103.80158,1.273257]}} 
{"id": "8519244411","server": "8236","farm": "9","userId": "17528871@N00","secret": "4e54963e4a","title": "All I need to start a day. Classic kopitiam grub and a good book. Namely Kevin Sites' #TheThingsTheyCannotSay","loc": {"type": "Point","coordinates": [103.79539,1.27495]}} 
{"id": "8519214612","server": "8517","farm": "9","userId": "93689389@N04","secret": "f92bd63110","title": "Testing Flickr","loc": {"type": "Point","coordinates": [103.79994,1.277891]}} 
{"id": "8513810733","server": "8386","farm": "9","userId": "14385475@N05","secret": "1271b1235b","title": "IMG_3328","loc": {"type": "Point","coordinates": [103.80217,1.274666]}} 
{"id": "8513809061","server": "8229","farm": "9","userId": "14385475@N05","secret": "e97372e300","title": "IMG_3327","loc": {"type": "Point","coordinates": [103.803,1.276833]}} 
{"id": "8514916690","server": "8532","farm": "9","userId": "14385475@N05","secret": "b95dc29828","title": "IMG_3325","loc": {"type": "Point","coordinates": [103.8035,1.277499]}} 
{"id": "8513816885","server": "8366","farm": "9","userId": "14385475@N05","secret": "1c8399e7ea","title": "IMG_3333","loc": {"type": "Point","coordinates": [103.80233,1.273499]}} 
{"id": "8514914476","server": "8392","farm": "9","userId": "14385475@N05","secret": "79179b5e05","title": "IMG_3324","loc": {"type": "Point","coordinates": [103.8035,1.277499]}} 
{"id": "8513815291","server": "8527","farm": "9","userId": "14385475@N05","secret": "b46110d18c","title": "IMG_3332","loc": {"type": "Point","coordinates": [103.80233,1.2745]}} 
{"id": "8514918904","server": "8517","farm": "9","userId": "14385475@N05","secret": "4ed1c389fc","title": "IMG_3326","loc": {"type": "Point","coordinates": [103.80317,1.276166]}} 
{"id": "8514923982","server": "8098","farm": "9","userId": "14385475@N05","secret": "d45df65e03","title": "IMG_3330","loc": {"type": "Point","coordinates": [103.80233,1.273833]}} 
{"id": "8513813537","server": "8514","farm": "9","userId": "14385475@N05","secret": "0564279c6d","title": "IMG_3331","loc": {"type": "Point","coordinates": [103.80233,1.273833]}} 
{"id": "8512433718","server": "8252","farm": "9","userId": "64519864@N00","secret": "d3db811d35","title": "Me with my uncles","loc": {"type": "Point","coordinates": [103.802216,1.272378]}} 
{"id": "8512432658","server": "8379","farm": "9","userId": "64519864@N00","secret": "a2e47fa0d5","title": "Jenia with the boys","loc": {"type": "Point","coordinates": [103.802216,1.272378]}} 
{"id": "8511319947","server": "8383","farm": "9","userId": "64519864@N00","secret": "22cbe6a199","title": "Labrador Park","loc": {"type": "Point","coordinates": [103.802216,1.272378]}} 
{"id": "8503764194","server": "8239","farm": "9","userId": "69589505@N06","secret": "dc8a5c05ec","title": "心","loc": {"type": "Point","coordinates": [103.80012,1.278492]}} 
{"id": "8499607021","server": "8109","farm": "9","userId": "14932126@N08","secret": "639e41b037","title": "IMG_0100","loc": {"type": "Point","coordinates": [103.798996,1.277166]}} 
{"id": "8499553311","server": "8236","farm": "9","userId": "14932126@N08","secret": "e40e848145","title": "IMG_0013","loc": {"type": "Point","coordinates": [103.798164,1.2785]}} 
{"id": "8495228936","server": "8088","farm": "9","userId": "14932126@N08","secret": "fdf7c8e8b6","title": "","loc": {"type": "Point","coordinates": [103.798996,1.277166]}} 
{"id": "8486490550","server": "8234","farm": "9","userId": "14385475@N05","secret": "6350451253","title": "IMG_2857","loc": {"type": "Point","coordinates": [103.80033,1.275333]}} 
{"id": "8485390221","server": "8516","farm": "9","userId": "14385475@N05","secret": "e728173b5a","title": "IMG_2853","loc": {"type": "Point","coordinates": [103.8025,1.276]}} 
{"id": "8485368541","server": "8374","farm": "9","userId": "14385475@N05","secret": "074a793dc7","title": "IMG_2845","loc": {"type": "Point","coordinates": [103.8005,1.275499]}} 
{"id": "8485388223","server": "8248","farm": "9","userId": "14385475@N05","secret": "6a868d820b","title": "IMG_2852","loc": {"type": "Point","coordinates": [103.8025,1.276]}} 
{"id": "8485397153","server": "8376","farm": "9","userId": "14385475@N05","secret": "beca70c5f8","title": "IMG_2856","loc": {"type": "Point","coordinates": [103.80033,1.275333]}} 
{"id": "8486483470","server": "8524","farm": "9","userId": "14385475@N05","secret": "be43c95ecd","title": "IMG_2854","loc": {"type": "Point","coordinates": [103.8025,1.276]}} 
{"id": "8485393867","server": "8091","farm": "9","userId": "14385475@N05","secret": "3243af4965","title": "IMG_2855","loc": {"type": "Point","coordinates": [103.801,1.275499]}} 
{"id": "8486466074","server": "8103","farm": "9","userId": "14385475@N05","secret": "bd79aac310","title": "IMG_2847","loc": {"type": "Point","coordinates": [103.804,1.277166]}} 
{"id": "8486463312","server": "8382","farm": "9","userId": "14385475@N05","secret": "687c0f6b5c","title": "IMG_2846","loc": {"type": "Point","coordinates": [103.8005,1.275499]}} 
{"id": "8486455982","server": "8369","farm": "9","userId": "14385475@N05","secret": "a302378c77","title": "IMG_2843","loc": {"type": "Point","coordinates": [103.80067,1.275499]}} 
{"id": "8486458142","server": "8247","farm": "9","userId": "14385475@N05","secret": "a9bf0b15e0","title": "IMG_2844","loc": {"type": "Point","coordinates": [103.80067,1.275499]}} 
{"id": "8486451160","server": "8374","farm": "9","userId": "14385475@N05","secret": "f5d9929a65","title": "IMG_2841","loc": {"type": "Point","coordinates": [103.803665,1.277333]}} 
{"id": "8486453454","server": "8231","farm": "9","userId": "14385475@N05","secret": "cf80c26188","title": "IMG_2842","loc": {"type": "Point","coordinates": [103.803665,1.277499]}} 
{"id": "8485357383","server": "8380","farm": "9","userId": "14385475@N05","secret": "91832decfe","title": "IMG_2840","loc": {"type": "Point","coordinates": [103.80033,1.275333]}} 
{"id": "8474140287","server": "8101","farm": "9","userId": "79225464@N00","secret": "918656dfc7","title": "","loc": {"type": "Point","coordinates": [103.80211,1.277432]}} 
{"id": "8475226654","server": "8252","farm": "9","userId": "79225464@N00","secret": "ac6a3ef41e","title": "Into the Futuristic Rabbit Hole","loc": {"type": "Point","coordinates": [103.80214,1.276942]}} 
{"id": "8455501890","server": "8527","farm": "9","userId": "93005346@N02","secret": "37a8ac27c9","title": "Pozzie with Pozzie illo","loc": {"type": "Point","coordinates": [103.801315,1.273772]}} 
{"id": "8455502040","server": "8241","farm": "9","userId": "93005346@N02","secret": "bc9f6800a3","title": "Lego lighthouse","loc": {"type": "Point","coordinates": [103.801315,1.273772]}} 
{"id": "8455501956","server": "8382","farm": "9","userId": "93005346@N02","secret": "bf1b1530df","title": "Pozzie and MPA's 2013 calendar","loc": {"type": "Point","coordinates": [103.801315,1.273772]}} 
{"id": "8454041169","server": "8240","farm": "9","userId": "93005346@N02","secret": "c9b9a7ec5a","title": "All set for the lunar new year!","loc": {"type": "Point","coordinates": [103.801315,1.273772]}} 
{"id": "8454041357","server": "8529","farm": "9","userId": "93005346@N02","secret": "33706b6106","title": "Singapore Nautilus","loc": {"type": "Point","coordinates": [103.801315,1.273772]}} 
{"id": "8455132786","server": "8238","farm": "9","userId": "93005346@N02","secret": "9805c3c1ff","title": "Ding ding~","loc": {"type": "Point","coordinates": [103.801315,1.273772]}} 
{"id": "8454041517","server": "8238","farm": "9","userId": "93005346@N02","secret": "330288f690","title": "MPA's reception area","loc": {"type": "Point","coordinates": [103.801315,1.273772]}} 
{"id": "8455134760","server": "8245","farm": "9","userId": "93005346@N02","secret": "b472db7ffb","title": "MPA_05","loc": {"type": "Point","coordinates": [103.801315,1.273772]}} 
{"id": "8451790375","server": "8511","farm": "9","userId": "58794706@N05","secret": "d6768de008","title": "Glutinous Rice with Foie Gras and Preserved Meat","loc": {"type": "Point","coordinates": [103.79961,1.274637]}} 
{"id": "8430392536","server": "8073","farm": "9","userId": "26495703@N06","secret": "3e17cd8044","title": "Ribeye with hollandaise sauce done to medium rare perfection.","loc": {"type": "Point","coordinates": [103.80336,1.273709]}} 
{"id": "8407011381","server": "8472","farm": "9","userId": "65512718@N08","secret": "5c63abd2c2","title": "Queen Of My Heart","loc": {"type": "Point","coordinates": [103.80295,1.277054]}} 
{"id": "8413473571","server": "8238","farm": "9","userId": "14385475@N05","secret": "e62b166aa8","title": "IMG_1576","loc": {"type": "Point","coordinates": [103.8035,1.276833]}} 
{"id": "8414576070","server": "8463","farm": "9","userId": "14385475@N05","secret": "a1655bb1a0","title": "IMG_1579","loc": {"type": "Point","coordinates": [103.80317,1.277166]}} 
{"id": "8413476851","server": "8331","farm": "9","userId": "14385475@N05","secret": "3703c5cdce","title": "IMG_1580","loc": {"type": "Point","coordinates": [103.8035,1.277]}} 
{"id": "8414568950","server": "8222","farm": "9","userId": "14385475@N05","secret": "84721167d7","title": "IMG_1570","loc": {"type": "Point","coordinates": [103.8035,1.275499]}} 
{"id": "8414572126","server": "8330","farm": "9","userId": "14385475@N05","secret": "7800f0f85a","title": "IMG_1574","loc": {"type": "Point","coordinates": [103.80333,1.276833]}} 
{"id": "8413475079","server": "8507","farm": "9","userId": "14385475@N05","secret": "cf009e17b0","title": "IMG_1578","loc": {"type": "Point","coordinates": [103.803,1.277333]}} 
{"id": "8413477815","server": "8506","farm": "9","userId": "14385475@N05","secret": "ef2281efc4","title": "IMG_1581","loc": {"type": "Point","coordinates": [103.80333,1.277499]}} 
{"id": "8413470483","server": "8353","farm": "9","userId": "14385475@N05","secret": "14611fa024","title": "IMG_1572","loc": {"type": "Point","coordinates": [103.80333,1.277166]}} 
{"id": "8414569732","server": "8217","farm": "9","userId": "14385475@N05","secret": "36ec0e344c","title": "IMG_1571","loc": {"type": "Point","coordinates": [103.8035,1.275499]}} 
{"id": "8414572850","server": "8333","farm": "9","userId": "14385475@N05","secret": "58bca727a1","title": "IMG_1575","loc": {"type": "Point","coordinates": [103.8035,1.2765]}} 
{"id": "8413468059","server": "8378","farm": "9","userId": "14385475@N05","secret": "9626ac6340","title": "IMG_1569","loc": {"type": "Point","coordinates": [103.80317,1.274833]}} 
{"id": "8413460641","server": "8043","farm": "9","userId": "14385475@N05","secret": "c22f3d95b2","title": "IMG_1561","loc": {"type": "Point","coordinates": [103.80417,1.275]}} 
{"id": "8413461493","server": "8375","farm": "9","userId": "14385475@N05","secret": "edc31ddc60","title": "IMG_1562","loc": {"type": "Point","coordinates": [103.80417,1.275666]}} 
{"id": "8413459875","server": "8094","farm": "9","userId": "14385475@N05","secret": "38a84aaee4","title": "IMG_1560","loc": {"type": "Point","coordinates": [103.80417,1.275]}} 
{"id": "8413456673","server": "8196","farm": "9","userId": "14385475@N05","secret": "563e39410f","title": "IMG_1556","loc": {"type": "Point","coordinates": [103.80283,1.275]}} 
{"id": "8413457665","server": "8491","farm": "9","userId": "14385475@N05","secret": "7b758e4766","title": "IMG_1557","loc": {"type": "Point","coordinates": [103.803665,1.275166]}} 
{"id": "8414562450","server": "8326","farm": "9","userId": "14385475@N05","secret": "2763fd0f46","title": "IMG_1563","loc": {"type": "Point","coordinates": [103.803,1.275333]}} 
{"id": "8413463935","server": "8051","farm": "9","userId": "14385475@N05","secret": "05bff6b335","title": "IMG_1565","loc": {"type": "Point","coordinates": [103.80333,1.275333]}} 
{"id": "8414558362","server": "8473","farm": "9","userId": "14385475@N05","secret": "706b6c7c8b","title": "IMG_1558","loc": {"type": "Point","coordinates": [103.80383,1.275]}} 
{"id": "8414559082","server": "8072","farm": "9","userId": "14385475@N05","secret": "2bb5380195","title": "IMG_1559","loc": {"type": "Point","coordinates": [103.80417,1.275]}} 
{"id": "8414563086","server": "8476","farm": "9","userId": "14385475@N05","secret": "ae825baf97","title": "Louis & Jiekai","loc": {"type": "Point","coordinates": [103.803,1.275333]}} 
{"id": "8414565234","server": "8044","farm": "9","userId": "14385475@N05","secret": "13aa78a958","title": "IMG_1566","loc": {"type": "Point","coordinates": [103.803,1.275499]}} 
{"id": "8413057042","server": "8075","farm": "9","userId": "14385475@N05","secret": "9600ee8365","title": "IMG_1504","loc": {"type": "Point","coordinates": [103.80317,1.277499]}} 
{"id": "8413054626","server": "8358","farm": "9","userId": "14385475@N05","secret": "cee6cf4883","title": "IMG_1501","loc": {"type": "Point","coordinates": [103.80333,1.277499]}} 
{"id": "8411959235","server": "8509","farm": "9","userId": "14385475@N05","secret": "9f7b774c9e","title": "IMG_1510","loc": {"type": "Point","coordinates": [103.80317,1.275333]}} 
{"id": "8411955839","server": "8362","farm": "9","userId": "14385475@N05","secret": "bb7092401a","title": "IMG_1503","loc": {"type": "Point","coordinates": [103.80333,1.277499]}} 
{"id": "8411955007","server": "8098","farm": "9","userId": "14385475@N05","secret": "01d2fcbc8e","title": "IMG_1502","loc": {"type": "Point","coordinates": [103.80333,1.277499]}} 
{"id": "8413060326","server": "8514","farm": "9","userId": "14385475@N05","secret": "1dcbf98e00","title": "IMG_1508","loc": {"type": "Point","coordinates": [103.80317,1.275333]}} 
{"id": "8411957283","server": "8368","farm": "9","userId": "14385475@N05","secret": "f3c2489cfb","title": "IMG_1505","loc": {"type": "Point","coordinates": [103.80333,1.277333]}} 
{"id": "8413059250","server": "8509","farm": "9","userId": "14385475@N05","secret": "e93e52b41f","title": "IMG_1507","loc": {"type": "Point","coordinates": [103.804,1.275666]}} 
{"id": "8411957925","server": "8325","farm": "9","userId": "14385475@N05","secret": "4b4e4c18cc","title": "IMG_1506","loc": {"type": "Point","coordinates": [103.80333,1.277333]}} 
{"id": "8411960507","server": "8491","farm": "9","userId": "14385475@N05","secret": "13ce5d8258","title": "IMG_1509","loc": {"type": "Point","coordinates": [103.80417,1.276333]}} 
{"id": "8409076720","server": "8051","farm": "9","userId": "22535240@N00","secret": "ea527f9c2b","title": "Second McDonald's outlet in 5 hours, McDouble and large Coke Light.","loc": {"type": "Point","coordinates": [103.80173,1.274566]}} 
{"id": "8405158141","server": "8329","farm": "9","userId": "14385475@N05","secret": "24ecd54947","title": "IMG_1397","loc": {"type": "Point","coordinates": [103.8035,1.276166]}} 
{"id": "8405141461","server": "8192","farm": "9","userId": "14385475@N05","secret": "ac83a276d3","title": "IMG_1379","loc": {"type": "Point","coordinates": [103.80383,1.276333]}} 
{"id": "8406236126","server": "8238","farm": "9","userId": "14385475@N05","secret": "4274a2a50a","title": "IMG_1381","loc": {"type": "Point","coordinates": [103.80383,1.275666]}} 
{"id": "8405140493","server": "8470","farm": "9","userId": "14385475@N05","secret": "b644f9a027","title": "IMG_1378","loc": {"type": "Point","coordinates": [103.803665,1.276166]}} 
{"id": "8405145267","server": "8506","farm": "9","userId": "14385475@N05","secret": "50d05ee25c","title": "IMG_1382","loc": {"type": "Point","coordinates": [103.803665,1.275499]}} 
{"id": "8405157317","server": "8475","farm": "9","userId": "14385475@N05","secret": "4a9cfc5dfc","title": "IMG_1395","loc": {"type": "Point","coordinates": [103.80333,1.2765]}} 
{"id": "8405156113","server": "8374","farm": "9","userId": "14385475@N05","secret": "d0908acfb7","title": "IMG_1394","loc": {"type": "Point","coordinates": [103.80333,1.275333]}} 
{"id": "8406235026","server": "8465","farm": "9","userId": "14385475@N05","secret": "7547329e00","title": "IMG_1380","loc": {"type": "Point","coordinates": [103.80383,1.276333]}} 
{"id": "8405153747","server": "8353","farm": "9","userId": "14385475@N05","secret": "55fe5fbe3f","title": "IMG_1391","loc": {"type": "Point","coordinates": [103.80333,1.275333]}} 
{"id": "8405138559","server": "8049","farm": "9","userId": "14385475@N05","secret": "340b6fc975","title": "IMG_1374","loc": {"type": "Point","coordinates": [103.803665,1.277499]}} 
{"id": "8406232092","server": "8045","farm": "9","userId": "14385475@N05","secret": "2e035158bc","title": "IMG_1377","loc": {"type": "Point","coordinates": [103.804,1.275833]}} 
{"id": "8406229570","server": "8232","farm": "9","userId": "14385475@N05","secret": "5a4628554b","title": "IMG_1376","loc": {"type": "Point","coordinates": [103.804,1.275666]}} 
{"id": "8405109851","server": "8221","farm": "9","userId": "14385475@N05","secret": "db7a42db62","title": "IMG_1375","loc": {"type": "Point","coordinates": [103.80333,1.275833]}} 
{"id": "8406075024","server": "8492","farm": "9","userId": "14385475@N05","secret": "22bdf5dbd4","title": "IMG_1373","loc": {"type": "Point","coordinates": [103.8035,1.277333]}} 
{"id": "8404979909","server": "8509","farm": "9","userId": "14385475@N05","secret": "36bcf21841","title": "IMG_1371","loc": {"type": "Point","coordinates": [103.803665,1.277499]}} 
{"id": "8404966829","server": "8053","farm": "9","userId": "14385475@N05","secret": "4ba3cc91b6","title": "IMG_1365","loc": {"type": "Point","coordinates": [103.80333,1.277499]}} 
{"id": "8404977641","server": "8324","farm": "9","userId": "14385475@N05","secret": "217bd70b4d","title": "IMG_1370","loc": {"type": "Point","coordinates": [103.803665,1.277499]}} 
{"id": "8404975371","server": "8375","farm": "9","userId": "14385475@N05","secret": "0d976e1e0a","title": "IMG_1369","loc": {"type": "Point","coordinates": [103.803665,1.277499]}} 
{"id": "8404954357","server": "8085","farm": "9","userId": "14385475@N05","secret": "7f1b066657","title": "IMG_1361","loc": {"type": "Point","coordinates": [103.80217,1.275]}} 
{"id": "8404957835","server": "8215","farm": "9","userId": "14385475@N05","secret": "84b8b748b9","title": "IMG_1362","loc": {"type": "Point","coordinates": [103.8035,1.276166]}} 
{"id": "8406065254","server": "8090","farm": "9","userId": "14385475@N05","secret": "d21beee1cd","title": "IMG_1367","loc": {"type": "Point","coordinates": [103.80333,1.277499]}} 
{"id": "8404962789","server": "8495","farm": "9","userId": "14385475@N05","secret": "9dcd2dc035","title": "IMG_1364","loc": {"type": "Point","coordinates": [103.80333,1.277499]}} 
{"id": "8406053538","server": "8371","farm": "9","userId": "14385475@N05","secret": "3cb7b07c01","title": "IMG_1363","loc": {"type": "Point","coordinates": [103.80333,1.277499]}} 
{"id": "8404973745","server": "8232","farm": "9","userId": "14385475@N05","secret": "d959bd87f2","title": "IMG_1368","loc": {"type": "Point","coordinates": [103.8035,1.277499]}} 
{"id": "8406036172","server": "8231","farm": "9","userId": "14385475@N05","secret": "394da1b869","title": "IMG_1358","loc": {"type": "Point","coordinates": [103.80333,1.277499]}} 
{"id": "8406019714","server": "8230","farm": "9","userId": "14385475@N05","secret": "5abf537a11","title": "IMG_1354","loc": {"type": "Point","coordinates": [103.80333,1.277499]}} 
{"id": "8406033060","server": "8503","farm": "9","userId": "14385475@N05","secret": "0c95e7701d","title": "IMG_1357","loc": {"type": "Point","coordinates": [103.80317,1.277499]}} 
{"id": "8406043414","server": "8328","farm": "9","userId": "14385475@N05","secret": "cb49d7efaf","title": "IMG_1360","loc": {"type": "Point","coordinates": [103.802,1.275166]}} 
{"id": "8406022472","server": "8496","farm": "9","userId": "14385475@N05","secret": "7d1b376138","title": "IMG_1355","loc": {"type": "Point","coordinates": [103.8035,1.277333]}} 
{"id": "8404936003","server": "8186","farm": "9","userId": "14385475@N05","secret": "254dc26d2f","title": "IMG_1356","loc": {"type": "Point","coordinates": [103.8035,1.277333]}} 
{"id": "8406039432","server": "8183","farm": "9","userId": "14385475@N05","secret": "c94f4073ed","title": "IMG_1359","loc": {"type": "Point","coordinates": [103.80333,1.277499]}} 
{"id": "8406014192","server": "8087","farm": "9","userId": "14385475@N05","secret": "2197691e2e","title": "IMG_1352","loc": {"type": "Point","coordinates": [103.8035,1.277499]}} 
{"id": "8404924179","server": "8190","farm": "9","userId": "14385475@N05","secret": "6b01642b68","title": "IMG_1353","loc": {"type": "Point","coordinates": [103.80317,1.277499]}} 
{"id": "8406011058","server": "8471","farm": "9","userId": "14385475@N05","secret": "3b7c1e1e23","title": "IMG_1351","loc": {"type": "Point","coordinates": [103.8035,1.277499]}} 
{"id": "8406008544","server": "8075","farm": "9","userId": "14385475@N05","secret": "82b7211835","title": "IMG_1350","loc": {"type": "Point","coordinates": [103.8035,1.277499]}} 
{"id": "8405965042","server": "8497","farm": "9","userId": "14385475@N05","secret": "877c647288","title": "IMG_1372","loc": {"type": "Point","coordinates": [103.803665,1.277499]}} 
{"id": "8394725873","server": "8335","farm": "9","userId": "22535240@N00","secret": "2f77179f4f","title": "Prosperity supper consisting of Prosperity Pie and Prosperity McFizz, sure prosper one.","loc": {"type": "Point","coordinates": [103.80173,1.274566]}} 
{"id": "8392535062","server": "8081","farm": "9","userId": "82417989@N04","secret": "468c57ca4b","title": "#findarteverywhere; #Singapore","loc": {"type": "Point","coordinates": [103.80414,1.277529]}} 
{"id": "8389853598","server": "8052","farm": "9","userId": "14385475@N05","secret": "637b4232ed","title": "IMG_1105","loc": {"type": "Point","coordinates": [103.80333,1.277499]}} 
{"id": "8381096184","server": "8232","farm": "9","userId": "14385475@N05","secret": "1d1c1efd42","title": "IMG_0908","loc": {"type": "Point","coordinates": [103.803,1.277499]}} 
{"id": "8381097094","server": "8214","farm": "9","userId": "14385475@N05","secret": "98680968e0","title": "IMG_0909","loc": {"type": "Point","coordinates": [103.803,1.277499]}} 
{"id": "8380015939","server": "8518","farm": "9","userId": "14385475@N05","secret": "6f05c755e5","title": "IMG_0907","loc": {"type": "Point","coordinates": [103.80233,1.276333]}} 
{"id": "8380018907","server": "8045","farm": "9","userId": "14385475@N05","secret": "da9b786695","title": "Gillman Barracks","loc": {"type": "Point","coordinates": [103.80333,1.277833]}} 
{"id": "8376492100","server": "8224","farm": "9","userId": "36579035@N04","secret": "f3938178a0","title": "Lazy Monkey. Fast muna for dinner #dinner #mcdonalds #mcdo #lovekoto","loc": {"type": "Point","coordinates": [103.80173,1.274566]}} 
{"id": "8372427086","server": "8334","farm": "9","userId": "17528871@N00","secret": "36a519d12c","title": "An Honest Meal.","loc": {"type": "Point","coordinates": [103.79539,1.27495]}} 
{"id": "8352518357","server": "8357","farm": "9","userId": "37147643@N02","secret": "8b67416bd8","title": "6Jan2013","loc": {"type": "Point","coordinates": [103.80384,1.277784]}} 
{"id": "8350150532","server": "8237","farm": "9","userId": "16102830@N05","secret": "c08e15ee25","title": "1210_OctoberRandoms_HR_125","loc": {"type": "Point","coordinates": [103.7975,1.275]}} 
{"id": "8350151084","server": "8467","farm": "9","userId": "16102830@N05","secret": "0e568d2243","title": "1210_OctoberRandoms_HR_123","loc": {"type": "Point","coordinates": [103.7975,1.275]}} 
{"id": "8349088341","server": "8498","farm": "9","userId": "16102830@N05","secret": "2009e00748","title": "1210_OctoberRandoms_HR_126","loc": {"type": "Point","coordinates": [103.7975,1.275]}} 
{"id": "8350151388","server": "8506","farm": "9","userId": "16102830@N05","secret": "84e66965e7","title": "1210_OctoberRandoms_HR_122","loc": {"type": "Point","coordinates": [103.7975,1.275]}} 
{"id": "8350150782","server": "8219","farm": "9","userId": "16102830@N05","secret": "35294ebef7","title": "1210_OctoberRandoms_HR_124","loc": {"type": "Point","coordinates": [103.7975,1.275]}} 
{"id": "8350098084","server": "8365","farm": "9","userId": "16102830@N05","secret": "66a693682e","title": "1209_SeptemberRandoms_HR_285","loc": {"type": "Point","coordinates": [103.79683,1.275166]}} 
{"id": "8307498796","server": "8355","farm": "9","userId": "22535240@N00","secret": "369dc99664","title": "All time favorite Maggi Goreng!","loc": {"type": "Point","coordinates": [103.79532,1.27509]}} 
{"id": "8305241338","server": "8079","farm": "9","userId": "88189322@N05","secret": "9517f3940d","title": "2012-09-19 10.18.07","loc": {"type": "Point","coordinates": [103.801834,1.272166]}} 
{"id": "8305241050","server": "8351","farm": "9","userId": "88189322@N05","secret": "3acd802d9b","title": "2012-09-19 10.19.24","loc": {"type": "Point","coordinates": [103.801834,1.271833]}} 
{"id": "8275530261","server": "8345","farm": "9","userId": "29011891@N00","secret": "83398d7187","title": "Leaves","loc": {"type": "Point","coordinates": [103.8024,1.273622]}} 
{"id": "8276594544","server": "8074","farm": "9","userId": "29011891@N00","secret": "56b474a821","title": "More leaves","loc": {"type": "Point","coordinates": [103.80306,1.272978]}} 
{"id": "8268621113","server": "8071","farm": "9","userId": "23015933@N00","secret": "6a5bb2f763","title": "Testing","loc": {"type": "Point","coordinates": [103.80235,1.272235]}} 
{"id": "8254462952","server": "8355","farm": "9","userId": "40138859@N02","secret": "cffa7d6ec2","title": "There is really no other way to write this.","loc": {"type": "Point","coordinates": [103.80136,1.273751]}} 
{"id": "8231616373","server": "8339","farm": "9","userId": "36579035@N04","secret": "a078688a0a","title": "day full of junk...","loc": {"type": "Point","coordinates": [103.80173,1.274566]}} 
{"id": "8216882192","server": "8342","farm": "9","userId": "77114385@N07","secret": "fae2665b29","title": "IMG_8866f","loc": {"type": "Point","coordinates": [103.799484,1.278535]}} 
{"id": "8216880864","server": "8202","farm": "9","userId": "77114385@N07","secret": "79d9b3b873","title": "IMG_8873f","loc": {"type": "Point","coordinates": [103.8001,1.278381]}} 
{"id": "8215781355","server": "8339","farm": "9","userId": "77114385@N07","secret": "5bd1b2f948","title": "IMG_8889f","loc": {"type": "Point","coordinates": [103.7997,1.27847]}} 
{"id": "8210704741","server": "8348","farm": "9","userId": "22535240@N00","secret": "5f2e3bc30b","title": "Best weather for the mayor to have a hot fudge sundae on a rainy Friday evening!","loc": {"type": "Point","coordinates": [103.80173,1.274566]}} 
{"id": "8211440172","server": "8070","farm": "9","userId": "36579035@N04","secret": "12ea4d5bac","title": "kaya hindi ako bumibili ng payong... masarap maligo sa ulan eh.","loc": {"type": "Point","coordinates": [103.80424,1.275269]}} 
{"id": "8206353022","server": "8208","farm": "9","userId": "22535240@N00","secret": "72c501fa58","title": "Meet Siam.","loc": {"type": "Point","coordinates": [103.798706,1.277515]}} 
{"id": "8192934956","server": "8068","farm": "9","userId": "36579035@N04","secret": "e28bf75a95","title": "tis rainin cats and dogs...","loc": {"type": "Point","coordinates": [103.802216,1.272378]}} 
{"id": "8182172502","server": "8344","farm": "9","userId": "87504446@N03","secret": "fd75f2352e","title": "art workshop","loc": {"type": "Point","coordinates": [103.80383,1.277]}} 
{"id": "8182105874","server": "8197","farm": "9","userId": "87504446@N03","secret": "dd976f1e88","title": "masons restaurant","loc": {"type": "Point","coordinates": [103.803665,1.277833]}} 
{"id": "8182064551","server": "8337","farm": "9","userId": "87504446@N03","secret": "24004b5192","title": "gillman barracks","loc": {"type": "Point","coordinates": [103.80417,1.277833]}} 
{"id": "8164399981","server": "7262","farm": "8","userId": "22535240@N00","secret": "02b5845842","title": "Supper.","loc": {"type": "Point","coordinates": [103.798706,1.277515]}} 
{"id": "8140959829","server": "8043","farm": "9","userId": "17309477@N06","secret": "09c0e92308","title": "IMG_7299","loc": {"type": "Point","coordinates": [103.79933,1.2745]}} 
{"id": "8134321567","server": "8184","farm": "9","userId": "17309477@N06","secret": "a4dea97318","title": "IMG_7299","loc": {"type": "Point","coordinates": [103.79933,1.2745]}} 
{"id": "8133750555","server": "8044","farm": "9","userId": "24904027@N06","secret": "e7667cce6a","title": "Macro@HortPark","loc": {"type": "Point","coordinates": [103.79889,1.278578]}} 
{"id": "8133781020","server": "8196","farm": "9","userId": "24904027@N06","secret": "4790c21599","title": "Macro@HortPark","loc": {"type": "Point","coordinates": [103.79904,1.278449]}} 
{"id": "8133754053","server": "8335","farm": "9","userId": "24904027@N06","secret": "6b70e184df","title": "Macro@HortPark","loc": {"type": "Point","coordinates": [103.79945,1.27832]}} 
{"id": "8131196106","server": "8055","farm": "9","userId": "51294514@N06","secret": "98e34604fc","title": "GIllman Barracks 2 #panoplanet","loc": {"type": "Point","coordinates": [103.80414,1.277529]}} 
{"id": "8131113573","server": "8189","farm": "9","userId": "24904027@N06","secret": "89d3c19384","title": "Macro@HortPark","loc": {"type": "Point","coordinates": [103.79898,1.278384]}} 
{"id": "8130903828","server": "8052","farm": "9","userId": "51294514@N06","secret": "e0c60ecab1","title": "Gillman Barracks #panoplanet","loc": {"type": "Point","coordinates": [103.80414,1.277529]}} 
{"id": "8102698421","server": "8465","farm": "9","userId": "76275968@N03","secret": "36dcdb2736","title": "IMG_7725","loc": {"type": "Point","coordinates": [103.800026,1.27832]}} 
{"id": "8102713496","server": "8183","farm": "9","userId": "76275968@N03","secret": "2f0584d454","title": "IMG_7715","loc": {"type": "Point","coordinates": [103.80059,1.278234]}} 
{"id": "8061198568","server": "8042","farm": "9","userId": "35187209@N00","secret": "bf01b8d108","title": "a perfect moment fm @genchua","loc": {"type": "Point","coordinates": [103.80402,1.277706]}} 
