{"id": "9221730582","server": "7427","farm": "8","userId": "13394179@N06","secret": "9d651a4ed3","title": "IMAG0622","loc": {"type": "Point","coordinates": [103.78207,1.44335]}} 
{"id": "9107764958","server": "7300","farm": "8","userId": "49098167@N07","secret": "a1f5270cfb","title": "How to maintain eye contact with Minions :p","loc": {"type": "Point","coordinates": [103.78105,1.437371]}} 
{"id": "9107758148","server": "7313","farm": "8","userId": "49098167@N07","secret": "372dcc881d","title": "How to maintain eye contract with Minions :p","loc": {"type": "Point","coordinates": [103.78105,1.437371]}} 
{"id": "9082656168","server": "5543","farm": "6","userId": "80246871@N00","secret": "aae7bb5f03","title": "Welcome to Singapore","loc": {"type": "Point","coordinates": [103.78241,1.437656]}} 
{"id": "8705246714","server": "8420","farm": "9","userId": "92423922@N07","secret": "e9454a4063","title": "#happybirthday kuya nhoy! Taob yung isa nyahaha #twelvecupcakes","loc": {"type": "Point","coordinates": [103.78073,1.439136]}} 
{"id": "8620989776","server": "8253","farm": "9","userId": "92423922@N07","secret": "289d5f31f7","title": "#breakfast","loc": {"type": "Point","coordinates": [103.780815,1.43919]}} 
{"id": "8616719752","server": "8265","farm": "9","userId": "92423922@N07","secret": "3d40e4ab70","title": "89.5 store audit, 90 sup exam. Yey incentive! #thankyouLord this month ulit plhueeaaseee?","loc": {"type": "Point","coordinates": [103.780685,1.439196]}} 
{"id": "8613599418","server": "8521","farm": "9","userId": "92423922@N07","secret": "e160d31bca","title": "upload","loc": {"type": "Point","coordinates": [103.780815,1.43919]}} 
{"id": "8547383015","server": "8111","farm": "9","userId": "34782964@N04","secret": "b3c2f2f7ef","title": "Kitten","loc": {"type": "Point","coordinates": [103.77239,1.443058]}} 
{"id": "8515091047","server": "8512","farm": "9","userId": "92423922@N07","secret": "6c50e58002","title": "Tired and sleepy #instamood #instaplace #blacknwhite","loc": {"type": "Point","coordinates": [103.780685,1.439196]}} 
{"id": "8494180665","server": "8235","farm": "9","userId": "92423922@N07","secret": "06836b5532","title": "#solo #offday","loc": {"type": "Point","coordinates": [103.78116,1.43924]}} 
{"id": "8470592064","server": "8225","farm": "9","userId": "92423922@N07","secret": "4a3e0551b9","title": "Ayokong lumabas. Para hindi gumastos. #boring #now #offday #instamood #instaplace","loc": {"type": "Point","coordinates": [103.78046,1.439236]}} 
{"id": "8457555121","server": "8110","farm": "9","userId": "92423922@N07","secret": "e5c82dd323","title": "","loc": {"type": "Point","coordinates": [103.7807,1.439241]}} 
{"id": "8420419738","server": "8502","farm": "9","userId": "92423922@N07","secret": "51ddfe186a","title": "#sleeping #now #goodnight #restwell #instamood #instaplace #homebound","loc": {"type": "Point","coordinates": [103.78046,1.439236]}} 
{"id": "8411743580","server": "8376","farm": "9","userId": "92423922@N07","secret": "8f8f65859c","title": "Sleeping soon. Goodnight ‚ù§","loc": {"type": "Point","coordinates": [103.78099,1.438924]}} 
{"id": "8407664129","server": "8183","farm": "9","userId": "92423922@N07","secret": "10d1679b07","title": "No aircon please","loc": {"type": "Point","coordinates": [103.78046,1.439236]}} 
{"id": "8316917095","server": "8216","farm": "9","userId": "91421391@N02","secret": "4dced696ac","title": "Meoow","loc": {"type": "Point","coordinates": [103.78,1.439333]}} 
{"id": "8317936256","server": "8212","farm": "9","userId": "91421391@N02","secret": "6902a14682","title": "love #instagood #cute #photooftheday #cat #igdaily...","loc": {"type": "Point","coordinates": [103.78014,1.439421]}} 
{"id": "8316880277","server": "8359","farm": "9","userId": "91421391@N02","secret": "5e78ff69ea","title": "love #instagood #cute #photooftheday #cat #igdaily...","loc": {"type": "Point","coordinates": [103.78021,1.439328]}} 
{"id": "8317935976","server": "8084","farm": "9","userId": "91421391@N02","secret": "951f022aaa","title": "love #instagood #cute #photooftheday #cat #igdaily...","loc": {"type": "Point","coordinates": [103.78016,1.439364]}} 
{"id": "8316880057","server": "8500","farm": "9","userId": "91421391@N02","secret": "8c4ca33efd","title": "Thankyou to those who liked my...","loc": {"type": "Point","coordinates": [103.78001,1.439521]}} 
{"id": "8316879107","server": "8220","farm": "9","userId": "91421391@N02","secret": "d08a95a8eb","title": "love #instagood #cute #photooftheday #cat #igdaily...","loc": {"type": "Point","coordinates": [103.78025,1.439355]}} 
{"id": "8317935738","server": "8495","farm": "9","userId": "91421391@N02","secret": "bda7685e07","title": "love #instagood #cute #photooftheday #cat #igdaily...","loc": {"type": "Point","coordinates": [103.780205,1.43931]}} 
{"id": "8317935472","server": "8224","farm": "9","userId": "91421391@N02","secret": "d5bc6840ba","title": "love #instagood #cute #photooftheday #cat #igdaily...","loc": {"type": "Point","coordinates": [103.78001,1.439571]}} 
{"id": "8306030900","server": "8492","farm": "9","userId": "39824929@N00","secret": "1ba0f7c926","title": "Sunday church = Happiness. #newcreation #church...","loc": {"type": "Point","coordinates": [103.77369,1.4404]}} 
{"id": "8300960908","server": "8215","farm": "9","userId": "91421391@N02","secret": "b41b3f6282","title": "Raining day","loc": {"type": "Point","coordinates": [103.78048,1.439754]}} 
{"id": "8258150054","server": "8208","farm": "9","userId": "39824929@N00","secret": "e6a5f1839b","title": "Sunday church = Happiness. #newcreation #church #sunday #happiness #hipstamatic #gridlens #instagram #instasg #instadaily #instaaaaah #ink361 #instamood #webstagram #tweegram","loc": {"type": "Point","coordinates": [103.77369,1.4404]}} 
{"id": "8064679783","server": "8031","farm": "9","userId": "72725501@N03","secret": "c6d2ef1f9d","title": "How i wish i could make a second trip there....","loc": {"type": "Point","coordinates": [103.77601,1.439408]}} 
