{"id": "9075375994","server": "3673","farm": "4","userId": "94346589@N03","secret": "f938256e97","title": "Capture of #moment .☺☺☺","loc": {"type": "Point","coordinates": [103.83739,1.435565]}} 
{"id": "9075263784","server": "7373","farm": "8","userId": "94346589@N03","secret": "3cbf401360","title": "Capture of the #moment.","loc": {"type": "Point","coordinates": [103.83782,1.436206]}} 
{"id": "8166943620","server": "8489","farm": "9","userId": "89944281@N00","secret": "35b387bc86","title": "Workstation at the close of the day","loc": {"type": "Point","coordinates": [103.839096,1.436298]}} 
{"id": "8143528768","server": "8050","farm": "9","userId": "89944281@N00","secret": "e855768e03","title": "","loc": {"type": "Point","coordinates": [103.840836,1.433833]}} 
{"id": "8143496853","server": "8329","farm": "9","userId": "89944281@N00","secret": "3c07dcedd5","title": "","loc": {"type": "Point","coordinates": [103.840836,1.434]}} 
{"id": "9380408219","server": "3814","farm": "4","userId": "8659935@N03","secret": "c11a14370b","title": "wedding","loc": {"type": "Point","coordinates": [103.83777,1.43378]}} 
{"id": "9095011974","server": "7301","farm": "8","userId": "12884526@N03","secret": "19f9cc0ca3","title": "Chinese Opera","loc": {"type": "Point","coordinates": [103.841606,1.434005]}} 
{"id": "8709673963","server": "8277","farm": "9","userId": "77714914@N07","secret": "b87def809b","title": "New Flats","loc": {"type": "Point","coordinates": [103.84449,1.43393]}} 
{"id": "8700548341","server": "8261","farm": "9","userId": "93514812@N03","secret": "df90715815","title": "Churby_002","loc": {"type": "Point","coordinates": [103.837814,1.431742]}} 
{"id": "8700549367","server": "8413","farm": "9","userId": "93514812@N03","secret": "24da6334c9","title": "Churby_003","loc": {"type": "Point","coordinates": [103.837685,1.431871]}} 
{"id": "8350186096","server": "8335","farm": "9","userId": "16102830@N05","secret": "73cbe7dafa","title": "1210_OctoberRandoms_HR_027","loc": {"type": "Point","coordinates": [103.83933,1.4315]}} 
{"id": "8350184478","server": "8332","farm": "9","userId": "16102830@N05","secret": "1af9fdc6ef","title": "1210_OctoberRandoms_HR_032","loc": {"type": "Point","coordinates": [103.83933,1.4315]}} 
{"id": "8348169509","server": "8228","farm": "9","userId": "16102830@N05","secret": "f850d03c57","title": "1206_JuneRandoms_HR_106","loc": {"type": "Point","coordinates": [103.84133,1.429833]}} 
{"id": "8349236506","server": "8223","farm": "9","userId": "16102830@N05","secret": "665205db52","title": "1206_JuneRandoms_HR_096","loc": {"type": "Point","coordinates": [103.838,1.435]}} 
{"id": "8349236152","server": "8044","farm": "9","userId": "16102830@N05","secret": "953b1fb04d","title": "1206_JuneRandoms_HR_097","loc": {"type": "Point","coordinates": [103.838,1.435]}} 
{"id": "8308429467","server": "8078","farm": "9","userId": "42594504@N00","secret": "63e364581f","title": "Painting #zengliwei #people #iphoneonly #iphoneography #sgig #light","loc": {"type": "Point","coordinates": [103.8378,1.433052]}} 
{"id": "8308429443","server": "8079","farm": "9","userId": "42594504@N00","secret": "ca1cfa030d","title": "Workers hard at work painting the school building #sgig #iphoneography #iphoneonly #people #zengliwei","loc": {"type": "Point","coordinates": [103.8378,1.433052]}} 
