{"id": "9336149450","server": "3761","farm": "4","userId": "59158169@N00","secret": "4769e0c0a9","title": "IMG_8025","loc": {"type": "Point","coordinates": [103.76566,1.471333]}} 
{"id": "8667075111","server": "8524","farm": "9","userId": "59158169@N00","secret": "c4de855dee","title": "IMG_6698","loc": {"type": "Point","coordinates": [103.762665,1.474166]}} 
{"id": "8488066839","server": "8111","farm": "9","userId": "7313621@N03","secret": "cb02f37470","title": "Johor Bahru at Night","loc": {"type": "Point","coordinates": [103.76344,1.471097]}} 
{"id": "8416801856","server": "8232","farm": "9","userId": "7313621@N03","secret": "ae07751970","title": "Johor Bahru from Pacific Mall Tower","loc": {"type": "Point","coordinates": [103.76344,1.471102]}} 
{"id": "9404607301","server": "2864","farm": "3","userId": "87750660@N02","secret": "1c395d19cc","title": "DSC_0932","loc": {"type": "Point","coordinates": [103.76244,1.4757]}} 
{"id": "9407364472","server": "7331","farm": "8","userId": "87750660@N02","secret": "b2e1033a9d","title": "DSC_0921","loc": {"type": "Point","coordinates": [103.7624,1.475658]}} 
{"id": "9404607497","server": "3817","farm": "4","userId": "87750660@N02","secret": "8170763e94","title": "DSC_0923","loc": {"type": "Point","coordinates": [103.762344,1.476291]}} 
{"id": "9397756343","server": "5495","farm": "6","userId": "87750660@N02","secret": "44cd4314c2","title": "DSC_0004","loc": {"type": "Point","coordinates": [103.76241,1.475702]}} 
{"id": "9400492452","server": "2868","farm": "3","userId": "87750660@N02","secret": "e58d00b88f","title": "DSC_0004","loc": {"type": "Point","coordinates": [103.76241,1.475702]}} 
{"id": "9400492222","server": "2814","farm": "3","userId": "87750660@N02","secret": "ce01ac0867","title": "DSC_0005","loc": {"type": "Point","coordinates": [103.76272,1.476819]}} 
{"id": "9215620020","server": "5458","farm": "6","userId": "87468266@N07","secret": "b20baa1925","title": "","loc": {"type": "Point","coordinates": [103.7625,1.477833]}} 
{"id": "9215618976","server": "7300","farm": "8","userId": "87468266@N07","secret": "c43aa2266e","title": "","loc": {"type": "Point","coordinates": [103.7625,1.477833]}} 
{"id": "9199445416","server": "7336","farm": "8","userId": "22157577@N08","secret": "200d7fabe0","title": "early morning haze","loc": {"type": "Point","coordinates": [103.76852,1.477867]}} 
{"id": "9099521862","server": "7422","farm": "8","userId": "82417989@N04","secret": "f43c9b12f9","title": "The fist view of #Tioman, #Malaysia when you step off the ferry.","loc": {"type": "Point","coordinates": [103.76852,1.477867]}} 
{"id": "9030012269","server": "3816","farm": "4","userId": "97412722@N04","secret": "8c52419490","title": "","loc": {"type": "Point","coordinates": [103.77024,1.471119]}} 
{"id": "9015972421","server": "2824","farm": "3","userId": "32250366@N05","secret": "006aeec463","title": "Ipk....","loc": {"type": "Point","coordinates": [103.76307,1.477691]}} 
{"id": "9015962357","server": "8275","farm": "9","userId": "32250366@N05","secret": "bb6a32618a","title": "Johor Singapore....","loc": {"type": "Point","coordinates": [103.76392,1.477231]}} 
{"id": "8824471300","server": "2855","farm": "3","userId": "30210723@N05","secret": "4694e0a414","title": "Wishing...","loc": {"type": "Point","coordinates": [103.76852,1.477866]}} 
{"id": "8066731489","server": "8457","farm": "9","userId": "59489573@N05","secret": "93a5d2612c","title": "And im the one whos going to survive","loc": {"type": "Point","coordinates": [103.762535,1.475105]}} 
