{"id": "9089806712","server": "7300","farm": "8","userId": "59762054@N03","secret": "eb0c992b78","title": "Osbourne and the spices","loc": {"type": "Point","coordinates": [103.818634,1.397249]}} 
{"id": "8332061093","server": "8354","farm": "9","userId": "7942071@N02","secret": "47ae484539","title": "high wire","loc": {"type": "Point","coordinates": [103.82331,1.401968]}} 
{"id": "9015684496","server": "7436","farm": "8","userId": "28455224@N04","secret": "98eaaaac51","title": "Trung Nguyen coffee at Nasi Lemak Kukus #genggua #genggua_makan #my_genggua","loc": {"type": "Point","coordinates": [103.818344,1.398375]}} 
{"id": "9014476329","server": "3784","farm": "4","userId": "28455224@N04","secret": "5eafde80f0","title": "Terbaek seyyy.","loc": {"type": "Point","coordinates": [103.818344,1.398375]}} 
{"id": "8968838915","server": "7392","farm": "8","userId": "43866013@N00","secret": "db0594fd00","title": "Late night supper with sleepyhead Aniq trying his best to keep awake","loc": {"type": "Point","coordinates": [103.818344,1.398375]}} 
{"id": "8964776226","server": "8393","farm": "9","userId": "90001758@N00","secret": "bd537af2f7","title": "my #graffiti","loc": {"type": "Point","coordinates": [103.818344,1.398375]}} 
{"id": "8696533676","server": "8259","farm": "9","userId": "22742839@N00","secret": "dfee27f1af","title": "Fan-tailed Kingfisher","loc": {"type": "Point","coordinates": [103.822464,1.400724]}} 
{"id": "8615575059","server": "8381","farm": "9","userId": "43866013@N00","secret": "632115aa28","title": "Power burger, even better than the real thing.  For times when you crave a ramly and the causeway is just a bridge to far to cross :)","loc": {"type": "Point","coordinates": [103.818344,1.398375]}} 
{"id": "8615558617","server": "8259","farm": "9","userId": "43866013@N00","secret": "5aa8d5969d","title": "Power burger, taste better than the real thing!  For times when you craves a ramly.","loc": {"type": "Point","coordinates": [103.818344,1.398375]}} 
{"id": "8616586946","server": "8525","farm": "9","userId": "43866013@N00","secret": "70d9b4eae4","title": "Lepak after Nasi Lemak session","loc": {"type": "Point","coordinates": [103.818344,1.398375]}} 
{"id": "8515751706","server": "8109","farm": "9","userId": "61587929@N06","secret": "470815674d","title": "Katydid what?","loc": {"type": "Point","coordinates": [103.822395,1.400767]}} 
{"id": "8510224850","server": "8522","farm": "9","userId": "61587929@N06","secret": "c9eec228e4","title": "Yellow Palm Dart (Cephrenes trichopepla).","loc": {"type": "Point","coordinates": [103.82254,1.400574]}} 
{"id": "8510223232","server": "8524","farm": "9","userId": "61587929@N06","secret": "dbd2aef389","title": "Yellow Palm Dart (Cephrenes trichopepla).","loc": {"type": "Point","coordinates": [103.82241,1.400424]}} 
{"id": "8509111539","server": "8230","farm": "9","userId": "61587929@N06","secret": "9e14496b20","title": "Lynx spider hanging out.","loc": {"type": "Point","coordinates": [103.82234,1.400617]}} 
{"id": "8510221890","server": "8518","farm": "9","userId": "61587929@N06","secret": "04aba5507b","title": "Crimson Marsh Glider (female). [Trithemis Aurora]","loc": {"type": "Point","coordinates": [103.82246,1.400574]}} 
{"id": "8502100443","server": "8235","farm": "9","userId": "61587929@N06","secret": "a77fe020f4","title": "Katydid [Taken with Nikkor 24mm AFD]","loc": {"type": "Point","coordinates": [103.82209,1.400274]}} 
{"id": "8503198570","server": "8096","farm": "9","userId": "61587929@N06","secret": "f63bc94426","title": "Katydid. [Taken with 24mm wide angle lens].","loc": {"type": "Point","coordinates": [103.82226,1.400488]}} 
{"id": "8502726172","server": "8508","farm": "9","userId": "61587929@N06","secret": "7eb09b398c","title": "Yellow Palm Dart (Cephrenes trichopepla).","loc": {"type": "Point","coordinates": [103.82209,1.400402]}} 
{"id": "8502727622","server": "8391","farm": "9","userId": "61587929@N06","secret": "cc73886f64","title": "Yellow Palm Dart (Cephrenes trichopepla).","loc": {"type": "Point","coordinates": [103.82215,1.400359]}} 
{"id": "8467016176","server": "8228","farm": "9","userId": "11722060@N07","secret": "e2a2a2b697","title": "miss the train... ez ride...","loc": {"type": "Point","coordinates": [103.818184,1.398458]}} 
{"id": "8457880425","server": "8104","farm": "9","userId": "16118167@N04","secret": "6da74b2a61","title": "Gordon Highlander Piper Gordon Blyth  in Singapore 1974","loc": {"type": "Point","coordinates": [103.81668,1.401303]}} 
{"id": "8274456648","server": "8219","farm": "9","userId": "65512718@N08","secret": "9da3573bc5","title": "Put Your Arms Around Me","loc": {"type": "Point","coordinates": [103.815994,1.400617]}} 
