{"id": "8913108888","server": "7443","farm": "8","userId": "36993742@N00","secret": "951649c12f","title": "Cranes","loc": {"type": "Point","coordinates": [103.8372,1.463581]}} 
{"id": "8643740765","server": "8262","farm": "9","userId": "92923304@N08","secret": "f1becec003","title": "Onion Rings @ Buckaroo BBQ And Grill","loc": {"type": "Point","coordinates": [103.83757,1.458158]}} 
{"id": "8637096409","server": "8406","farm": "9","userId": "94816438@N07","secret": "5560d50115","title": "Rode all over the island after work","loc": {"type": "Point","coordinates": [103.840836,1.458833]}} 
{"id": "8601020953","server": "8522","farm": "9","userId": "90402353@N06","secret": "044201737c","title": "IMG_4114","loc": {"type": "Point","coordinates": [103.83726,1.463983]}} 
{"id": "8602113484","server": "8404","farm": "9","userId": "90402353@N06","secret": "45edd90da1","title": "HDR","loc": {"type": "Point","coordinates": [103.83726,1.463983]}} 
{"id": "8307824973","server": "8356","farm": "9","userId": "99942665@N00","secret": "9ccaba7e64","title": "_DSC6681","loc": {"type": "Point","coordinates": [103.837585,1.458228]}} 
{"id": "8307826049","server": "8351","farm": "9","userId": "99942665@N00","secret": "202d772e2f","title": "_DSC6675","loc": {"type": "Point","coordinates": [103.837585,1.458228]}} 
{"id": "8308871016","server": "8354","farm": "9","userId": "99942665@N00","secret": "d0d3498324","title": "_DSC6691","loc": {"type": "Point","coordinates": [103.837585,1.458228]}} 
{"id": "8307823107","server": "8220","farm": "9","userId": "99942665@N00","secret": "b0077aeff2","title": "_DSC6684","loc": {"type": "Point","coordinates": [103.837585,1.458228]}} 
{"id": "8085767327","server": "8043","farm": "9","userId": "8583503@N07","secret": "5654ba54a8","title": "Lord of the Onion Rings","loc": {"type": "Point","coordinates": [103.837616,1.458317]}} 
{"id": "9173279562","server": "3671","farm": "4","userId": "8659935@N03","secret": "cf738f0d3f","title": "handlebar","loc": {"type": "Point","coordinates": [103.84495,1.459888]}} 
{"id": "9171055677","server": "3749","farm": "4","userId": "8659935@N03","secret": "aa4611f34b","title": "handlebar","loc": {"type": "Point","coordinates": [103.84495,1.459888]}} 
{"id": "9171061035","server": "3667","farm": "4","userId": "8659935@N03","secret": "cabf15f35c","title": "handlebar","loc": {"type": "Point","coordinates": [103.84495,1.459888]}} 
{"id": "9171054219","server": "7442","farm": "8","userId": "8659935@N03","secret": "3e395cf243","title": "handlebar","loc": {"type": "Point","coordinates": [103.84495,1.459888]}} 
{"id": "8913123170","server": "2875","farm": "3","userId": "36993742@N00","secret": "e6ebd303d3","title": "Fishing Stick Duo","loc": {"type": "Point","coordinates": [103.8372,1.463581]}} 
{"id": "8913113986","server": "2861","farm": "3","userId": "36993742@N00","secret": "23f6af0687","title": "Are we truly caged?","loc": {"type": "Point","coordinates": [103.8372,1.463581]}} 
{"id": "8912510343","server": "7310","farm": "8","userId": "36993742@N00","secret": "aacc9ba968","title": "Caught ya!","loc": {"type": "Point","coordinates": [103.8372,1.463581]}} 
{"id": "8913103204","server": "7443","farm": "8","userId": "36993742@N00","secret": "e13c23f6d3","title": "Impressive Boats","loc": {"type": "Point","coordinates": [103.8372,1.463581]}} 
{"id": "8912507959","server": "5470","farm": "6","userId": "36993742@N00","secret": "28eee7b573","title": "BEAULIEU","loc": {"type": "Point","coordinates": [103.8372,1.463581]}} 
{"id": "8913118398","server": "3782","farm": "4","userId": "36993742@N00","secret": "a695d29820","title": "Down the stairs","loc": {"type": "Point","coordinates": [103.8372,1.463581]}} 
{"id": "8913107258","server": "3811","farm": "4","userId": "36993742@N00","secret": "f325473493","title": "FM2 w/ Tamron 17-35:2.8-4","loc": {"type": "Point","coordinates": [103.8372,1.463581]}} 
{"id": "8912496933","server": "7386","farm": "8","userId": "36993742@N00","secret": "3ec246c4aa","title": "Cat's Paw","loc": {"type": "Point","coordinates": [103.8372,1.463581]}} 
{"id": "8913105816","server": "3786","farm": "4","userId": "36993742@N00","secret": "da7f9a3958","title": "Port","loc": {"type": "Point","coordinates": [103.8372,1.463581]}} 
{"id": "8912506641","server": "3734","farm": "4","userId": "36993742@N00","secret": "511fbc8ca8","title": "SunRise","loc": {"type": "Point","coordinates": [103.8372,1.463581]}} 
{"id": "8913110564","server": "2872","farm": "3","userId": "36993742@N00","secret": "4f7429ede1","title": "I am Lazy","loc": {"type": "Point","coordinates": [103.8372,1.463581]}} 
{"id": "8913133968","server": "2862","farm": "3","userId": "36993742@N00","secret": "6819ed6d86","title": "5 textures","loc": {"type": "Point","coordinates": [103.8372,1.463581]}} 
{"id": "8912503227","server": "7386","farm": "8","userId": "36993742@N00","secret": "bb1031e5fc","title": "Guarding the tripods","loc": {"type": "Point","coordinates": [103.8372,1.463581]}} 
{"id": "8912529997","server": "3699","farm": "4","userId": "36993742@N00","secret": "872a3d88f0","title": "Fields","loc": {"type": "Point","coordinates": [103.8372,1.463581]}} 
{"id": "8912497633","server": "7288","farm": "8","userId": "36993742@N00","secret": "444e59de14","title": "That look","loc": {"type": "Point","coordinates": [103.8372,1.463581]}} 
{"id": "8913127176","server": "3756","farm": "4","userId": "36993742@N00","secret": "2f113e7028","title": "Uncomfortable?","loc": {"type": "Point","coordinates": [103.8372,1.463581]}} 
{"id": "8912493229","server": "3810","farm": "4","userId": "36993742@N00","secret": "e8487420d1","title": "Fisherman","loc": {"type": "Point","coordinates": [103.8372,1.463581]}} 
{"id": "8913117438","server": "3748","farm": "4","userId": "36993742@N00","secret": "1d212e1ae8","title": "Blue","loc": {"type": "Point","coordinates": [103.8372,1.463581]}} 
{"id": "8912511129","server": "7374","farm": "8","userId": "36993742@N00","secret": "ea0863300c","title": "Stretching","loc": {"type": "Point","coordinates": [103.8372,1.463581]}} 
{"id": "8913112656","server": "2848","farm": "3","userId": "36993742@N00","secret": "0ca42458ea","title": "SOC","loc": {"type": "Point","coordinates": [103.8372,1.463581]}} 
{"id": "8912485899","server": "3698","farm": "4","userId": "36993742@N00","secret": "f56981a2f7","title": "Waiting for food","loc": {"type": "Point","coordinates": [103.8372,1.463581]}} 
{"id": "8913114780","server": "8417","farm": "9","userId": "36993742@N00","secret": "5cb07b6d62","title": "Ms Pretty","loc": {"type": "Point","coordinates": [103.8372,1.463581]}} 
{"id": "8913131504","server": "7402","farm": "8","userId": "36993742@N00","secret": "a9eee29576","title": "Statue","loc": {"type": "Point","coordinates": [103.8372,1.463581]}} 
{"id": "8912491325","server": "3736","farm": "4","userId": "36993742@N00","secret": "0b788e0641","title": "Rod","loc": {"type": "Point","coordinates": [103.8372,1.463581]}} 
{"id": "8911923645","server": "3750","farm": "4","userId": "36993742@N00","secret": "af0ba4fa1a","title": "Nikon FM2 w/ Tamron 17-35/2.8-4","loc": {"type": "Point","coordinates": [103.8372,1.463581]}} 
{"id": "8602092300","server": "8399","farm": "9","userId": "90402353@N06","secret": "b76576274f","title": "IMG_4116","loc": {"type": "Point","coordinates": [103.83726,1.463983]}} 
{"id": "8310975968","server": "8081","farm": "9","userId": "39926850@N04","secret": "f84d59b160","title": "Happy runs - Sembawang beach","loc": {"type": "Point","coordinates": [103.83898,1.462794]}} 
{"id": "8253294235","server": "8224","farm": "9","userId": "8659935@N03","secret": "a1bea68421","title": "","loc": {"type": "Point","coordinates": [103.84495,1.459888]}} 
{"id": "8151221243","server": "8066","farm": "9","userId": "8659935@N03","secret": "3f01656a1e","title": "","loc": {"type": "Point","coordinates": [103.84326,1.459513]}} 
