{"id": "9342461178","server": "3753","farm": "4","userId": "13198911@N00","secret": "ba9957331f","title": "It's about to go down. Let's see if they like me or not right?","loc": {"type": "Point","coordinates": [103.75486,1.312043]}} 
{"id": "9280243314","server": "5509","farm": "6","userId": "55844827@N00","secret": "f0c5d0e793","title": "IMG_1161","loc": {"type": "Point","coordinates": [103.76033,1.312333]}} 
{"id": "8905762725","server": "5455","farm": "6","userId": "22535240@N00","secret": "cd848942b7","title": "Blurp. ;-)","loc": {"type": "Point","coordinates": [103.75972,1.311687]}} 
{"id": "8895327790","server": "7287","farm": "8","userId": "22535240@N00","secret": "963260308c","title": "Brand new sign board at my favourite noodle stall.","loc": {"type": "Point","coordinates": [103.75972,1.311687]}} 
{"id": "8859070035","server": "8556","farm": "9","userId": "22535240@N00","secret": "658c0b155b","title": "My usual drink stall.","loc": {"type": "Point","coordinates": [103.75972,1.311625]}} 
{"id": "8859046387","server": "7292","farm": "8","userId": "22535240@N00","secret": "050e3025c3","title": "My usual spicy breakfast stall.","loc": {"type": "Point","coordinates": [103.75972,1.311687]}} 
{"id": "8661057777","server": "8248","farm": "9","userId": "22535240@N00","secret": "76716bc47f","title": "upload","loc": {"type": "Point","coordinates": [103.75972,1.311687]}} 
{"id": "8550224020","server": "8235","farm": "9","userId": "22535240@N00","secret": "6b9005ee06","title": "Spicy breakfast!","loc": {"type": "Point","coordinates": [103.75987,1.311545]}} 
{"id": "8424342225","server": "8093","farm": "9","userId": "99942665@N00","secret": "1b50f7c8e6","title": "P1170591","loc": {"type": "Point","coordinates": [103.75683,1.31047]}} 
{"id": "8424345783","server": "8324","farm": "9","userId": "99942665@N00","secret": "c50ef15678","title": "P1170618","loc": {"type": "Point","coordinates": [103.75683,1.31047]}} 
{"id": "8424342967","server": "8469","farm": "9","userId": "99942665@N00","secret": "0b3951fcea","title": "P1170590","loc": {"type": "Point","coordinates": [103.75683,1.31047]}} 
{"id": "8425434624","server": "8328","farm": "9","userId": "99942665@N00","secret": "f616ace85a","title": "P1170616","loc": {"type": "Point","coordinates": [103.75683,1.31047]}} 
{"id": "8335703824","server": "8363","farm": "9","userId": "22535240@N00","secret": "0ba2b67a60","title": "Just finished my first bowl of Laksa in 2013, shiok to the max!","loc": {"type": "Point","coordinates": [103.75987,1.311545]}} 
{"id": "8254651110","server": "8223","farm": "9","userId": "35109767@N05","secret": "d2a9bf1287","title": "","loc": {"type": "Point","coordinates": [103.75839,1.310886]}} 
{"id": "8210494273","server": "8350","farm": "9","userId": "40367034@N00","secret": "ea7f349b76","title": "Camera Roll-1036","loc": {"type": "Point","coordinates": [103.75733,1.312833]}} 
{"id": "8204783766","server": "8340","farm": "9","userId": "22535240@N00","secret": "ff24654826","title": "Satisfying breakkie.","loc": {"type": "Point","coordinates": [103.75987,1.311545]}} 
