{"id": "9277459407","server": "5321","farm": "6","userId": "98024359@N05","secret": "4f67af338c","title": "","loc": {"type": "Point","coordinates": [103.70613,1.495451]}} 
{"id": "9058096341","server": "7361","farm": "8","userId": "72725501@N03","secret": "bb20e11db2","title": "IMG_9150.JPG","loc": {"type": "Point","coordinates": [103.70626,1.494459]}} 
{"id": "9060282068","server": "5330","farm": "6","userId": "72725501@N03","secret": "78605d0618","title": "IMG_9146.JPG","loc": {"type": "Point","coordinates": [103.70626,1.494459]}} 
{"id": "9060253056","server": "3753","farm": "4","userId": "72725501@N03","secret": "48562c8f5e","title": "IMG_9142.JPG","loc": {"type": "Point","coordinates": [103.70626,1.494459]}} 
{"id": "9060272322","server": "7313","farm": "8","userId": "72725501@N03","secret": "fee591aa77","title": "IMG_9144.JPG","loc": {"type": "Point","coordinates": [103.70626,1.494459]}} 
{"id": "9060294034","server": "7302","farm": "8","userId": "72725501@N03","secret": "6a2f33dfdd","title": "IMG_9148.JPG","loc": {"type": "Point","coordinates": [103.70626,1.494459]}} 
{"id": "9058041275","server": "3725","farm": "4","userId": "72725501@N03","secret": "356bb9f3ce","title": "IMG_9143.JPG","loc": {"type": "Point","coordinates": [103.70626,1.494459]}} 
{"id": "9060308030","server": "5467","farm": "6","userId": "72725501@N03","secret": "e5686d2e88","title": "IMG_9151.JPG","loc": {"type": "Point","coordinates": [103.70626,1.494459]}} 
{"id": "9060259994","server": "3718","farm": "4","userId": "72725501@N03","secret": "c9235f4837","title": "IMG_9141.JPG","loc": {"type": "Point","coordinates": [103.70626,1.494459]}} 
{"id": "9012902558","server": "3830","farm": "4","userId": "53008862@N02","secret": "9a44930ae6","title": "Breakfast: kacang pool and pull tea. Only in johore. #johorbahru #malaysia #foodporn #breakfast #kacangpool #tehtarik","loc": {"type": "Point","coordinates": [103.70613,1.495451]}} 
{"id": "8840065280","server": "5442","farm": "6","userId": "89260869@N06","secret": "f804e3d37f","title": "Jalan2 di Angsana luu","loc": {"type": "Point","coordinates": [103.705864,1.496737]}} 
{"id": "8725363511","server": "7321","farm": "8","userId": "89260869@N06","secret": "13f8d73fa9","title": "Owh leyparking smbil minum air da mcm orang besar je anak papa ni.. :D","loc": {"type": "Point","coordinates": [103.705986,1.495022]}} 
{"id": "8726275062","server": "7383","farm": "8","userId": "89260869@N06","secret": "f1a1b854ec","title": "Mam malam MCd :D","loc": {"type": "Point","coordinates": [103.70619,1.495416]}} 
{"id": "8725165067","server": "7332","farm": "8","userId": "89260869@N06","secret": "204cbdcbe9","title": "Saya suka mam fries...","loc": {"type": "Point","coordinates": [103.70619,1.495416]}} 
{"id": "8725161669","server": "7377","farm": "8","userId": "89260869@N06","secret": "0c50db78e3","title": "Nyum2x...jmput mam...","loc": {"type": "Point","coordinates": [103.70619,1.495416]}} 
{"id": "8647286951","server": "8240","farm": "9","userId": "19231182@N00","secret": "5b7530b3f3","title": "'Bet They're Buying My Baju Raya' •• º]º","loc": {"type": "Point","coordinates": [103.711136,1.492608]}} 
{"id": "8297070623","server": "8074","farm": "9","userId": "21230300@N04","secret": "1e9dd8b54b","title": "#landscape #outing #scenery #maghrib #hdr #photography","loc": {"type": "Point","coordinates": [103.71158,1.496348]}} 
{"id": "8298120762","server": "8359","farm": "9","userId": "21230300@N04","secret": "83b308a2ff","title": "Mee sedap + daging goreng kenduri #food #instantmee","loc": {"type": "Point","coordinates": [103.71159,1.49641]}} 
{"id": "8298120944","server": "8356","farm": "9","userId": "21230300@N04","secret": "5465c38172","title": "Rendang daging #malaysian #food","loc": {"type": "Point","coordinates": [103.71237,1.497328]}} 
