{"id": "8160178737","server": "7134","farm": "8","userId": "22311697@N06","secret": "bc3c2a738d","title": "337 steel horse on a Vespa","loc": {"type": "Point","coordinates": [103.7485,1.403666]}} 
{"id": "8093073686","server": "8195","farm": "9","userId": "28455224@N04","secret": "ed5799c6cf","title": "Jalan Pisang. One Way. #genggua #brunika #sgig #instasg #instagramsg #instabru #igbru #iphonesia #jj","loc": {"type": "Point","coordinates": [103.74766,1.403093]}} 
{"id": "8070305006","server": "8033","farm": "9","userId": "22311697@N06","secret": "07fc8ec8d3","title": "309 This is not Big Ben but maybe next month... ...","loc": {"type": "Point","coordinates": [103.7475,1.402499]}} 
{"id": "9093037023","server": "7407","farm": "8","userId": "83981795@N08","secret": "73bc8bf3d9","title": "20130614-DSC_0127.jpg","loc": {"type": "Point","coordinates": [103.74064,1.406794]}} 
{"id": "8727265891","server": "7332","farm": "8","userId": "34811143@N00","secret": "16501e4436","title": "Cycling around Singapore, 1st Attempt - 11 May 2013","loc": {"type": "Point","coordinates": [103.74611,1.404999]}} 
{"id": "8727266237","server": "7284","farm": "8","userId": "34811143@N00","secret": "98d5066fb6","title": "Cycling around Singapore, 1st Attempt - 11 May 2013","loc": {"type": "Point","coordinates": [103.74611,1.405555]}} 
{"id": "8728218580","server": "7283","farm": "8","userId": "80217014@N00","secret": "62241267e8","title": "Ride at Peng Sua PCN","loc": {"type": "Point","coordinates": [103.74849,1.405079]}} 
{"id": "8348987558","server": "8370","farm": "9","userId": "16102830@N05","secret": "a74ee048e6","title": "1204_AprRandoms_HR_131","loc": {"type": "Point","coordinates": [103.7495,1.404666]}} 
{"id": "8240902317","server": "8210","farm": "9","userId": "22311697@N06","secret": "2823661de9","title": "365 self-portrait with two generations of iPhone","loc": {"type": "Point","coordinates": [103.74783,1.403833]}} 
{"id": "8199747618","server": "8479","farm": "9","userId": "22311697@N06","secret": "6c438af283","title": "350 Merry Christmas from Harrods","loc": {"type": "Point","coordinates": [103.74817,1.404]}} 
{"id": "8124214983","server": "8186","farm": "9","userId": "22311697@N06","secret": "75d386e2bd","title": "326 Sign Boards","loc": {"type": "Point","coordinates": [103.748,1.404166]}} 
