{"id": "8705680497","server": "8267","farm": "9","userId": "8583503@N07","secret": "e5e59c852c","title": "Let's go!","loc": {"type": "Point","coordinates": [103.81759,1.405343]}} 
{"id": "8685608040","server": "8258","farm": "9","userId": "8583503@N07","secret": "7b9dbae182","title": "The musicians in practise. #ndp13pnc","loc": {"type": "Point","coordinates": [103.81759,1.405343]}} 
{"id": "8457880319","server": "8091","farm": "9","userId": "16118167@N04","secret": "88e0977434","title": "Gordon Highlanders Bob & Skippy tuning up","loc": {"type": "Point","coordinates": [103.815544,1.404843]}} 
{"id": "8458982702","server": "8246","farm": "9","userId": "16118167@N04","secret": "2ab3670988","title": "Gordon Highlanders some members  of the Drums & Pipes in Singapore","loc": {"type": "Point","coordinates": [103.815605,1.407395]}} 
{"id": "8308445327","server": "8491","farm": "9","userId": "42594504@N00","secret": "9a021b7a6a","title": "Fly away","loc": {"type": "Point","coordinates": [103.8243,1.407703]}} 
{"id": "8274458162","server": "8500","farm": "9","userId": "65512718@N08","secret": "6653ed97fb","title": "I'm Loving Angel........","loc": {"type": "Point","coordinates": [103.822174,1.408854]}} 
