{"id": "8884251347","server": "3789","farm": "4","userId": "55070113@N08","secret": "6a4f11781f","title": "CSI #1 - Psy was here","loc": {"type": "Point","coordinates": [103.7681,1.455881]}} 
{"id": "8522545435","server": "8384","farm": "9","userId": "10116138@N03","secret": "e6fe9d8f45","title": "Fascinated with the gadjet","loc": {"type": "Point","coordinates": [103.76357,1.456518]}} 
{"id": "8506878432","server": "8252","farm": "9","userId": "7616011@N05","secret": "691aba83ac","title": "Just by looking at the ship navigating through the Straits of Tebrau, it gives some sort of peaceful feeling.   Tag: #ship, #StraitsofTebrau, #Tebrau, #vessel, #MMHE, #sea, #selat, #SelatTebrau","loc": {"type": "Point","coordinates": [103.76839,1.455507]}} 
{"id": "8485554875","server": "8105","farm": "9","userId": "14385475@N05","secret": "5e66021cf5","title": "IMG_2915","loc": {"type": "Point","coordinates": [103.76984,1.453333]}} 
{"id": "8443801953","server": "8233","farm": "9","userId": "50667589@N02","secret": "accfdec7e0","title": "Cultural Street","loc": {"type": "Point","coordinates": [103.763466,1.456497]}} 
{"id": "8375540503","server": "8223","farm": "9","userId": "10116138@N03","secret": "61c6d61436","title": "A stop for tea.","loc": {"type": "Point","coordinates": [103.76399,1.456497]}} 
{"id": "8089438761","server": "8468","farm": "9","userId": "63081656@N02","secret": "e1418fd57b","title": "Shophouses Jalan Pahang-13Oct","loc": {"type": "Point","coordinates": [103.76383,1.45629]}} 
{"id": "9213758615","server": "7386","farm": "8","userId": "98111777@N02","secret": "d3d3193f7d","title": "Jalan Trus, Johor Bahru, Malaysia","loc": {"type": "Point","coordinates": [103.76436,1.457011]}} 
{"id": "9106365371","server": "3812","farm": "4","userId": "11886295@N02","secret": "d435f10a9a","title": "Stop and rest","loc": {"type": "Point","coordinates": [103.7645,1.457166]}} 
{"id": "8960952931","server": "3731","farm": "4","userId": "64407028@N02","secret": "fa6982bbdb","title": "At Pasar Karat, Johor Bahru","loc": {"type": "Point","coordinates": [103.764626,1.456873]}} 
{"id": "8878210467","server": "7300","farm": "8","userId": "83485033@N04","secret": "7a7174a708","title": "MISC","loc": {"type": "Point","coordinates": [103.7635,1.456166]}} 
{"id": "8630095280","server": "8389","farm": "9","userId": "76363932@N00","secret": "fdd634a6ef","title": "Iron bench.","loc": {"type": "Point","coordinates": [103.76344,1.456003]}} 
{"id": "8557299300","server": "8529","farm": "9","userId": "61993470@N03","secret": "7b48440387","title": "C'riously Check.....","loc": {"type": "Point","coordinates": [103.76979,1.450823]}} 
{"id": "8539396504","server": "8514","farm": "9","userId": "37279068@N00","secret": "256daf8474","title": "upload","loc": {"type": "Point","coordinates": [103.76416,1.456587]}} 
{"id": "8532980247","server": "8085","farm": "9","userId": "79030719@N07","secret": "7a8f96d73e","title": "Bokeh","loc": {"type": "Point","coordinates": [103.76403,1.457211]}} 
{"id": "8509362171","server": "8529","farm": "9","userId": "44328966@N04","secret": "9dd0888695","title": "I've somehow perfected my technique of shooting straight leveled #horizon while driving. This was the #sunset I got to witness on the way home today.","loc": {"type": "Point","coordinates": [103.769196,1.452528]}} 
{"id": "8106893499","server": "8332","farm": "9","userId": "7673737@N07","secret": "34970db547","title": "Street Dancer","loc": {"type": "Point","coordinates": [103.76321,1.456175]}} 
{"id": "8102773599","server": "8189","farm": "9","userId": "96978478@N00","secret": "4d57c89f5f","title": "At #jb #customs #sunset","loc": {"type": "Point","coordinates": [103.769196,1.452528]}} 
{"id": "8053011918","server": "8312","farm": "9","userId": "63081656@N02","secret": "3af8a15330","title": "Johor Bahru rooftops-30Sept","loc": {"type": "Point","coordinates": [103.7646,1.456647]}} 
