{"id": "9180026405","server": "7424","farm": "8","userId": "54048808@N00","secret": "1b3abd8d5b","title": "Caught hangin' around.","loc": {"type": "Point","coordinates": [103.81516,1.320333]}} 
{"id": "8841622337","server": "3666","farm": "4","userId": "38682884@N08","secret": "b91cb165ec","title": "Chocolate bread","loc": {"type": "Point","coordinates": [103.81184,1.320833]}} 
{"id": "8604268343","server": "8117","farm": "9","userId": "16105436@N00","secret": "5201eaacd4","title": "Singapore crime alert in Bukit Timah. Shit just got real.","loc": {"type": "Point","coordinates": [103.81467,1.3225]}} 
{"id": "8262515445","server": "8490","farm": "9","userId": "89975165@N07","secret": "3eb8b3eed2","title": "BBQ Char Siew Open Burger - Char Siew Soft-Bone Pork, Secret Char Siew Sauce, Homemade Foccacia","loc": {"type": "Point","coordinates": [103.81462,1.322781]}} 
{"id": "8223464759","server": "8481","farm": "9","userId": "88442731@N00","secret": "6b829dbf49","title": "Apple tart with salted caramel glaze","loc": {"type": "Point","coordinates": [103.80434,1.324667]}} 
{"id": "9443398993","server": "3759","farm": "4","userId": "92053760@N02","secret": "5fe185382b","title": "eur.trip 198","loc": {"type": "Point","coordinates": [103.81084,1.323]}} 
{"id": "9443433133","server": "3770","farm": "4","userId": "92053760@N02","secret": "e45bd1687b","title": "eur.trip 215","loc": {"type": "Point","coordinates": [103.81067,1.323]}} 
{"id": "9446221146","server": "3727","farm": "4","userId": "92053760@N02","secret": "0cb156f3f3","title": "eur.trip 216","loc": {"type": "Point","coordinates": [103.81084,1.322833]}} 
{"id": "9333740832","server": "2847","farm": "3","userId": "37631879@N03","secret": "4e8447d4f8","title": "Late lunch at my favorite 'tuckshop' @ Botanic Garden SG","loc": {"type": "Point","coordinates": [103.81349,1.322925]}} 
{"id": "9328421218","server": "7438","farm": "8","userId": "74006149@N07","secret": "0b5254c93d","title": "Strawberry ice cream pie! #desserts #dessertporn #food #islandcreamery","loc": {"type": "Point","coordinates": [103.81364,1.322619]}} 
{"id": "9326793362","server": "3705","farm": "4","userId": "11008075@N00","secret": "5c3e3cf036","title": "Now let's see what the fuss is all about... @sourplumfairy @iamminpot","loc": {"type": "Point","coordinates": [103.809555,1.324549]}} 
{"id": "9285996537","server": "5530","farm": "6","userId": "25530545@N04","secret": "d781d00bd5","title": "2013-06-30 at 13-17-53","loc": {"type": "Point","coordinates": [103.81467,1.319833]}} 
{"id": "9288771784","server": "2825","farm": "3","userId": "25530545@N04","secret": "37b1122e8c","title": "2013-06-30 at 13-12-02","loc": {"type": "Point","coordinates": [103.815,1.322]}} 
{"id": "9288770292","server": "5470","farm": "6","userId": "25530545@N04","secret": "6b3108375d","title": "2013-06-30 at 13-10-23","loc": {"type": "Point","coordinates": [103.81517,1.322333]}} 
{"id": "9288771002","server": "3784","farm": "4","userId": "25530545@N04","secret": "ecf2e89519","title": "2013-06-30 at 13-11-25","loc": {"type": "Point","coordinates": [103.8145,1.321833]}} 
{"id": "9288772442","server": "3817","farm": "4","userId": "25530545@N04","secret": "ee0fc6ebda","title": "2013-06-30 at 13-12-15","loc": {"type": "Point","coordinates": [103.814835,1.321833]}} 
{"id": "9288775178","server": "2825","farm": "3","userId": "25530545@N04","secret": "619bbde95b","title": "2013-06-30 at 13-28-50","loc": {"type": "Point","coordinates": [103.814835,1.319833]}} 
{"id": "9285992169","server": "3781","farm": "4","userId": "25530545@N04","secret": "1645685d35","title": "2013-06-30 at 13-10-20","loc": {"type": "Point","coordinates": [103.81517,1.322333]}} 
{"id": "9288773160","server": "3709","farm": "4","userId": "25530545@N04","secret": "7cdf9e2564","title": "2013-06-30 at 13-14-38","loc": {"type": "Point","coordinates": [103.814835,1.321833]}} 
{"id": "9285997223","server": "7352","farm": "8","userId": "25530545@N04","secret": "c812f711d5","title": "2013-06-30 at 13-18-22","loc": {"type": "Point","coordinates": [103.815,1.319833]}} 
{"id": "9285456084","server": "3711","farm": "4","userId": "98834483@N02","secret": "0a800e84cd","title": "","loc": {"type": "Point","coordinates": [103.80996,1.326311]}} 
{"id": "9285454832","server": "5497","farm": "6","userId": "98834483@N02","secret": "5e01be7f99","title": "","loc": {"type": "Point","coordinates": [103.80996,1.326311]}} 
{"id": "9277458307","server": "3688","farm": "4","userId": "55844827@N00","secret": "4c474617fc","title": "IMG_1156","loc": {"type": "Point","coordinates": [103.80983,1.325166]}} 
{"id": "9206110898","server": "3703","farm": "4","userId": "28872586@N00","secret": "4598cb9021","title": "The beginning of the end. #foodporn @ilovenomnomm #singapore #instafood #instayum so much happiness from one meal.","loc": {"type": "Point","coordinates": [103.809944,1.324013]}} 
{"id": "9195124329","server": "7448","farm": "8","userId": "78367044@N03","secret": "e8af301785","title": "breakfast fit for a king! #bliss #breakfast #nasilemak #selerarasa #localstyle #foodie #feast","loc": {"type": "Point","coordinates": [103.81419,1.324142]}} 
{"id": "9188130993","server": "3692","farm": "4","userId": "21997205@N00","secret": "f865a481aa","title": "Bridge Over Untroubled Water","loc": {"type": "Point","coordinates": [103.813515,1.322878]}} 
{"id": "9190292850","server": "5471","farm": "6","userId": "21997205@N00","secret": "d3846eb11b","title": "The other side of the Botanic Gardens","loc": {"type": "Point","coordinates": [103.81501,1.322576]}} 
{"id": "9164318844","server": "5531","farm": "6","userId": "8359582@N03","secret": "b908f16e44","title": "Crossant + donut = cronuts. Gastronomia's version is called crodos. Flaky, soft and creamy at the center. #foodporn","loc": {"type": "Point","coordinates": [103.81381,1.321866]}} 
{"id": "9140429818","server": "7318","farm": "8","userId": "96364464@N05","secret": "278eacf72b","title": "Time to renew.","loc": {"type": "Point","coordinates": [103.81034,1.324947]}} 
{"id": "9135275125","server": "5501","farm": "6","userId": "92923304@N08","secret": "9eafe57437","title": "Ice Cream @ Island Creamery","loc": {"type": "Point","coordinates": [103.81376,1.32265]}} 
{"id": "9128437849","server": "5516","farm": "6","userId": "14932126@N08","secret": "466c39a687","title": "","loc": {"type": "Point","coordinates": [103.81433,1.322333]}} 
{"id": "9128429787","server": "3700","farm": "4","userId": "14932126@N08","secret": "968743301a","title": "","loc": {"type": "Point","coordinates": [103.813,1.322833]}} 
{"id": "9130654286","server": "7370","farm": "8","userId": "14932126@N08","secret": "d08bdf30bb","title": "","loc": {"type": "Point","coordinates": [103.81433,1.3225]}} 
{"id": "9107837936","server": "3749","farm": "4","userId": "96364464@N05","secret": "bd7fc80eae","title": "The feast about to began. Frying buns","loc": {"type": "Point","coordinates": [103.812614,1.324762]}} 
{"id": "9105615083","server": "3673","farm": "4","userId": "96364464@N05","secret": "8824dbe039","title": "Crabby in Pepper...","loc": {"type": "Point","coordinates": [103.812614,1.324762]}} 
{"id": "9092778066","server": "7377","farm": "8","userId": "92593934@N04","secret": "92f90e877f","title": "Above You Vol. 123","loc": {"type": "Point","coordinates": [103.80943,1.324624]}} 
{"id": "9060275522","server": "7326","farm": "8","userId": "88442731@N00","secret": "9f93172854","title": "","loc": {"type": "Point","coordinates": [103.80434,1.324666]}} 
{"id": "9060286176","server": "5496","farm": "6","userId": "88442731@N00","secret": "6dff2be9e9","title": "","loc": {"type": "Point","coordinates": [103.80434,1.324666]}} 
{"id": "9007372488","server": "7415","farm": "8","userId": "78686549@N00","secret": "11c3a70fdb","title": "Supper is Chocolate Chip Cream with a Ugly Curry Chicken Puff  (yes, that's the name!)","loc": {"type": "Point","coordinates": [103.81032,1.323691]}} 
{"id": "8986301075","server": "8280","farm": "9","userId": "74006149@N07","secret": "37427eb72a","title": "My post-HK food cravings...","loc": {"type": "Point","coordinates": [103.81038,1.323613]}} 
{"id": "8984898565","server": "7307","farm": "8","userId": "24989432@N06","secret": "a4a54d8529","title": "Slight detour on the way to Sentosa with Ma Homies","loc": {"type": "Point","coordinates": [103.813515,1.322878]}} 
{"id": "8971989465","server": "3765","farm": "4","userId": "13394179@N06","secret": "fb71938afe","title": "IMAG0351","loc": {"type": "Point","coordinates": [103.814735,1.322325]}} 
{"id": "8944458145","server": "5470","farm": "6","userId": "85487509@N00","secret": "e462ab3c6e","title": "Brill! Simple and relaxed #brill #simplybread","loc": {"type": "Point","coordinates": [103.814705,1.322677]}} 
{"id": "8942808295","server": "5331","farm": "6","userId": "96364464@N05","secret": "7a728570dd","title": "Which business or JOB enable you to control your own freedom, time and money at the tips of your fingers?","loc": {"type": "Point","coordinates": [103.813446,1.322414]}} 
{"id": "8935755581","server": "3737","farm": "4","userId": "35468141938@N01","secret": "e48036e8e2","title": "Make time for ice cream, especially if flavors are Chendol and Pulau Hitam! With @pennyemily","loc": {"type": "Point","coordinates": [103.81364,1.322619]}} 
{"id": "8913747769","server": "5448","farm": "6","userId": "55486190@N00","secret": "90c2ef6e30","title": "Super-Yummy Royal Rumble #NasiLemak: Fragrant #Basmati Coconut Rice, #Bagadil, #Otah, Crispy Chicken Wing, Fried Fish, Ikan Bilis, Fried Egg and Sambal Chilli on Slices of Cucumber","loc": {"type": "Point","coordinates": [103.81414,1.324164]}} 
{"id": "8885300424","server": "5337","farm": "6","userId": "87957256@N02","secret": "06e5608736","title": "","loc": {"type": "Point","coordinates": [103.81467,1.322666]}} 
{"id": "8877676457","server": "7420","farm": "8","userId": "48889054224@N01","secret": "b9d537a410","title": "Copy you can choke on","loc": {"type": "Point","coordinates": [103.81436,1.322619]}} 
{"id": "8842208218","server": "7308","farm": "8","userId": "38682884@N08","secret": "12fc3e3f54","title": "Bak Kwa Gluten Free bread","loc": {"type": "Point","coordinates": [103.81184,1.320833]}} 
{"id": "8842193032","server": "7315","farm": "8","userId": "38682884@N08","secret": "5cc45f54ef","title": "Coffee Coco Gluten Free bread","loc": {"type": "Point","coordinates": [103.81184,1.321]}} 
{"id": "8842150920","server": "2818","farm": "3","userId": "38682884@N08","secret": "02a9ff6aed","title": "Grinding my own Gluten Free oat flour","loc": {"type": "Point","coordinates": [103.81184,1.321]}} 
{"id": "8738545348","server": "7288","farm": "8","userId": "77771527@N06","secret": "93a9e3093a","title": "#sun #sunlight #sky #clouds #cloud #cloudporn #igers #igdaily #iphone #iphonesia #iphoneonly #iphonepics #iphonesian #iphone4only #instagood #instamood #instaweek #instadaily #instagramers #instagramhub #followme #webstagram #photooftheday #random#Capture","loc": {"type": "Point","coordinates": [103.81248,1.322705]}} 
{"id": "8729610926","server": "7360","farm": "8","userId": "52136703@N00","secret": "f5c63437de","title": "Singapore Botanic Garden","loc": {"type": "Point","coordinates": [103.8149,1.32003]}} 
{"id": "8724575495","server": "7442","farm": "8","userId": "95599694@N03","secret": "161215abb5","title": "","loc": {"type": "Point","coordinates": [103.81516,1.322833]}} 
{"id": "8706682364","server": "8545","farm": "9","userId": "24989432@N06","secret": "bdf82f6d42","title": "And two becomes one *cue Queen's Another one bites the dust*","loc": {"type": "Point","coordinates": [103.81061,1.321459]}} 
{"id": "8705291471","server": "8558","farm": "9","userId": "24989432@N06","secret": "721b325990","title": "It's a beautiful morning to get married =)","loc": {"type": "Point","coordinates": [103.81061,1.321459]}} 
{"id": "8701918598","server": "8268","farm": "9","userId": "24989432@N06","secret": "b7e1d0ed3d","title": "Wedding rehearsal with the Green Lake boys :)","loc": {"type": "Point","coordinates": [103.81061,1.321459]}} 
{"id": "8643733241","server": "8255","farm": "9","userId": "92923304@N08","secret": "de2088cbdf","title": "tsukune @ En Japanese Dining Bar - Crown Centre","loc": {"type": "Point","coordinates": [103.81121,1.3231]}} 
{"id": "8643736787","server": "8101","farm": "9","userId": "92923304@N08","secret": "109e8977fa","title": "Garlic Fried Rice @ En Japanese Dining Bar - Crown Centre","loc": {"type": "Point","coordinates": [103.81121,1.3231]}} 
{"id": "8644834212","server": "8530","farm": "9","userId": "92923304@N08","secret": "53f110d0ea","title": "Shabu Shabu @ En Japanese Dining Bar - Crown Centre","loc": {"type": "Point","coordinates": [103.81121,1.3231]}} 
{"id": "8643735077","server": "8250","farm": "9","userId": "92923304@N08","secret": "eb46a20392","title": "Kampachi Kama Shioyaki @ En Japanese Dining Bar - Crown Centre","loc": {"type": "Point","coordinates": [103.81121,1.3231]}} 
{"id": "8643731383","server": "8103","farm": "9","userId": "92923304@N08","secret": "e1601e46d8","title": "Grilled Chicken Wings @ En Japanese Dining Bar - Crown Centre","loc": {"type": "Point","coordinates": [103.81121,1.3231]}} 
{"id": "8644813372","server": "8403","farm": "9","userId": "92923304@N08","secret": "fb0f859a50","title": "Seafood Salad @ En Japanese Dining Bar - Crown Centre","loc": {"type": "Point","coordinates": [103.81121,1.3231]}} 
{"id": "8644821678","server": "8531","farm": "9","userId": "92923304@N08","secret": "bf1b5ea4e8","title": "Gyoza @ En Japanese Dining Bar - Crown Centre","loc": {"type": "Point","coordinates": [103.81121,1.3231]}} 
{"id": "8643729777","server": "8115","farm": "9","userId": "92923304@N08","secret": "6de0daecf9","title": "Kaki Furai - Fried Oyster @ En Japanese Dining Bar - Crown Centre","loc": {"type": "Point","coordinates": [103.81121,1.3231]}} 
{"id": "8643724473","server": "8242","farm": "9","userId": "92923304@N08","secret": "8b2d98b019","title": "Pitan Tofu @ En Japanese Dining Bar - Crown Centre","loc": {"type": "Point","coordinates": [103.81121,1.3231]}} 
{"id": "8644818430","server": "8393","farm": "9","userId": "92923304@N08","secret": "ccba80de0c","title": "edamame @ En Japanese Dining Bar - Crown Centre","loc": {"type": "Point","coordinates": [103.81121,1.3231]}} 
{"id": "8644815090","server": "8392","farm": "9","userId": "92923304@N08","secret": "23728a68f0","title": "Matcha Ice Cream @ En Japanese Dining Bar - Crown Centre","loc": {"type": "Point","coordinates": [103.81121,1.3231]}} 
{"id": "8643720859","server": "8264","farm": "9","userId": "92923304@N08","secret": "62477dacae","title": "Beef Caparccio @ En Japanese Dining Bar - Crown Centre","loc": {"type": "Point","coordinates": [103.81121,1.3231]}} 
{"id": "8643728261","server": "8528","farm": "9","userId": "92923304@N08","secret": "4f0f346861","title": "Grilled Mushroom @ En Japanese Dining Bar - Crown Centre","loc": {"type": "Point","coordinates": [103.81121,1.3231]}} 
{"id": "8605601090","server": "8401","farm": "9","userId": "92951889@N00","secret": "fb7225cfa3","title": "Storm drain fishing","loc": {"type": "Point","coordinates": [103.81475,1.323134]}} 
{"id": "8602567482","server": "8102","farm": "9","userId": "25881447@N07","secret": "5f1f53d7bf","title": "Weekend trip to Singapore","loc": {"type": "Point","coordinates": [103.81516,1.3215]}} 
{"id": "8585466156","server": "8238","farm": "9","userId": "7310714@N06","secret": "1e9bcfcc91","title": "","loc": {"type": "Point","coordinates": [103.81267,1.3215]}} 
{"id": "8585461656","server": "8091","farm": "9","userId": "7310714@N06","secret": "bf2ec97493","title": "","loc": {"type": "Point","coordinates": [103.81416,1.324]}} 
{"id": "8584364131","server": "8087","farm": "9","userId": "7310714@N06","secret": "7e5d1d6b5e","title": "","loc": {"type": "Point","coordinates": [103.813835,1.322]}} 
{"id": "8585463276","server": "8101","farm": "9","userId": "7310714@N06","secret": "9d80008bce","title": "","loc": {"type": "Point","coordinates": [103.813835,1.322]}} 
{"id": "8584359191","server": "8375","farm": "9","userId": "7310714@N06","secret": "0f677e82e1","title": "","loc": {"type": "Point","coordinates": [103.813835,1.322333]}} 
{"id": "8585462540","server": "8517","farm": "9","userId": "7310714@N06","secret": "a8485850f9","title": "","loc": {"type": "Point","coordinates": [103.81416,1.324]}} 
{"id": "8585460890","server": "8372","farm": "9","userId": "7310714@N06","secret": "b0153437e0","title": "","loc": {"type": "Point","coordinates": [103.813835,1.322]}} 
{"id": "8584359871","server": "8372","farm": "9","userId": "7310714@N06","secret": "64ede006b9","title": "","loc": {"type": "Point","coordinates": [103.81416,1.324]}} 
{"id": "8584358607","server": "8086","farm": "9","userId": "7310714@N06","secret": "546e332e37","title": "","loc": {"type": "Point","coordinates": [103.813835,1.322333]}} 
{"id": "8585454692","server": "8372","farm": "9","userId": "7310714@N06","secret": "d53a91a8e4","title": "","loc": {"type": "Point","coordinates": [103.812164,1.323166]}} 
{"id": "8584355329","server": "8240","farm": "9","userId": "7310714@N06","secret": "b6c7f91ea2","title": "","loc": {"type": "Point","coordinates": [103.81416,1.324166]}} 
{"id": "8585457406","server": "8088","farm": "9","userId": "7310714@N06","secret": "f409a77eb0","title": "","loc": {"type": "Point","coordinates": [103.81416,1.324166]}} 
{"id": "8584356641","server": "8532","farm": "9","userId": "7310714@N06","secret": "8c78f627d8","title": "","loc": {"type": "Point","coordinates": [103.81416,1.324166]}} 
{"id": "8584358079","server": "8526","farm": "9","userId": "7310714@N06","secret": "8cff2d28d6","title": "","loc": {"type": "Point","coordinates": [103.81416,1.324]}} 
{"id": "8584356089","server": "8510","farm": "9","userId": "7310714@N06","secret": "a3b3ba0c65","title": "","loc": {"type": "Point","coordinates": [103.813835,1.322333]}} 
{"id": "8565851442","server": "8386","farm": "9","userId": "83200386@N05","secret": "132d97ae12","title": "IMG_4299","loc": {"type": "Point","coordinates": [103.81084,1.324833]}} 
{"id": "8564755111","server": "8514","farm": "9","userId": "83200386@N05","secret": "161c2ff3ff","title": "IMG_4297","loc": {"type": "Point","coordinates": [103.81084,1.324833]}} 
{"id": "8564754533","server": "8370","farm": "9","userId": "83200386@N05","secret": "4b221082bc","title": "IMG_4298","loc": {"type": "Point","coordinates": [103.811,1.324833]}} 
{"id": "8564758275","server": "8386","farm": "9","userId": "83200386@N05","secret": "2f83853e2c","title": "IMG_4293","loc": {"type": "Point","coordinates": [103.81084,1.324833]}} 
{"id": "8560086378","server": "8228","farm": "9","userId": "77771527@N06","secret": "1d089c0b7c","title": "Lovely sky #sun #sunlight #sky #clouds #cloud #cloudporn #igers #igdaily #iphone #iphonesia #iphoneonly #iphonepics #iphonesian #iphone4only #instagood #instamood #instaweek #instadaily #instagramers #instagramhub #followme #webstagram #photooftheday","loc": {"type": "Point","coordinates": [103.81189,1.323298]}} 
{"id": "8552573525","server": "8226","farm": "9","userId": "14385475@N05","secret": "22ccc7df84","title": "IMG_3685","loc": {"type": "Point","coordinates": [103.813,1.3205]}} 
{"id": "8552572419","server": "8525","farm": "9","userId": "14385475@N05","secret": "9c30338d49","title": "IMG_3684","loc": {"type": "Point","coordinates": [103.8145,1.321833]}} 
{"id": "8553674690","server": "8367","farm": "9","userId": "14385475@N05","secret": "d8aa4c1ecd","title": "French Ambassador's Residence","loc": {"type": "Point","coordinates": [103.8145,1.321833]}} 
{"id": "8544681656","server": "8509","farm": "9","userId": "16105436@N00","secret": "346b62bf77","title": "Long queue for Selera Rasa Nasi Lemak","loc": {"type": "Point","coordinates": [103.81433,1.324]}} 
{"id": "8543584695","server": "8090","farm": "9","userId": "16105436@N00","secret": "e71fe50c8d","title": "Trying Indian rojak","loc": {"type": "Point","coordinates": [103.81433,1.324]}} 
{"id": "8541305230","server": "8242","farm": "9","userId": "92951889@N00","secret": "00bbcaa369","title": "Like the layout of this hawker centre, and lots of natural daylight and air!","loc": {"type": "Point","coordinates": [103.81419,1.324142]}} 
{"id": "8508587225","server": "8241","farm": "9","userId": "64519864@N00","secret": "1f63a5393e","title": "(What used to be a) Railway track from Singapore to Malaysia.","loc": {"type": "Point","coordinates": [103.807495,1.326009]}} 
{"id": "8504213130","server": "8528","farm": "9","userId": "16105436@N00","secret": "1bf94666a2","title": "Sunday Brunch","loc": {"type": "Point","coordinates": [103.81416,1.324166]}} 
{"id": "8504211442","server": "8378","farm": "9","userId": "16105436@N00","secret": "03d2cc6106","title": "Digital sign","loc": {"type": "Point","coordinates": [103.81416,1.324166]}} 
{"id": "8494149515","server": "8387","farm": "9","userId": "78686549@N00","secret": "9fb23f7941","title": "BBQ Char Siu Pork with soft bones Open Burger. Still my fav here.","loc": {"type": "Point","coordinates": [103.81462,1.322781]}} 
{"id": "8458162422","server": "8388","farm": "9","userId": "10966331@N04","secret": "6e1ecf9ea9","title": "","loc": {"type": "Point","coordinates": [103.81516,1.3205]}} 
{"id": "8437500856","server": "8470","farm": "9","userId": "62062180@N04","secret": "ca546572a0","title": "uncle, double everything please!","loc": {"type": "Point","coordinates": [103.81414,1.324164]}} 
{"id": "8387878991","server": "8325","farm": "9","userId": "54349516@N07","secret": "11aea3c789","title": "Rakes at the Hwa Chong Junior College","loc": {"type": "Point","coordinates": [103.8065,1.325166]}} 
{"id": "8371903871","server": "8518","farm": "9","userId": "69921557@N00","secret": "5ac0276f35","title": "upload","loc": {"type": "Point","coordinates": [103.81417,1.322946]}} 
{"id": "8353472112","server": "8364","farm": "9","userId": "91901619@N05","secret": "cc139455bb","title": "Singapore Botanic Garden","loc": {"type": "Point","coordinates": [103.8152,1.32146]}} 
{"id": "8349083978","server": "8331","farm": "9","userId": "16102830@N05","secret": "69e5537e1f","title": "1205_MayRandoms_HR_179","loc": {"type": "Point","coordinates": [103.807,1.323833]}} 
{"id": "8349122760","server": "8495","farm": "9","userId": "16102830@N05","secret": "4efe20abc0","title": "1205_MayRandoms_HR_066","loc": {"type": "Point","coordinates": [103.8085,1.323833]}} 
{"id": "8348025435","server": "8217","farm": "9","userId": "16102830@N05","secret": "9fcd6580bc","title": "1205_MayRandoms_HR_178","loc": {"type": "Point","coordinates": [103.807,1.323833]}} 
{"id": "8348064079","server": "8076","farm": "9","userId": "16102830@N05","secret": "acc49fbf8e","title": "1205_MayRandoms_HR_067","loc": {"type": "Point","coordinates": [103.809,1.3245]}} 
{"id": "8349122956","server": "8471","farm": "9","userId": "16102830@N05","secret": "2fa6399da6","title": "1205_MayRandoms_HR_065","loc": {"type": "Point","coordinates": [103.8085,1.323833]}} 
{"id": "8349084524","server": "8353","farm": "9","userId": "16102830@N05","secret": "fe5d4958f9","title": "1205_MayRandoms_HR_177","loc": {"type": "Point","coordinates": [103.807,1.323666]}} 
{"id": "8348063767","server": "8356","farm": "9","userId": "16102830@N05","secret": "dbe80058ba","title": "1205_MayRandoms_HR_069","loc": {"type": "Point","coordinates": [103.8085,1.322833]}} 
{"id": "8348063123","server": "8234","farm": "9","userId": "16102830@N05","secret": "de3d4b3600","title": "1205_MayRandoms_HR_071","loc": {"type": "Point","coordinates": [103.809,1.3245]}} 
{"id": "8348024943","server": "8377","farm": "9","userId": "16102830@N05","secret": "9d9de254d9","title": "1205_MayRandoms_HR_180","loc": {"type": "Point","coordinates": [103.807,1.323833]}} 
{"id": "8349121896","server": "8323","farm": "9","userId": "16102830@N05","secret": "acc155e7d3","title": "1205_MayRandoms_HR_070","loc": {"type": "Point","coordinates": [103.8085,1.322333]}} 
{"id": "8324098927","server": "8220","farm": "9","userId": "89975165@N07","secret": "18110d83b9","title": "Strawberry Cheesecake.","loc": {"type": "Point","coordinates": [103.81462,1.322781]}} 
{"id": "8325151234","server": "8216","farm": "9","userId": "89975165@N07","secret": "cf5282c561","title": "Crab Meat Linguine.","loc": {"type": "Point","coordinates": [103.81462,1.322781]}} 
{"id": "8317438769","server": "8356","farm": "9","userId": "75438529@N06","secret": "86155a3f4f","title": "Order in Chaos","loc": {"type": "Point","coordinates": [103.80894,1.324989]}} 
{"id": "8309489092","server": "8079","farm": "9","userId": "42594504@N00","secret": "1806e2ccc8","title": "Chocate Peanut Butter Stack from Starbucks. Delicious!!","loc": {"type": "Point","coordinates": [103.8104,1.323731]}} 
{"id": "8309492998","server": "8212","farm": "9","userId": "42594504@N00","secret": "96bb3d40a6","title": "White Space - doing a series on HDB void decks and making them as abstract as possible","loc": {"type": "Point","coordinates": [103.8139,1.324359]}} 
{"id": "8309494954","server": "8504","farm": "9","userId": "42594504@N00","secret": "3d70f40b1a","title": "Can u touch the clouds? #snapseed #sgig #instasg #zengliwei","loc": {"type": "Point","coordinates": [103.8102,1.324794]}} 
{"id": "8308439875","server": "8358","farm": "9","userId": "42594504@N00","secret": "e2f447c3d0","title": "Our tropical fruit island of awesomeness }•#zengliwei #colour #singapore #iphone #iphoneography #iphone4gs #snapseed #instasg","loc": {"type": "Point","coordinates": [103.8089,1.325022]}} 
{"id": "8308436349","server": "8071","farm": "9","userId": "42594504@N00","secret": "857cc22def","title": "Such good weather today, at least there is no rain :)","loc": {"type": "Point","coordinates": [103.8093,1.320631]}} 
{"id": "8309497040","server": "8503","farm": "9","userId": "42594504@N00","secret": "74bf70d74d","title": "Abandoned #zengliwei #sgig #snapseed #singapore #instasg #colour","loc": {"type": "Point","coordinates": [103.8094,1.320481]}} 
{"id": "8309488384","server": "8073","farm": "9","userId": "42594504@N00","secret": "280d32fef1","title": "Not for the slow.. :) guess whose. :)","loc": {"type": "Point","coordinates": [103.8093,1.319942]}} 
{"id": "8309490204","server": "8355","farm": "9","userId": "42594504@N00","secret": "1bf8c1b739","title": "Morning dew :))","loc": {"type": "Point","coordinates": [103.8135,1.322204]}} 
{"id": "8308438299","server": "8211","farm": "9","userId": "42594504@N00","secret": "fc0bdb813b","title": "Duckie Duckie :)) #iphone #sgig #iphone4gs #iphone #singapore #instasg #zengliwei","loc": {"type": "Point","coordinates": [103.8134,1.322277]}} 
{"id": "8309491300","server": "8218","farm": "9","userId": "42594504@N00","secret": "ce1c0afd2d","title": "Pick me! Pick me! Eager beavers","loc": {"type": "Point","coordinates": [103.81053,1.320187]}} 
{"id": "8308436345","server": "8073","farm": "9","userId": "42594504@N00","secret": "9bf8b6d145","title": "The shadow of the day. #singapore #instasg #sgig #noir #zengliwei #street #streetphotography #bw #shadows","loc": {"type": "Point","coordinates": [103.8093,1.320631]}} 
{"id": "8309496926","server": "8358","farm": "9","userId": "42594504@N00","secret": "8ceaa06c25","title": "The things Pebbles needs to do to get treats from me :))","loc": {"type": "Point","coordinates": [103.8094,1.320481]}} 
{"id": "8309481464","server": "8224","farm": "9","userId": "42594504@N00","secret": "7c9f31395a","title": "Diner #sgig #zengliwei #iphoneonly #iphoneography #light #shadows","loc": {"type": "Point","coordinates": [103.8104,1.32346]}} 
{"id": "8308429155","server": "8363","farm": "9","userId": "42594504@N00","secret": "0ab1768206","title": "Matthias pushing the chairs like a walking trainer #zengliwei #iphoneonly #sgig #SJCp #children","loc": {"type": "Point","coordinates": [103.81,1.320403]}} 
{"id": "8309481328","server": "8492","farm": "9","userId": "42594504@N00","secret": "005f6a24a2","title": "Matthias :) #sjcp #children #iphoneonly #sgig #iphoneography","loc": {"type": "Point","coordinates": [103.81,1.320403]}} 
{"id": "8309477860","server": "8503","farm": "9","userId": "42594504@N00","secret": "866b3b4d9e","title": "#shadow & #light","loc": {"type": "Point","coordinates": [103.8105,1.320053]}} 
{"id": "8308430513","server": "8361","farm": "9","userId": "42594504@N00","secret": "92239dccc8","title": "@hisbelovedpig translating the message :))","loc": {"type": "Point","coordinates": [103.8104,1.320332]}} 
{"id": "8309486438","server": "8084","farm": "9","userId": "42594504@N00","secret": "2be27b8ec0","title": "Where is my food?? :)","loc": {"type": "Point","coordinates": [103.8094,1.320481]}} 
{"id": "8309487120","server": "8501","farm": "9","userId": "42594504@N00","secret": "bd7057e287","title": "Patterns :))","loc": {"type": "Point","coordinates": [103.8136,1.32337]}} 
{"id": "8308435255","server": "8083","farm": "9","userId": "42594504@N00","secret": "ced4dfbfc3","title": "@hisbelovedpig thanks for dinner!! :))","loc": {"type": "Point","coordinates": [103.808,1.325657]}} 
{"id": "8309486386","server": "8084","farm": "9","userId": "42594504@N00","secret": "3fa6498355","title": "Baffled by all the Chinese words going around the dinner table","loc": {"type": "Point","coordinates": [103.8094,1.320481]}} 
{"id": "8308421179","server": "8084","farm": "9","userId": "42594504@N00","secret": "10c5ccc0f3","title": "Mochaccino..hope it will chase away e illness","loc": {"type": "Point","coordinates": [103.813484,1.322361]}} 
{"id": "8308433917","server": "8220","farm": "9","userId": "42594504@N00","secret": "752917957a","title": "Anticipation - waiting to start worship :)) #zengliwei #bnw #bw #instasg #sgig #noir @hisbelovedpig","loc": {"type": "Point","coordinates": [103.8111,1.321718]}} 
{"id": "8308425853","server": "8353","farm": "9","userId": "42594504@N00","secret": "30b6361dea","title": "#light #nature love the light on the tree","loc": {"type": "Point","coordinates": [103.8108,1.320354]}} 
{"id": "8308433507","server": "8080","farm": "9","userId": "42594504@N00","secret": "404f30e603","title": "Love can be found in unthinkable places :) #iphoneonly #sgig #zengliwei #iphoneography #sg #love","loc": {"type": "Point","coordinates": [103.8104,1.323601]}} 
{"id": "8308433807","server": "8074","farm": "9","userId": "42594504@N00","secret": "cd6144524b","title": "The 3 idiots #iphoneography #iphoneonly #zengliwei #diptic #sgig","loc": {"type": "Point","coordinates": [103.8094,1.320481]}} 
{"id": "8309477884","server": "8076","farm": "9","userId": "42594504@N00","secret": "36f03ef80b","title": "#lights, #shadows, #lines","loc": {"type": "Point","coordinates": [103.8105,1.320053]}} 
{"id": "8303703577","server": "8081","farm": "9","userId": "88189322@N05","secret": "dd4760502a","title": "IMG_0039","loc": {"type": "Point","coordinates": [103.81367,1.3205]}} 
{"id": "8304755060","server": "8084","farm": "9","userId": "88189322@N05","secret": "57541dbb98","title": "IMG_0074","loc": {"type": "Point","coordinates": [103.81416,1.321]}} 
{"id": "8304715388","server": "8075","farm": "9","userId": "99696178@N00","secret": "8b50abbf91","title": "@charlynnn as #darthvader @leslietan","loc": {"type": "Point","coordinates": [103.80734,1.32276]}} 
{"id": "8302094791","server": "8360","farm": "9","userId": "20922765@N00","secret": "81ecea4db5","title": "MIKI-TRIP-SINGAPORE-18","loc": {"type": "Point","coordinates": [103.81433,1.322]}} 
{"id": "8298992251","server": "8503","farm": "9","userId": "41894167963@N01","secret": "62237476e2","title": "3024139_856620121223-28186-7sato6","loc": {"type": "Point","coordinates": [103.814285,1.322758]}} 
{"id": "8298992413","server": "8501","farm": "9","userId": "41894167963@N01","secret": "a3b62a6545","title": "Bacon burger","loc": {"type": "Point","coordinates": [103.81462,1.322781]}} 
{"id": "8285639597","server": "8489","farm": "9","userId": "91241902@N05","secret": "ea51c1067d","title": "Evening blur","loc": {"type": "Point","coordinates": [103.81501,1.322576]}} 
{"id": "8279453581","server": "8203","farm": "9","userId": "33807059@N00","secret": "cb0d03c03e","title": "Back for more ;)","loc": {"type": "Point","coordinates": [103.81462,1.322781]}} 
{"id": "8270900307","server": "8487","farm": "9","userId": "64482242@N06","secret": "760b592817","title": "e t c h e d .","loc": {"type": "Point","coordinates": [103.807495,1.326009]}} 
{"id": "8263707756","server": "8358","farm": "9","userId": "89975165@N07","secret": "a44f078d6c","title": "Baked Alaska for dessert.","loc": {"type": "Point","coordinates": [103.81364,1.322619]}} 
{"id": "8234426301","server": "8349","farm": "9","userId": "39489048@N04","secret": "5cc1d4e297","title": "","loc": {"type": "Point","coordinates": [103.81433,1.324333]}} 
{"id": "8223456901","server": "8208","farm": "9","userId": "88442731@N00","secret": "dfa10f80e7","title": "Apple & Cheddar Scones","loc": {"type": "Point","coordinates": [103.8045,1.324667]}} 
{"id": "8191800593","server": "8067","farm": "9","userId": "17528871@N00","secret": "df89ed8f3a","title": "Bew Nangs!","loc": {"type": "Point","coordinates": [103.8137,1.322619]}} 
{"id": "8192654594","server": "8488","farm": "9","userId": "9454157@N08","secret": "d25df72c6e","title": "#snapple says...","loc": {"type": "Point","coordinates": [103.809784,1.324361]}} 
{"id": "8181730062","server": "8059","farm": "9","userId": "74006149@N07","secret": "13223159f3","title": "Which desert should I take???  #food","loc": {"type": "Point","coordinates": [103.81465,1.322819]}} 
{"id": "8153451887","server": "8484","farm": "9","userId": "61670399@N07","secret": "f14e119939","title": "Veal Mignon. Niceeee","loc": {"type": "Point","coordinates": [103.8137,1.322619]}} 
{"id": "8149343959","server": "8191","farm": "9","userId": "56728000@N00","secret": "19008c0c28","title": "Carbs alert!","loc": {"type": "Point","coordinates": [103.8145,1.322467]}} 
{"id": "8145026177","server": "8196","farm": "9","userId": "24138062@N06","secret": "a37a5ec552","title": "upload","loc": {"type": "Point","coordinates": [103.81501,1.322576]}} 
{"id": "8127384902","server": "8190","farm": "9","userId": "48889054224@N01","secret": "e056a61171","title": "If you can read this you don't need my services.","loc": {"type": "Point","coordinates": [103.813446,1.322414]}} 
{"id": "8127284755","server": "8047","farm": "9","userId": "48889054224@N01","secret": "5101517c1c","title": "Nom de beurre","loc": {"type": "Point","coordinates": [103.8137,1.322619]}} 
{"id": "8124764795","server": "8044","farm": "9","userId": "74006149@N07","secret": "7c13e15b11","title": "Sleeping everywhere!","loc": {"type": "Point","coordinates": [103.81005,1.323874]}} 
{"id": "8124391075","server": "8329","farm": "9","userId": "55486190@N00","secret": "9fca6ecc67","title": "#Yummy #Bandung & #Teh #Tarik #Singaporean #icecream #flavours #Dessert #Food","loc": {"type": "Point","coordinates": [103.81364,1.322619]}} 
{"id": "8122182215","server": "8191","farm": "9","userId": "35468141938@N01","secret": "c87e48f0ba","title": "OMG. I'm so exhausted. Heading back from Chomp Chomp, I had to go through Lornie, and seek safe passage through Bukit Brown Cemetary. Quite fitting for Halloween, but the minute I entered this area, my audio player stopped working and I felt a sudden cold","loc": {"type": "Point","coordinates": [103.81364,1.322619]}} 
{"id": "8108367526","server": "8470","farm": "9","userId": "48889054224@N01","secret": "b7df642321","title": "Your home got AVA licensed kitchen meh?","loc": {"type": "Point","coordinates": [103.81462,1.322781]}} 
{"id": "8108292027","server": "8052","farm": "9","userId": "48889054224@N01","secret": "7fb52442dc","title": "It's Japanese for 'drink this if you're thinking of breaking your self-imposed beer ban'.","loc": {"type": "Point","coordinates": [103.81462,1.322781]}} 
{"id": "8104940244","server": "8325","farm": "9","userId": "74006149@N07","secret": "b761b4b712","title": "And my dad wasted 100ml of it...","loc": {"type": "Point","coordinates": [103.81067,1.323367]}} 
{"id": "8053388017","server": "8449","farm": "9","userId": "74006149@N07","secret": "96bc381fb1","title": "Limpeh want to drink....so he got a tower...gg lah","loc": {"type": "Point","coordinates": [103.814125,1.322333]}} 
{"id": "8053347982","server": "8317","farm": "9","userId": "74006149@N07","secret": "421b023833","title": "Really an upsize down #smoking sign¿","loc": {"type": "Point","coordinates": [103.814125,1.322333]}} 
{"id": "8038412001","server": "8171","farm": "9","userId": "43483480@N02","secret": "f68184c827","title": "#singapore #sky #lookout","loc": {"type": "Point","coordinates": [103.813446,1.322414]}} 
