{"id": "9441798791","server": "2832","farm": "3","userId": "98532612@N02","secret": "b182d382ac","title": "Wheelock Plce","loc": {"type": "Point","coordinates": [103.831184,1.304642]}} 
{"id": "9433244955","server": "5323","farm": "6","userId": "86852920@N07","secret": "2755a3b6e5","title": "Ion Orchard","loc": {"type": "Point","coordinates": [103.83509,1.303183]}} 
{"id": "9432987991","server": "5540","farm": "6","userId": "51035533573@N01","secret": "05c9eac26a","title": "#singapore #orchard #pool #sunset","loc": {"type": "Point","coordinates": [103.83303,1.305833]}} 
{"id": "9434146994","server": "3781","farm": "4","userId": "48784929@N03","secret": "bfa33b6090","title": "A face full of phở - nice that the kids love this as much as we do. #365/216","loc": {"type": "Point","coordinates": [103.83137,1.30483]}} 
{"id": "9433448462","server": "3752","farm": "4","userId": "93885572@N08","secret": "23ec538074","title": "IMG_8990","loc": {"type": "Point","coordinates": [103.8335,1.304166]}} 
{"id": "9426984963","server": "7327","farm": "8","userId": "64415906@N04","secret": "9243bde22b","title": "Steak.","loc": {"type": "Point","coordinates": [103.83089,1.303956]}} 
{"id": "9425640177","server": "3705","farm": "4","userId": "92982109@N00","secret": "b5f5cc3534","title": "Mom & A.","loc": {"type": "Point","coordinates": [103.83191,1.304385]}} 
{"id": "9425633039","server": "5478","farm": "6","userId": "92982109@N00","secret": "2d370f7833","title": "Colors at mt ex exhibition","loc": {"type": "Point","coordinates": [103.83191,1.304385]}} 
{"id": "9424925363","server": "2853","farm": "3","userId": "48889054224@N01","secret": "f20f1770e2","title": "Porkasso's cubism","loc": {"type": "Point","coordinates": [103.83475,1.302823]}} 
{"id": "9424830933","server": "2834","farm": "3","userId": "48889054224@N01","secret": "472a6a1327","title": "This SJB is not bad","loc": {"type": "Point","coordinates": [103.83475,1.302823]}} 
{"id": "9422597792","server": "7439","farm": "8","userId": "56728000@N00","secret": "bb278173a5","title": "There goes my hard earned cash! | #cookbookaddict #retailtherapy","loc": {"type": "Point","coordinates": [103.8347,1.303226]}} 
{"id": "9399484260","server": "7391","farm": "8","userId": "24015559@N00","secret": "0d660ed4c2","title": "i didnt missed any scene when doctor cut out the lump from my eye.. Arrrgggg..","loc": {"type": "Point","coordinates": [103.83519,1.304399]}} 
{"id": "9389149789","server": "3783","farm": "4","userId": "69808464@N07","secret": "e102c44a6c","title": "钞票哗啦哗啦的赚#ERP","loc": {"type": "Point","coordinates": [103.83205,1.304666]}} 
{"id": "9388491089","server": "3725","farm": "4","userId": "99269911@N07","secret": "3197d29214","title": "craved","loc": {"type": "Point","coordinates": [103.8275,1.3025]}} 
{"id": "9391248482","server": "7292","farm": "8","userId": "99269911@N07","secret": "8279348cb6","title": "mussels in white wine & chili gravy","loc": {"type": "Point","coordinates": [103.8275,1.3025]}} 
{"id": "9386715218","server": "5444","farm": "6","userId": "99269911@N07","secret": "c7b2ddbe04","title": "bbq pork pau","loc": {"type": "Point","coordinates": [103.836334,1.3025]}} 
{"id": "9381274683","server": "5460","farm": "6","userId": "24358066@N08","secret": "d89295bbfe","title": "Hello!","loc": {"type": "Point","coordinates": [103.83261,1.304299]}} 
{"id": "9380025767","server": "3686","farm": "4","userId": "54048808@N00","secret": "75118685fe","title": "Sunday afternoon at the bookstore, raising readers.","loc": {"type": "Point","coordinates": [103.834335,1.303666]}} 
{"id": "9369507532","server": "3670","farm": "4","userId": "75753030@N08","secret": "97f0d54096","title": "1420. Orchard #gf_singapore #architecture","loc": {"type": "Point","coordinates": [103.831184,1.304642]}} 
{"id": "9365761954","server": "5545","farm": "6","userId": "13340770@N06","secret": "130e221969","title": "Laksa","loc": {"type": "Point","coordinates": [103.83186,1.303955]}} 
{"id": "9309838992","server": "3802","farm": "4","userId": "41894167963@N01","secret": "833fa2197e","title": "IMG_8348","loc": {"type": "Point","coordinates": [103.83017,1.305833]}} 
{"id": "9309848412","server": "5526","farm": "6","userId": "41894167963@N01","secret": "d2c286e461","title": "IMG_8353","loc": {"type": "Point","coordinates": [103.83,1.305667]}} 
{"id": "9307057167","server": "7342","farm": "8","userId": "41894167963@N01","secret": "de01cbf831","title": "IMG_8354","loc": {"type": "Point","coordinates": [103.83017,1.305833]}} 
{"id": "9302187203","server": "7418","farm": "8","userId": "20636317@N00","secret": "fe16caec87","title": "Oliver","loc": {"type": "Point","coordinates": [103.8315,1.305]}} 
{"id": "9291239206","server": "7436","farm": "8","userId": "54048808@N00","secret": "751285da75","title": "Spires to the sky","loc": {"type": "Point","coordinates": [103.83133,1.305]}} 
{"id": "9275964843","server": "2825","farm": "3","userId": "41894167963@N01","secret": "a55f133165","title": "IMG_8322","loc": {"type": "Point","coordinates": [103.83017,1.3025]}} 
{"id": "9231303106","server": "7323","farm": "8","userId": "55070113@N08","secret": "755104a814","title": "Post birthday dinner with @suhailalaip mum and siblings.","loc": {"type": "Point","coordinates": [103.83475,1.303054]}} 
{"id": "9226131069","server": "7322","farm": "8","userId": "41298448@N08","secret": "a63f03c055","title": "Eleanor","loc": {"type": "Point","coordinates": [103.834694,1.302563]}} 
{"id": "9228562724","server": "7316","farm": "8","userId": "41298448@N08","secret": "7ac81053d2","title": "The new mom","loc": {"type": "Point","coordinates": [103.834694,1.302563]}} 
{"id": "9446233054","server": "7284","farm": "8","userId": "92053760@N02","secret": "6ba8f7b489","title": "eur.trip 266","loc": {"type": "Point","coordinates": [103.83417,1.304833]}} 
{"id": "9446229716","server": "2809","farm": "3","userId": "92053760@N02","secret": "d7d6e020a6","title": "eur.trip 270","loc": {"type": "Point","coordinates": [103.83517,1.303166]}} 
{"id": "9446228428","server": "7450","farm": "8","userId": "92053760@N02","secret": "853aaa94d6","title": "eur.trip 268","loc": {"type": "Point","coordinates": [103.83483,1.303166]}} 
{"id": "9444972660","server": "7371","farm": "8","userId": "92593934@N04","secret": "934afc161e","title": "All that's missing was a pair of trunks for that cool prelude to an impeccable dinner.","loc": {"type": "Point","coordinates": [103.829575,1.305822]}} 
{"id": "9444135480","server": "5465","farm": "6","userId": "15170730@N07","secret": "fc8214a1e1","title": "i luv this section","loc": {"type": "Point","coordinates": [103.83565,1.303395]}} 
{"id": "9441168655","server": "5449","farm": "6","userId": "19282426@N00","secret": "3edaed0402","title": "Rainbow yumz","loc": {"type": "Point","coordinates": [103.832375,1.304309]}} 
{"id": "9443647302","server": "2822","farm": "3","userId": "88199293@N03","secret": "66b853714c","title": "Multi-layers Tonkatsu","loc": {"type": "Point","coordinates": [103.8371,1.302467]}} 
{"id": "9440831811","server": "7401","farm": "8","userId": "88199293@N03","secret": "42a4987f78","title": "Red Shabu Shabu Ramen","loc": {"type": "Point","coordinates": [103.83145,1.304725]}} 
{"id": "9436735706","server": "2820","farm": "3","userId": "82533607@N04","secret": "e7f7c81f7b","title": "Awww...","loc": {"type": "Point","coordinates": [103.83105,1.30431]}} 
{"id": "9435475702","server": "5468","farm": "6","userId": "40138859@N02","secret": "b4f00987ac","title": "upload","loc": {"type": "Point","coordinates": [103.83191,1.304385]}} 
{"id": "9431839725","server": "3743","farm": "4","userId": "99942665@N00","secret": "7b27dae508","title": "P1220053","loc": {"type": "Point","coordinates": [103.83633,1.305907]}} 
{"id": "9434613634","server": "7329","farm": "8","userId": "99942665@N00","secret": "70d6c6ef7d","title": "P1220052","loc": {"type": "Point","coordinates": [103.83633,1.305907]}} 
{"id": "9430357871","server": "2805","farm": "3","userId": "7209251@N08","secret": "24d5086275","title": "Day 2. Here comes the big day...","loc": {"type": "Point","coordinates": [103.83617,1.302368]}} 
{"id": "9429736928","server": "3745","farm": "4","userId": "15170730@N07","secret": "a649559532","title": "black / royal blue","loc": {"type": "Point","coordinates": [103.833916,1.303907]}} 
{"id": "9427048020","server": "2892","farm": "3","userId": "14932126@N08","secret": "f75eeaffb8","title": "","loc": {"type": "Point","coordinates": [103.82733,1.3025]}} 
{"id": "9422922552","server": "5345","farm": "6","userId": "56728000@N00","secret": "67af2862d3","title": "Feeling totally spent to probably enjoy the weekend. Poor credit card. | #shopaholic #retailtherapy","loc": {"type": "Point","coordinates": [103.83479,1.302186]}} 
{"id": "9414245008","server": "7304","farm": "8","userId": "56728000@N00","secret": "f200f05cbd","title": "Classy girl having a mouthful of bear paw. Obviously it's much bigger than her dainty mouth can handle. | #lunch #food #food","loc": {"type": "Point","coordinates": [103.83619,1.301252]}} 
{"id": "9411470553","server": "5443","farm": "6","userId": "56728000@N00","secret": "ab31be3756","title": "All kinds of paws: Milk (white), Squid ink (black), Curry (yellow), Brown Sugar (Brown) and Strawberry (pink). Cheerful innit? | #colourful #food #foodtrend","loc": {"type": "Point","coordinates": [103.83619,1.301252]}} 
{"id": "9405545079","server": "3696","farm": "4","userId": "51294514@N06","secret": "47c621563c","title": "Jay Garrick (Golden Age Flash) at Noise Singapore 2013 #androidography #snapseed #comics #cosplay #noisesingapore","loc": {"type": "Point","coordinates": [103.83194,1.304783]}} 
{"id": "9404724399","server": "3745","farm": "4","userId": "16105436@N00","secret": "cd0b3fe96d","title": "Directional sound demo at Singapore Makers faire","loc": {"type": "Point","coordinates": [103.83566,1.300833]}} 
{"id": "9404723697","server": "5520","farm": "6","userId": "16105436@N00","secret": "54047f976e","title": "Black chicken","loc": {"type": "Point","coordinates": [103.837,1.300666]}} 
{"id": "9396723747","server": "3685","farm": "4","userId": "24015559@N00","secret": "1a488d9338","title": "seeing from one eye is hard, especially when I try to grab something.. -.-","loc": {"type": "Point","coordinates": [103.83519,1.304399]}} 
{"id": "9391665148","server": "7345","farm": "8","userId": "92593934@N04","secret": "f5c7848647","title": "Played with my food again - tomato salad.","loc": {"type": "Point","coordinates": [103.8263,1.305236]}} 
{"id": "9388845223","server": "2848","farm": "3","userId": "11008075@N00","secret": "483c9f1c5c","title": "Finally! Naka Jollibee na din! ChickenJoy FTW!  @sourplumfairy @iamminpot","loc": {"type": "Point","coordinates": [103.833916,1.304386]}} 
{"id": "9386083536","server": "3711","farm": "4","userId": "98501935@N05","secret": "d2003cb9fa","title": "'osaka' tamago yakisoba ♡","loc": {"type": "Point","coordinates": [103.83179,1.304642]}} 
{"id": "9386020432","server": "2836","farm": "3","userId": "98501935@N05","secret": "c319c11115","title": "takoyaki balls!","loc": {"type": "Point","coordinates": [103.83179,1.304642]}} 
{"id": "9384343476","server": "2810","farm": "3","userId": "94512171@N00","secret": "d99e208808","title": "Dan Dan Mian - always love the peanutty sauce. #foodporn #singapore #sg #igsg #foodphotography #asianfood #sgig #foodpornasia #instafood","loc": {"type": "Point","coordinates": [103.83548,1.303458]}} 
{"id": "9378934327","server": "5470","farm": "6","userId": "92593934@N04","secret": "0278852484","title": "St. Regis Singapore presents Chris Kurth, Chef de Cuisine of The U.S. Grant, A Luxury Collection Hotel, San Diego for an exclusive week-long #AmericanKaleidoscope 5-course menu in celebration of American culture and arts.","loc": {"type": "Point","coordinates": [103.8263,1.305236]}} 
{"id": "9379381272","server": "5490","farm": "6","userId": "36048863@N03","secret": "3a1bcb2373","title": "","loc": {"type": "Point","coordinates": [103.8348,1.303194]}} 
{"id": "9377473102","server": "5525","farm": "6","userId": "94346589@N03","secret": "368c32820e","title": "#foodtherapy  #chocolate #dessert","loc": {"type": "Point","coordinates": [103.83194,1.304783]}} 
{"id": "9376886924","server": "7351","farm": "8","userId": "57773342@N00","secret": "b028fce63c","title": "In the near future we will be able to 3D print just about anything right at home - like this chair!","loc": {"type": "Point","coordinates": [103.835884,1.300941]}} 
{"id": "9374088029","server": "3770","farm": "4","userId": "42454135@N00","secret": "fcaa068644","title": "MT footprint. #mt #ion","loc": {"type": "Point","coordinates": [103.83194,1.304783]}} 
{"id": "9376760434","server": "3708","farm": "4","userId": "94346589@N03","secret": "7acc7bdc1c","title": "#instaplace #instaplaceapp #instagood #photooftheday #instamood #picoftheday #instadaily #photo #instacool #instapic #picture #pic @instaplacemobi #place #earth #world  #singapore #SG #orchard #ionorchard #street #day #retailtherapy","loc": {"type": "Point","coordinates": [103.83194,1.304783]}} 
{"id": "9376617376","server": "3689","farm": "4","userId": "8583503@N07","secret": "c1b85823c9","title": "Pop over to NOISE 2013 today! #no13e #noise2013","loc": {"type": "Point","coordinates": [103.83194,1.304783]}} 
{"id": "9376321878","server": "2859","farm": "3","userId": "94346589@N03","secret": "8859f8536e","title": "#instaplace #instaplaceapp #instagood #photooftheday #instamood #picoftheday #instadaily #photo #instacool #instapic #picture #pic @instaplacemobi #place #earth #world  #singapore #SG #orchard #marriotthotel #travel #shopping #hotel #street #day #retailth","loc": {"type": "Point","coordinates": [103.83239,1.305341]}} 
{"id": "9368391061","server": "2836","farm": "3","userId": "45099369@N08","secret": "93b0926edf","title": "Great tofu cheesecake...","loc": {"type": "Point","coordinates": [103.8311,1.304299]}} 
{"id": "9366479463","server": "7460","farm": "8","userId": "93109357@N05","secret": "0b19da6d30","title": "Shopping shopping..","loc": {"type": "Point","coordinates": [103.83194,1.304783]}} 
{"id": "9362730795","server": "5459","farm": "6","userId": "62854216@N00","secret": "fa89c6c01c","title": "Watami lunch - nick got cut off from@the picture *sorry*","loc": {"type": "Point","coordinates": [103.831566,1.304729]}} 
{"id": "9361799449","server": "7314","farm": "8","userId": "35531616@N05","secret": "9011799ab3","title": "[ Thu, July 25th 2013 ]  #favmasatimebelajardlondon and, now Ada in M&S SIN    #peachesandcreamtart","loc": {"type": "Point","coordinates": [103.830284,1.304513]}} 
{"id": "9361750319","server": "3669","farm": "4","userId": "92607634@N08","secret": "78c074df4b","title": "","loc": {"type": "Point","coordinates": [103.8365,1.302333]}} 
{"id": "9364531964","server": "3675","farm": "4","userId": "92607634@N08","secret": "27ace2bca5","title": "","loc": {"type": "Point","coordinates": [103.836334,1.3025]}} 
{"id": "9364068042","server": "3829","farm": "4","userId": "62854216@N00","secret": "f946d1953f","title": "Lunch at Watami!","loc": {"type": "Point","coordinates": [103.831566,1.304729]}} 
{"id": "9360178238","server": "3734","farm": "4","userId": "39952962@N00","secret": "3bae22bd92","title": "Orchard Road","loc": {"type": "Point","coordinates": [103.83641,1.302663]}} 
{"id": "9355652360","server": "5483","farm": "6","userId": "76804634@N00","secret": "e0b7606c3e","title": "Sunrise","loc": {"type": "Point","coordinates": [103.83525,1.303955]}} 
{"id": "9353143742","server": "7451","farm": "8","userId": "49111993@N00","secret": "91965fbe51","title": "Tiramisu","loc": {"type": "Point","coordinates": [103.83566,1.303333]}} 
{"id": "9350347635","server": "7299","farm": "8","userId": "49111993@N00","secret": "fd6e640f30","title": "Green Salad with Japanese Soy Dressing","loc": {"type": "Point","coordinates": [103.83583,1.303166]}} 
{"id": "9353122704","server": "7362","farm": "8","userId": "49111993@N00","secret": "79e1cc905a","title": "Clam Chowder","loc": {"type": "Point","coordinates": [103.83566,1.303166]}} 
{"id": "9353136464","server": "3814","farm": "4","userId": "49111993@N00","secret": "901bcd475b","title": "Sirloin Steak","loc": {"type": "Point","coordinates": [103.83566,1.303166]}} 
{"id": "9353140092","server": "5346","farm": "6","userId": "49111993@N00","secret": "48fe4e07d3","title": "Tiramisu for Dessert","loc": {"type": "Point","coordinates": [103.83566,1.303166]}} 
{"id": "9350352029","server": "3708","farm": "4","userId": "49111993@N00","secret": "37dfa62ce9","title": "Sirloin Steak","loc": {"type": "Point","coordinates": [103.83566,1.303166]}} 
{"id": "9350339129","server": "3817","farm": "4","userId": "49111993@N00","secret": "ab04170135","title": "Appetizer","loc": {"type": "Point","coordinates": [103.83566,1.303166]}} 
{"id": "9349057435","server": "2850","farm": "3","userId": "74006149@N07","secret": "2c9631ac24","title": "Limited discounted dinner choices... #supermarket #sushi #dinner #foodporn lol","loc": {"type": "Point","coordinates": [103.8354,1.302872]}} 
{"id": "9342179003","server": "7328","farm": "8","userId": "82533607@N04","secret": "be32284188","title": "Enhanced From Current Menu..","loc": {"type": "Point","coordinates": [103.83105,1.30431]}} 
{"id": "9344237476","server": "2862","farm": "3","userId": "82533607@N04","secret": "381d27c3a4","title": "3rd Shortlisted... No Name Yet.. Rum & Raisin Shake? M-18?","loc": {"type": "Point","coordinates": [103.83105,1.30431]}} 
{"id": "9333575611","server": "2885","farm": "3","userId": "95833059@N05","secret": "cf39ff94f9","title": "寻便亚洲，欧洲，北美，各大城市，终于淘到本地最后一台，还是银色，good luck","loc": {"type": "Point","coordinates": [103.836494,1.302439]}} 
{"id": "9332097373","server": "7435","farm": "8","userId": "10966331@N04","secret": "38af2f684e","title": "","loc": {"type": "Point","coordinates": [103.8365,1.3035]}} 
{"id": "9334763326","server": "3727","farm": "4","userId": "60026216@N00","secret": "118f7d2b56","title": "Irza, Abraar, Inka and Kanaya.","loc": {"type": "Point","coordinates": [103.82701,1.305722]}} 
{"id": "9331812291","server": "3731","farm": "4","userId": "60026216@N00","secret": "cc82d50bb6","title": "Ben and Anya.","loc": {"type": "Point","coordinates": [103.82701,1.305722]}} 
{"id": "9334619268","server": "3689","farm": "4","userId": "60026216@N00","secret": "31ee8c6cc6","title": "Om Aci, om Adi and om Satya.","loc": {"type": "Point","coordinates": [103.82701,1.305722]}} 
{"id": "9331800425","server": "3684","farm": "4","userId": "60026216@N00","secret": "a4b0ddc4c5","title": "Dante, Irza and Abraar.","loc": {"type": "Point","coordinates": [103.82701,1.305722]}} 
{"id": "9334498402","server": "5508","farm": "6","userId": "91996050@N03","secret": "7e80a014bc","title": "Sunday solo brunch!","loc": {"type": "Point","coordinates": [103.83504,1.303534]}} 
{"id": "9334188594","server": "2874","farm": "3","userId": "60026216@N00","secret": "36dca20b12","title": "Banyak juga yang #ngabuburit. :)","loc": {"type": "Point","coordinates": [103.8331,1.30385]}} 
{"id": "9331225639","server": "2876","farm": "3","userId": "29406066@N00","secret": "04c37830cf","title": "IMG_3081e3","loc": {"type": "Point","coordinates": [103.831665,1.305]}} 
{"id": "9334017340","server": "3718","farm": "4","userId": "29406066@N00","secret": "c8c2caa271","title": "IMG_3081e2","loc": {"type": "Point","coordinates": [103.831665,1.305]}} 
{"id": "9334033446","server": "5516","farm": "6","userId": "29406066@N00","secret": "d80917b65b","title": "IMG_3081e","loc": {"type": "Point","coordinates": [103.831665,1.305]}} 
{"id": "9333859756","server": "3673","farm": "4","userId": "58055661@N00","secret": "394a1b9d52","title": "king crab","loc": {"type": "Point","coordinates": [103.836716,1.302359]}} 
{"id": "9331072057","server": "5322","farm": "6","userId": "58055661@N00","secret": "5b8ac38c75","title": "marinated fish eggs","loc": {"type": "Point","coordinates": [103.836716,1.302359]}} 
{"id": "9333860938","server": "7413","farm": "8","userId": "58055661@N00","secret": "ee712b8490","title": "lotus root salad","loc": {"type": "Point","coordinates": [103.836716,1.302359]}} 
{"id": "9331063641","server": "7433","farm": "8","userId": "58055661@N00","secret": "5c442effe3","title": "mixed tempura","loc": {"type": "Point","coordinates": [103.836716,1.302359]}} 
{"id": "9333853744","server": "3804","farm": "4","userId": "58055661@N00","secret": "0676ac0fe4","title": "bibimbap","loc": {"type": "Point","coordinates": [103.836716,1.302359]}} 
{"id": "9331061127","server": "3778","farm": "4","userId": "58055661@N00","secret": "710aaeac69","title": "lychee sherbet","loc": {"type": "Point","coordinates": [103.836716,1.302359]}} 
{"id": "9333862152","server": "3829","farm": "4","userId": "58055661@N00","secret": "93e157885d","title": "tuna belly sashimi","loc": {"type": "Point","coordinates": [103.836716,1.302359]}} 
{"id": "9331065081","server": "7443","farm": "8","userId": "58055661@N00","secret": "d12d8b67ac","title": "the beef selection","loc": {"type": "Point","coordinates": [103.836716,1.302359]}} 
{"id": "9333857542","server": "5449","farm": "6","userId": "58055661@N00","secret": "fbc8ef602d","title": "","loc": {"type": "Point","coordinates": [103.836716,1.302359]}} 
{"id": "9333464072","server": "2859","farm": "3","userId": "15170730@N07","secret": "94bf4df1db","title": "he loves #pandemarie #doughnut","loc": {"type": "Point","coordinates": [103.833916,1.303907]}} 
{"id": "9329822235","server": "3789","farm": "4","userId": "23865017@N05","secret": "ff9b664917","title": "Orchard Road","loc": {"type": "Point","coordinates": [103.8329,1.30432]}} 
{"id": "9332620098","server": "3704","farm": "4","userId": "23865017@N05","secret": "ee91b9fdf2","title": "Orchard Road","loc": {"type": "Point","coordinates": [103.83276,1.304466]}} 
{"id": "9329823497","server": "3823","farm": "4","userId": "23865017@N05","secret": "d49aa479d3","title": "Shoppers","loc": {"type": "Point","coordinates": [103.83254,1.304518]}} 
{"id": "9329820327","server": "3813","farm": "4","userId": "23865017@N05","secret": "a793d2b601","title": "IMG_9523","loc": {"type": "Point","coordinates": [103.833336,1.304123]}} 
{"id": "9325699435","server": "3792","farm": "4","userId": "82533607@N04","secret": "1c0fbd2daf","title": "1st Shortlisted For New Menu.. No name yet.. Peanut Butter Biscuit Shake.. Ideas?","loc": {"type": "Point","coordinates": [103.83105,1.30431]}} 
{"id": "9325248383","server": "5478","farm": "6","userId": "11434986@N04","secret": "7c1e54f5e4","title": "Finally!! My present??? ✨ @pattysittisa","loc": {"type": "Point","coordinates": [103.834,1.303215]}} 
{"id": "9327991878","server": "5478","farm": "6","userId": "11434986@N04","secret": "56ecb300f9","title": "Waiting..","loc": {"type": "Point","coordinates": [103.834,1.303215]}} 
{"id": "9328021204","server": "3789","farm": "4","userId": "11434986@N04","secret": "6b40817c64","title": "Need size 35 pleasee!! ✨","loc": {"type": "Point","coordinates": [103.833015,1.304012]}} 
{"id": "9324939153","server": "2817","farm": "3","userId": "11434986@N04","secret": "682a412701","title": "Which one??? ✨","loc": {"type": "Point","coordinates": [103.834,1.303215]}} 
{"id": "9327554090","server": "7345","farm": "8","userId": "11434986@N04","secret": "fe1114866c","title": "Another shopping day.. ✨","loc": {"type": "Point","coordinates": [103.83615,1.302604]}} 
{"id": "9327192560","server": "3832","farm": "4","userId": "96202914@N07","secret": "b265f529ac","title": "Prologue is closing down?","loc": {"type": "Point","coordinates": [103.832214,1.304663]}} 
{"id": "9323969659","server": "7314","farm": "8","userId": "98356781@N00","secret": "6b9ae86af4","title": "Orchard Crossing","loc": {"type": "Point","coordinates": [103.83194,1.304783]}} 
{"id": "9323751177","server": "3794","farm": "4","userId": "48784929@N03","secret": "9d09808dfc","title": "Taking a break for Z. #365/201","loc": {"type": "Point","coordinates": [103.83548,1.3032]}} 
{"id": "9326380262","server": "3699","farm": "4","userId": "13831722@N05","secret": "120df2f887","title": "#mediacorp #radio says thank you","loc": {"type": "Point","coordinates": [103.83488,1.303183]}} 
{"id": "9322859861","server": "2837","farm": "3","userId": "14475189@N00","secret": "b7ccca6df9","title": "Test day shot using Nokia Lumia 925","loc": {"type": "Point","coordinates": [103.835884,1.300941]}} 
{"id": "9322838223","server": "2865","farm": "3","userId": "14475189@N00","secret": "815846591d","title": "Test day shot using iPhone 5","loc": {"type": "Point","coordinates": [103.835884,1.300942]}} 
{"id": "9325638400","server": "5534","farm": "6","userId": "14475189@N00","secret": "c77f314287","title": "Test day shot using HTC One","loc": {"type": "Point","coordinates": [103.835884,1.300941]}} 
{"id": "9312170155","server": "3751","farm": "4","userId": "11434986@N04","secret": "fa23310a93","title": "#thecoffeebean","loc": {"type": "Point","coordinates": [103.831764,1.304824]}} 
{"id": "9313182868","server": "2826","farm": "3","userId": "14501676@N07","secret": "474e93b765","title": "nail polish addict","loc": {"type": "Point","coordinates": [103.83099,1.305248]}} 
{"id": "9312498430","server": "7298","farm": "8","userId": "57745596@N00","secret": "1c21aac8ac","title": "Fresh and delicious! @instafoodapp #instafood #instafoodapp #instagood #food #foodporn #delicious #eating #foodpics #foodspotting #foodgasm #foodie #tasty #yummy #eat #hungry #love #singapore #orchard #orchard #day","loc": {"type": "Point","coordinates": [103.83449,1.302711]}} 
{"id": "9311040048","server": "2861","farm": "3","userId": "63289007@N00","secret": "9a64e736e1","title": "IMG_0935","loc": {"type": "Point","coordinates": [103.831665,1.306]}} 
{"id": "9309913406","server": "2846","farm": "3","userId": "99017492@N03","secret": "ae9d4fe256","title": "","loc": {"type": "Point","coordinates": [103.835464,1.303133]}} 
{"id": "9294118506","server": "2820","farm": "3","userId": "85053995@N00","secret": "62a46c24db","title": "Din Tai Fung - Fried pork chop with fried rice","loc": {"type": "Point","coordinates": [103.833206,1.303859]}} 
{"id": "9291628244","server": "3799","farm": "4","userId": "98644852@N03","secret": "9bae2d8e58","title": "Singapore","loc": {"type": "Point","coordinates": [103.83194,1.304783]}} 
{"id": "9288841965","server": "2886","farm": "3","userId": "98644852@N03","secret": "ee04245b20","title": "Singapore","loc": {"type": "Point","coordinates": [103.83194,1.304783]}} 
{"id": "9291615880","server": "7379","farm": "8","userId": "98644852@N03","secret": "d20d4bbde6","title": "Singapore","loc": {"type": "Point","coordinates": [103.83194,1.304783]}} 
{"id": "9288838029","server": "7449","farm": "8","userId": "98644852@N03","secret": "a7d46f5c9b","title": "Singapore","loc": {"type": "Point","coordinates": [103.83194,1.304783]}} 
{"id": "9288854953","server": "2860","farm": "3","userId": "98644852@N03","secret": "3a987ec6ee","title": "Singapore","loc": {"type": "Point","coordinates": [103.83194,1.304783]}} 
{"id": "9291632988","server": "3823","farm": "4","userId": "98644852@N03","secret": "8c18e7a8b1","title": "Singapore","loc": {"type": "Point","coordinates": [103.83194,1.304783]}} 
{"id": "9291605966","server": "7379","farm": "8","userId": "98644852@N03","secret": "866f5834a1","title": "Singapore","loc": {"type": "Point","coordinates": [103.83194,1.304783]}} 
{"id": "9288811941","server": "7303","farm": "8","userId": "98644852@N03","secret": "3c2a7126e7","title": "Singapore","loc": {"type": "Point","coordinates": [103.83194,1.304783]}} 
{"id": "9291612116","server": "5474","farm": "6","userId": "98644852@N03","secret": "4421cc3ba4","title": "Singapore","loc": {"type": "Point","coordinates": [103.83194,1.304783]}} 
{"id": "9288795051","server": "7317","farm": "8","userId": "98644852@N03","secret": "ac254d1660","title": "Singapore","loc": {"type": "Point","coordinates": [103.83194,1.304783]}} 
{"id": "9288808119","server": "3701","farm": "4","userId": "98644852@N03","secret": "ae2ac8b2b2","title": "Singapore","loc": {"type": "Point","coordinates": [103.83194,1.304783]}} 
{"id": "9288799903","server": "3785","farm": "4","userId": "98644852@N03","secret": "eba4c0ffde","title": "Singapore","loc": {"type": "Point","coordinates": [103.83194,1.304783]}} 
{"id": "9291609062","server": "7381","farm": "8","userId": "98644852@N03","secret": "c287af4a4d","title": "Singapore","loc": {"type": "Point","coordinates": [103.83194,1.304783]}} 
{"id": "9291585796","server": "7344","farm": "8","userId": "98644852@N03","secret": "a5a4d68d50","title": "Singapore","loc": {"type": "Point","coordinates": [103.83194,1.304783]}} 
{"id": "9288754103","server": "7416","farm": "8","userId": "98644852@N03","secret": "e7bb981bab","title": "Singapore","loc": {"type": "Point","coordinates": [103.83194,1.304783]}} 
{"id": "9291542306","server": "3667","farm": "4","userId": "98644852@N03","secret": "6d16719183","title": "Singapore","loc": {"type": "Point","coordinates": [103.83194,1.304783]}} 
{"id": "9288775107","server": "5443","farm": "6","userId": "98644852@N03","secret": "3d4f51b937","title": "Singapore","loc": {"type": "Point","coordinates": [103.83194,1.304783]}} 
{"id": "9288784697","server": "7332","farm": "8","userId": "98644852@N03","secret": "5ed5196db7","title": "Singapore","loc": {"type": "Point","coordinates": [103.83194,1.304783]}} 
{"id": "9288768267","server": "2846","farm": "3","userId": "98644852@N03","secret": "e8a688f4e1","title": "Singapore","loc": {"type": "Point","coordinates": [103.83194,1.304783]}} 
{"id": "9291545848","server": "3771","farm": "4","userId": "98644852@N03","secret": "82a94ce040","title": "Singapore","loc": {"type": "Point","coordinates": [103.83194,1.304783]}} 
{"id": "9291562606","server": "3678","farm": "4","userId": "98644852@N03","secret": "56429d8cd4","title": "Singapore","loc": {"type": "Point","coordinates": [103.83194,1.304783]}} 
{"id": "9288743581","server": "3714","farm": "4","userId": "98644852@N03","secret": "8d22d1daa4","title": "Singapore","loc": {"type": "Point","coordinates": [103.83194,1.304783]}} 
{"id": "9288772441","server": "3801","farm": "4","userId": "98644852@N03","secret": "3fd6991dc5","title": "Singapore","loc": {"type": "Point","coordinates": [103.83194,1.304783]}} 
{"id": "9288751241","server": "2817","farm": "3","userId": "98644852@N03","secret": "b92679574d","title": "Singapore","loc": {"type": "Point","coordinates": [103.83194,1.304783]}} 
{"id": "9288757151","server": "7389","farm": "8","userId": "98644852@N03","secret": "30231a10aa","title": "Singapore","loc": {"type": "Point","coordinates": [103.83194,1.304783]}} 
{"id": "9288778453","server": "3817","farm": "4","userId": "98644852@N03","secret": "61edff20b0","title": "Singapore","loc": {"type": "Point","coordinates": [103.83194,1.304783]}} 
{"id": "9291528532","server": "2890","farm": "3","userId": "98644852@N03","secret": "6ee6860468","title": "Singapore","loc": {"type": "Point","coordinates": [103.83194,1.304783]}} 
{"id": "9288735693","server": "7332","farm": "8","userId": "98644852@N03","secret": "00de2aac00","title": "Singapore","loc": {"type": "Point","coordinates": [103.83194,1.304783]}} 
{"id": "9291509166","server": "3773","farm": "4","userId": "98644852@N03","secret": "0e38241ec2","title": "Singapore","loc": {"type": "Point","coordinates": [103.83194,1.304783]}} 
{"id": "9291513210","server": "3691","farm": "4","userId": "98644852@N03","secret": "5c54ded5a0","title": "Singapore","loc": {"type": "Point","coordinates": [103.83194,1.304783]}} 
{"id": "9291515898","server": "3823","farm": "4","userId": "98644852@N03","secret": "1595d01ed9","title": "Singapore","loc": {"type": "Point","coordinates": [103.83194,1.304783]}} 
{"id": "9288739707","server": "5527","farm": "6","userId": "98644852@N03","secret": "cb4b5e0ae3","title": "Singapore","loc": {"type": "Point","coordinates": [103.83194,1.304783]}} 
{"id": "9290076578","server": "7389","farm": "8","userId": "45099369@N08","secret": "56c8697fb5","title": "I think people don't quite understand why we crave for the simplest things...","loc": {"type": "Point","coordinates": [103.8331,1.30396]}} 
{"id": "9288705498","server": "5347","farm": "6","userId": "25530545@N04","secret": "0dda4714d3","title": "2013-06-29 at 17-59-02","loc": {"type": "Point","coordinates": [103.83083,1.305833]}} 
{"id": "9288636858","server": "3679","farm": "4","userId": "25530545@N04","secret": "020bd25972","title": "2013-06-29 at 11-21-57","loc": {"type": "Point","coordinates": [103.83517,1.303333]}} 
{"id": "9288652988","server": "3788","farm": "4","userId": "25530545@N04","secret": "bc9417285b","title": "2013-06-29 at 12-22-51","loc": {"type": "Point","coordinates": [103.83483,1.301]}} 
{"id": "9288637630","server": "5505","farm": "6","userId": "25530545@N04","secret": "8c53a41138","title": "2013-06-29 at 11-24-41","loc": {"type": "Point","coordinates": [103.834,1.3035]}} 
{"id": "9285876481","server": "2859","farm": "3","userId": "25530545@N04","secret": "3050175c5f","title": "2013-06-29 at 12-23-20","loc": {"type": "Point","coordinates": [103.835,1.301]}} 
{"id": "9285872177","server": "2843","farm": "3","userId": "25530545@N04","secret": "e9086607e2","title": "2013-06-29 at 11-30-55","loc": {"type": "Point","coordinates": [103.83217,1.305833]}} 
{"id": "9288638350","server": "5526","farm": "6","userId": "25530545@N04","secret": "64bf072706","title": "2013-06-29 at 11-24-45","loc": {"type": "Point","coordinates": [103.8345,1.304167]}} 
{"id": "9285872961","server": "3714","farm": "4","userId": "25530545@N04","secret": "d0c42380c8","title": "2013-06-29 at 11-31-00","loc": {"type": "Point","coordinates": [103.83217,1.305833]}} 
{"id": "9288647826","server": "3773","farm": "4","userId": "25530545@N04","secret": "9810896705","title": "2013-06-29 at 11-30-34","loc": {"type": "Point","coordinates": [103.83234,1.305833]}} 
{"id": "9285862971","server": "7300","farm": "8","userId": "25530545@N04","secret": "751d07c6bd","title": "2013-06-29 at 11-25-39","loc": {"type": "Point","coordinates": [103.83417,1.303833]}} 
{"id": "9288648664","server": "3758","farm": "4","userId": "25530545@N04","secret": "1ccb538f75","title": "2013-06-29 at 11-30-51","loc": {"type": "Point","coordinates": [103.83217,1.305833]}} 
{"id": "9285867857","server": "2814","farm": "3","userId": "25530545@N04","secret": "e797e4521d","title": "2013-06-29 at 11-30-26","loc": {"type": "Point","coordinates": [103.83234,1.305833]}} 
{"id": "9288642386","server": "3688","farm": "4","userId": "25530545@N04","secret": "87f40a0bd9","title": "2013-06-29 at 11-28-56","loc": {"type": "Point","coordinates": [103.83283,1.305333]}} 
{"id": "9285865843","server": "7456","farm": "8","userId": "25530545@N04","secret": "3385647593","title": "2013-06-29 at 11-28-59","loc": {"type": "Point","coordinates": [103.83283,1.305333]}} 
{"id": "9285875025","server": "7285","farm": "8","userId": "25530545@N04","secret": "5d0510ca12","title": "2013-06-29 at 12-22-30","loc": {"type": "Point","coordinates": [103.83466,1.300833]}} 
{"id": "9288651534","server": "5509","farm": "6","userId": "25530545@N04","secret": "fbf8f903a9","title": "2013-06-29 at 12-22-19","loc": {"type": "Point","coordinates": [103.8345,1.300833]}} 
{"id": "9285862145","server": "3813","farm": "4","userId": "25530545@N04","secret": "5a158f44e9","title": "2013-06-29 at 11-24-56","loc": {"type": "Point","coordinates": [103.83417,1.303833]}} 
{"id": "9285868679","server": "7444","farm": "8","userId": "25530545@N04","secret": "0bd277bae0","title": "2013-06-29 at 11-30-31","loc": {"type": "Point","coordinates": [103.83234,1.305833]}} 
{"id": "9288605260","server": "2842","farm": "3","userId": "25530545@N04","secret": "31e0fdd00f","title": "2013-06-26 at 16-41-56","loc": {"type": "Point","coordinates": [103.829834,1.302]}} 
{"id": "9283290990","server": "5463","farm": "6","userId": "60026216@N00","secret": "1ee22fcb36","title": "Nemenin yang lagi ngga puasa. :)","loc": {"type": "Point","coordinates": [103.83095,1.305328]}} 
{"id": "9282756644","server": "3719","farm": "4","userId": "91996050@N03","secret": "666d5ce8fa","title": "upload","loc": {"type": "Point","coordinates": [103.83657,1.301118]}} 
{"id": "9279519057","server": "3684","farm": "4","userId": "42454135@N00","secret": "4c1a880ec2","title": "An army of china.","loc": {"type": "Point","coordinates": [103.8317,1.304776]}} 
{"id": "9281684940","server": "7295","farm": "8","userId": "77486062@N02","secret": "9d9b597c45","title": "OneNinety03","loc": {"type": "Point","coordinates": [103.82833,1.305]}} 
{"id": "9281684866","server": "2878","farm": "3","userId": "77486062@N02","secret": "e6f1a2f630","title": "OneNinety05","loc": {"type": "Point","coordinates": [103.82816,1.305]}} 
{"id": "9278902699","server": "5491","farm": "6","userId": "77486062@N02","secret": "400f83f897","title": "OneNinety02","loc": {"type": "Point","coordinates": [103.8285,1.304833]}} 
{"id": "9281684586","server": "5448","farm": "6","userId": "77486062@N02","secret": "2660a52820","title": "OneNinety07","loc": {"type": "Point","coordinates": [103.8285,1.304833]}} 
{"id": "9281685214","server": "3713","farm": "4","userId": "77486062@N02","secret": "018a78bcc3","title": "OneNinety01","loc": {"type": "Point","coordinates": [103.8285,1.304833]}} 
{"id": "9278903069","server": "7359","farm": "8","userId": "77486062@N02","secret": "604de48feb","title": "OneNinety08","loc": {"type": "Point","coordinates": [103.82833,1.304833]}} 
{"id": "9278902951","server": "3826","farm": "4","userId": "77486062@N02","secret": "c00c0d3329","title": "OneNinety09","loc": {"type": "Point","coordinates": [103.8285,1.304833]}} 
{"id": "9281684962","server": "7400","farm": "8","userId": "77486062@N02","secret": "41190e4857","title": "OneNinety04","loc": {"type": "Point","coordinates": [103.82833,1.304833]}} 
{"id": "9278902521","server": "5476","farm": "6","userId": "77486062@N02","secret": "d3c4294f12","title": "OneNinety06","loc": {"type": "Point","coordinates": [103.8285,1.304833]}} 
{"id": "9281483492","server": "5497","farm": "6","userId": "96573491@N04","secret": "7e912fdd07","title": "","loc": {"type": "Point","coordinates": [103.83219,1.304355]}} 
{"id": "9281486010","server": "5451","farm": "6","userId": "96573491@N04","secret": "2f4097d8a3","title": "","loc": {"type": "Point","coordinates": [103.83235,1.304463]}} 
{"id": "9280270442","server": "3782","farm": "4","userId": "58874424@N07","secret": "fcd1879b8a","title": "Singapore.Royal Plaza Hotel- 4","loc": {"type": "Point","coordinates": [103.83166,1.305972]}} 
{"id": "9280269842","server": "7452","farm": "8","userId": "58874424@N07","secret": "16e7fea594","title": "Singapore.Royal Plaza Hotel- 2","loc": {"type": "Point","coordinates": [103.83166,1.305972]}} 
{"id": "9277478593","server": "7458","farm": "8","userId": "58874424@N07","secret": "515fccda3a","title": "Singapore.Royal Plaza Hotel- 7","loc": {"type": "Point","coordinates": [103.83166,1.305972]}} 
{"id": "9280261672","server": "7301","farm": "8","userId": "58874424@N07","secret": "4c8229725e","title": "Singapore1.Orchard St- 3","loc": {"type": "Point","coordinates": [103.83166,1.305972]}} 
{"id": "9277478009","server": "7287","farm": "8","userId": "58874424@N07","secret": "e047e87444","title": "Singapore.Royal Plaza Hotel- 8","loc": {"type": "Point","coordinates": [103.83166,1.305972]}} 
{"id": "9277476811","server": "2875","farm": "3","userId": "58874424@N07","secret": "db3918baf0","title": "Singapore.Marina Bay Sands- 5","loc": {"type": "Point","coordinates": [103.83166,1.305972]}} 
{"id": "9277479145","server": "3744","farm": "4","userId": "58874424@N07","secret": "3777ae8889","title": "Singapore.Royal Plaza Hotel- 5","loc": {"type": "Point","coordinates": [103.83166,1.305972]}} 
{"id": "9277479829","server": "5480","farm": "6","userId": "58874424@N07","secret": "8daff249dd","title": "Singapore.Royal Plaza Hotel- 3","loc": {"type": "Point","coordinates": [103.83166,1.305972]}} 
{"id": "9280271056","server": "2868","farm": "3","userId": "58874424@N07","secret": "156b550681","title": "Singapore.Royal Plaza Hotel- 1","loc": {"type": "Point","coordinates": [103.83166,1.305972]}} 
{"id": "9280226096","server": "3744","farm": "4","userId": "58874424@N07","secret": "299a54e598","title": "Singapore1.Orchard St- 6","loc": {"type": "Point","coordinates": [103.83166,1.305972]}} 
{"id": "9277441851","server": "2891","farm": "3","userId": "58874424@N07","secret": "2ef46152ba","title": "Singapore1.Orchard St- 4","loc": {"type": "Point","coordinates": [103.83166,1.305972]}} 
{"id": "9280226726","server": "5457","farm": "6","userId": "58874424@N07","secret": "c62d96dd05","title": "Singapore1.Orchard St- 5","loc": {"type": "Point","coordinates": [103.83166,1.305972]}} 
{"id": "9280206060","server": "2891","farm": "3","userId": "58874424@N07","secret": "b7717d5a62","title": "Singapore.Royal Plaza Hotel- 6","loc": {"type": "Point","coordinates": [103.83166,1.305972]}} 
{"id": "9277417791","server": "7286","farm": "8","userId": "58874424@N07","secret": "230ab9b0c5","title": "Singapore1.Orchard St- 1","loc": {"type": "Point","coordinates": [103.83166,1.305972]}} 
{"id": "9277412017","server": "2894","farm": "3","userId": "58874424@N07","secret": "4fe3249b6b","title": "Singapore1.Orchard St- 7","loc": {"type": "Point","coordinates": [103.83166,1.305972]}} 
{"id": "9270713536","server": "5490","farm": "6","userId": "96573491@N04","secret": "1c4281bf43","title": "","loc": {"type": "Point","coordinates": [103.83466,1.303166]}} 
{"id": "9270582170","server": "2851","farm": "3","userId": "10124523@N07","secret": "6e851b38a2","title": "Dolla Ice Cream! @paolo_dl @patriciacey","loc": {"type": "Point","coordinates": [103.83509,1.303183]}} 
{"id": "9267018633","server": "5538","farm": "6","userId": "67370375@N02","secret": "07cd46fb8a","title": "Super #cute #minion","loc": {"type": "Point","coordinates": [103.83702,1.301253]}} 
{"id": "9262830424","server": "5456","farm": "6","userId": "35468141938@N01","secret": "1c70021ae3","title": "For days when I can't bike, I carve on a cruiser. #cliche #skateboard #stealth #french","loc": {"type": "Point","coordinates": [103.835884,1.300941]}} 
{"id": "9261583050","server": "7458","farm": "8","userId": "64520250@N07","secret": "816cccaf35","title": "Macchiato Done Right","loc": {"type": "Point","coordinates": [103.83279,1.305908]}} 
{"id": "9255920138","server": "7352","farm": "8","userId": "87464948@N05","secret": "2406a48c64","title": "IMAG0164","loc": {"type": "Point","coordinates": [103.832504,1.304425]}} 
{"id": "9255920912","server": "3665","farm": "4","userId": "87464948@N05","secret": "d4208f96cc","title": "IMAG0166","loc": {"type": "Point","coordinates": [103.83262,1.30413]}} 
{"id": "9253135273","server": "7367","farm": "8","userId": "87464948@N05","secret": "7be2d4de12","title": "IMAG0151","loc": {"type": "Point","coordinates": [103.83456,1.303083]}} 
{"id": "9254016304","server": "3728","farm": "4","userId": "98658379@N03","secret": "086211e8fe","title": "$1 Ice Cream","loc": {"type": "Point","coordinates": [103.83596,1.302679]}} 
{"id": "9246612687","server": "7387","farm": "8","userId": "98557725@N07","secret": "00dde760de","title": "#movienight requested by #makulit na Princess  #hehe #DespicableMe2  #minions #cutie","loc": {"type": "Point","coordinates": [103.83683,1.301249]}} 
{"id": "9249256030","server": "7407","farm": "8","userId": "98557725@N07","secret": "d25b2c80be","title": "Giant Minion  #DespicableMe2 #movienight #tuesday  @misyeljoy @mitch @siva @princess","loc": {"type": "Point","coordinates": [103.83702,1.301253]}} 
{"id": "9245471821","server": "2817","farm": "3","userId": "20773757@N00","secret": "a758a85cc5","title": "Four breads in one slice. I LOVE SINGAPORE.","loc": {"type": "Point","coordinates": [103.83138,1.304869]}} 
{"id": "9247519122","server": "7397","farm": "8","userId": "96573491@N04","secret": "4540c39db1","title": "","loc": {"type": "Point","coordinates": [103.83219,1.304355]}} 
{"id": "9247519824","server": "7350","farm": "8","userId": "96573491@N04","secret": "eefb43cdf6","title": "","loc": {"type": "Point","coordinates": [103.83235,1.304463]}} 
{"id": "9242769626","server": "3763","farm": "4","userId": "93327144@N06","secret": "0eb9199494","title": "458 Italia","loc": {"type": "Point","coordinates": [103.82667,1.305082]}} 
{"id": "9235464999","server": "5531","farm": "6","userId": "34404963@N00","secret": "7fa30f2073","title": "Happy 1st yr anni","loc": {"type": "Point","coordinates": [103.837,1.302333]}} 
{"id": "9238243218","server": "5483","farm": "6","userId": "34404963@N00","secret": "15276049b4","title": "Happy 1st yr anni","loc": {"type": "Point","coordinates": [103.837,1.3025]}} 
{"id": "9235466951","server": "7458","farm": "8","userId": "34404963@N00","secret": "4e2cde0356","title": "Happy 1st yr anni","loc": {"type": "Point","coordinates": [103.837,1.302333]}} 
{"id": "9235461259","server": "5329","farm": "6","userId": "34404963@N00","secret": "91ab55571f","title": "Happy 1st yr anni","loc": {"type": "Point","coordinates": [103.837,1.3025]}} 
{"id": "9238246662","server": "7442","farm": "8","userId": "34404963@N00","secret": "1ba91dc45a","title": "Happy 1st yr anni","loc": {"type": "Point","coordinates": [103.837,1.302333]}} 
{"id": "9235460231","server": "7289","farm": "8","userId": "34404963@N00","secret": "fa3122077c","title": "Happy 1st yr anni","loc": {"type": "Point","coordinates": [103.837,1.302333]}} 
{"id": "9230594909","server": "2831","farm": "3","userId": "92434067@N00","secret": "91b00f0f06","title": "A happy kid is a happy Ibu. A happy Ibu is a happy husband.","loc": {"type": "Point","coordinates": [103.83583,1.303333]}} 
{"id": "9226186925","server": "7282","farm": "8","userId": "98532612@N02","secret": "915a351c3e","title": "通天塔","loc": {"type": "Point","coordinates": [103.82857,1.304642]}} 
{"id": "9215939466","server": "7375","farm": "8","userId": "63117526@N04","secret": "b74d35835b","title": "Black pork set!!!","loc": {"type": "Point","coordinates": [103.83178,1.305129]}} 
{"id": "9215905874","server": "3752","farm": "4","userId": "63117526@N04","secret": "a5e5b03cc0","title": "Cawanmushi","loc": {"type": "Point","coordinates": [103.83178,1.305129]}} 
{"id": "9208831484","server": "7396","farm": "8","userId": "36055891@N08","secret": "23049970fe","title": "Because that's how it's supposed to be! Haha #jollibee","loc": {"type": "Point","coordinates": [103.83392,1.304391]}} 
{"id": "9204257483","server": "2836","farm": "3","userId": "67851013@N02","secret": "cc2bc88158","title": "#Food heals the #world 04/07/13. #Packed #Lunch #Box","loc": {"type": "Point","coordinates": [103.83366,1.304112]}} 
{"id": "9203698617","server": "5543","farm": "6","userId": "32287081@N08","secret": "b75d292f41","title": "My first Dark Mocha White Choco Late Frap... #ilovewhitechoc #starbuckssg","loc": {"type": "Point","coordinates": [103.83537,1.303183]}} 
{"id": "9202032696","server": "2849","farm": "3","userId": "46125718@N05","secret": "aa5b2000ce","title": "Chilli @ Ah Wok Restaurant – ION","loc": {"type": "Point","coordinates": [103.83204,1.303995]}} 
{"id": "9201975146","server": "2881","farm": "3","userId": "46125718@N05","secret": "dc27e507d1","title": "Jade Tofu @ Ah Wok Restaurant – ION","loc": {"type": "Point","coordinates": [103.83204,1.303995]}} 
{"id": "9199180835","server": "3828","farm": "4","userId": "46125718@N05","secret": "8477347916","title": "Fried Hokkien Mee With Mussels @ Ah Wok Restaurant – ION","loc": {"type": "Point","coordinates": [103.83204,1.303995]}} 
{"id": "9201948518","server": "5462","farm": "6","userId": "46125718@N05","secret": "05482c6222","title": "Buttered Cereal Prawns @ Ah Wok Restaurant – ION","loc": {"type": "Point","coordinates": [103.83204,1.303995]}} 
{"id": "9199189599","server": "2827","farm": "3","userId": "46125718@N05","secret": "7564f53b88","title": "Crispy Pepper Duck @ Ah Wok Restaurant – ION","loc": {"type": "Point","coordinates": [103.83204,1.303995]}} 
{"id": "9198082323","server": "5521","farm": "6","userId": "30436867@N00","secret": "0dc67ee2bc","title": "Curry duck noodle","loc": {"type": "Point","coordinates": [103.83137,1.30483]}} 
{"id": "9198029199","server": "5532","farm": "6","userId": "30436867@N00","secret": "5e4e33a0cb","title": "Fried prawn & pork roll","loc": {"type": "Point","coordinates": [103.83137,1.30483]}} 
{"id": "9200797952","server": "7459","farm": "8","userId": "30436867@N00","secret": "1a94c45c3c","title": "Nam Nam Bar Counter","loc": {"type": "Point","coordinates": [103.83137,1.30483]}} 
{"id": "9190111231","server": "3783","farm": "4","userId": "92593934@N04","secret": "4de53ac37f","title": "Moving through the various colours is making me turn red. *hic","loc": {"type": "Point","coordinates": [103.83149,1.30387]}} 
{"id": "9189650379","server": "3815","farm": "4","userId": "92593934@N04","secret": "4bb07117ed","title": "Amuse bouche - beet root with double cream","loc": {"type": "Point","coordinates": [103.83149,1.30387]}} 
{"id": "9187808089","server": "7456","farm": "8","userId": "99942665@N00","secret": "cf0440d9de","title": "P1190340","loc": {"type": "Point","coordinates": [103.83633,1.305908]}} 
{"id": "9190587934","server": "5464","farm": "6","userId": "99942665@N00","secret": "6a3c8b46f0","title": "P1190317","loc": {"type": "Point","coordinates": [103.83633,1.305907]}} 
{"id": "9187794161","server": "5540","farm": "6","userId": "99942665@N00","secret": "f086b9cc5d","title": "P1190318","loc": {"type": "Point","coordinates": [103.83633,1.305907]}} 
{"id": "9190600732","server": "7340","farm": "8","userId": "99942665@N00","secret": "cf9c130833","title": "P1190335","loc": {"type": "Point","coordinates": [103.83633,1.305907]}} 
{"id": "9156161454","server": "3689","farm": "4","userId": "22245339@N05","secret": "0285a414d7","title": "Breakfast At Wendy's at Wheelock Place, Singapore. #wendys #breakfast #wheelockplace #orchard #coffee #hashbrown","loc": {"type": "Point","coordinates": [103.831184,1.304642]}} 
{"id": "9127030690","server": "7285","farm": "8","userId": "41298448@N08","secret": "a120d4832b","title": "Star on the Orchard Rd","loc": {"type": "Point","coordinates": [103.834694,1.302563]}} 
{"id": "9051459660","server": "5541","farm": "6","userId": "55439734@N07","secret": "f4c966a571","title": "#lighted #steps @ #wisma #atria","loc": {"type": "Point","coordinates": [103.833435,1.304091]}} 
{"id": "9045140856","server": "7383","farm": "8","userId": "91030800@N04","secret": "177d2e8c0f","title": "Good morning; and now I need a cab!","loc": {"type": "Point","coordinates": [103.82885,1.299536]}} 
{"id": "9006535200","server": "5341","farm": "6","userId": "41298448@N08","secret": "f5a6affcf1","title": "the new mom","loc": {"type": "Point","coordinates": [103.834694,1.302563]}} 
{"id": "9006464254","server": "7442","farm": "8","userId": "41298448@N08","secret": "7bd8bd86b6","title": "@Paragon, Singapore","loc": {"type": "Point","coordinates": [103.834694,1.302563]}} 
{"id": "8994221176","server": "5348","farm": "6","userId": "99942665@N00","secret": "3af76d522f","title": "P1180732","loc": {"type": "Point","coordinates": [103.83633,1.305907]}} 
{"id": "8987521879","server": "7402","farm": "8","userId": "41894167963@N01","secret": "ce379c00f7","title": "","loc": {"type": "Point","coordinates": [103.832,1.305166]}} 
{"id": "8969272617","server": "7302","farm": "8","userId": "36729543@N04","secret": "6931d6dbb2","title": "","loc": {"type": "Point","coordinates": [103.831184,1.304642]}} 
{"id": "8867440778","server": "3802","farm": "4","userId": "91317615@N05","secret": "1c929f3dc3","title": "","loc": {"type": "Point","coordinates": [103.8351,1.30328]}} 
{"id": "8866882945","server": "2866","farm": "3","userId": "91317615@N05","secret": "63cb832149","title": "","loc": {"type": "Point","coordinates": [103.8351,1.30328]}} 
{"id": "8867521808","server": "7298","farm": "8","userId": "91317615@N05","secret": "e5b0312331","title": "Smile!","loc": {"type": "Point","coordinates": [103.8351,1.30328]}} 
{"id": "8867500290","server": "2805","farm": "3","userId": "91317615@N05","secret": "c614825610","title": "","loc": {"type": "Point","coordinates": [103.8351,1.30328]}} 
{"id": "8867512062","server": "7307","farm": "8","userId": "91317615@N05","secret": "7053c32320","title": "","loc": {"type": "Point","coordinates": [103.8351,1.30328]}} 
{"id": "8867479138","server": "8558","farm": "9","userId": "91317615@N05","secret": "2394d0a0e6","title": "","loc": {"type": "Point","coordinates": [103.8351,1.30328]}} 
{"id": "8867470080","server": "2874","farm": "3","userId": "91317615@N05","secret": "467bd3e72c","title": "Street Cred","loc": {"type": "Point","coordinates": [103.8351,1.30328]}} 
{"id": "8867485460","server": "5342","farm": "6","userId": "91317615@N05","secret": "d826c0b6d6","title": "The Chase","loc": {"type": "Point","coordinates": [103.8351,1.30328]}} 
{"id": "8866849523","server": "7373","farm": "8","userId": "91317615@N05","secret": "1fec6e176b","title": "Left Sexy~","loc": {"type": "Point","coordinates": [103.8351,1.30328]}} 
{"id": "8867531808","server": "7410","farm": "8","userId": "91317615@N05","secret": "840b47659b","title": "Street Strut","loc": {"type": "Point","coordinates": [103.8351,1.30328]}} 
{"id": "8855742016","server": "7337","farm": "8","userId": "91317615@N05","secret": "047aa83107","title": "a Couple of Wheel","loc": {"type": "Point","coordinates": [103.8351,1.30328]}} 
{"id": "8855101941","server": "3767","farm": "4","userId": "91317615@N05","secret": "22111783f1","title": "Commuting Fashion","loc": {"type": "Point","coordinates": [103.8351,1.30328]}} 
{"id": "8855258049","server": "2822","farm": "3","userId": "91317615@N05","secret": "08a41cdeb0","title": "","loc": {"type": "Point","coordinates": [103.8351,1.30328]}} 
{"id": "9187809839","server": "3806","farm": "4","userId": "99942665@N00","secret": "fe5e9654be","title": "P1190341","loc": {"type": "Point","coordinates": [103.83633,1.305908]}} 
{"id": "9190605780","server": "3807","farm": "4","userId": "99942665@N00","secret": "a860e92113","title": "P1190347","loc": {"type": "Point","coordinates": [103.83633,1.305908]}} 
{"id": "9183315963","server": "7332","farm": "8","userId": "82533607@N04","secret": "d9accf1153","title": "Paul's Last Night In Sg After More Than 15 Years. Thank You For The Privilege To Serve You 1 Last Time. Thank You For The Blessings And Advices. It Will Be Very Important For My Next Phase..","loc": {"type": "Point","coordinates": [103.83105,1.30431]}} 
{"id": "9184782590","server": "5477","farm": "6","userId": "56932639@N00","secret": "4bf5907a87","title": "Orchard","loc": {"type": "Point","coordinates": [103.83483,1.303333]}} 
{"id": "9176519914","server": "5459","farm": "6","userId": "99942665@N00","secret": "21b0853a30","title": "IMG_20130627_074027","loc": {"type": "Point","coordinates": [103.83329,1.304192]}} 
{"id": "9176517254","server": "7360","farm": "8","userId": "99942665@N00","secret": "b2519a81dc","title": "IMG_20130627_074000","loc": {"type": "Point","coordinates": [103.832756,1.304192]}} 
{"id": "9174307899","server": "3744","farm": "4","userId": "99942665@N00","secret": "e9b3e6d6af","title": "IMG_20130627_075452","loc": {"type": "Point","coordinates": [103.83325,1.304177]}} 
{"id": "9176523668","server": "5329","farm": "6","userId": "99942665@N00","secret": "fc0173cdac","title": "IMG_20130627_074719","loc": {"type": "Point","coordinates": [103.83458,1.304053]}} 
{"id": "9174329578","server": "3729","farm": "4","userId": "82533607@N04","secret": "6a9157b5bb","title": "Never Had This In A While.. A Queue For Our Premium Gelatos.. Well Done Guys..","loc": {"type": "Point","coordinates": [103.83105,1.30431]}} 
{"id": "9174221478","server": "2878","farm": "3","userId": "96202914@N07","secret": "95160360b7","title": "Dessert might as well be dinner.","loc": {"type": "Point","coordinates": [103.83651,1.302175]}} 
{"id": "9174074712","server": "3792","farm": "4","userId": "96202914@N07","secret": "998b61e40d","title": "Thinking about it.","loc": {"type": "Point","coordinates": [103.83469,1.303183]}} 
{"id": "9171575081","server": "5327","farm": "6","userId": "42413074@N02","secret": "8fc17c5440","title": "upload","loc": {"type": "Point","coordinates": [103.83286,1.303889]}} 
{"id": "9164649136","server": "5325","farm": "6","userId": "76804634@N00","secret": "a394a01974","title": "Pho for lunch. Preparing the condiments","loc": {"type": "Point","coordinates": [103.83137,1.30483]}} 
{"id": "9162435211","server": "3832","farm": "4","userId": "76804634@N00","secret": "fd97419f3a","title": "upload","loc": {"type": "Point","coordinates": [103.83137,1.30483]}} 
{"id": "9160806931","server": "3687","farm": "4","userId": "65675500@N00","secret": "ef065ee776","title": "Widest.sidewalk.ever","loc": {"type": "Point","coordinates": [103.836945,1.302366]}} 
{"id": "9157720181","server": "5501","farm": "6","userId": "67851013@N02","secret": "632c6b37bb","title": "#Food heals the #world 29/06/13. #Vietnamese #Beef #Noodle","loc": {"type": "Point","coordinates": [103.83137,1.30483]}} 
{"id": "9157730983","server": "5548","farm": "6","userId": "67851013@N02","secret": "2c1a33853c","title": "#Food heals the #world 29/06/13. #Vietnamese #Cold #Cuts #Sandwich","loc": {"type": "Point","coordinates": [103.83137,1.30483]}} 
{"id": "9159938946","server": "2873","farm": "3","userId": "67851013@N02","secret": "07c9796923","title": "#Food heals the #world 29/06/13. #Vietnamese #Prawn #Rice #Roll","loc": {"type": "Point","coordinates": [103.83137,1.30483]}} 
{"id": "9159311918","server": "5463","farm": "6","userId": "93109357@N05","secret": "26aeaaabb2","title": "happy  #mkrestaurants #singapore #thaifood","loc": {"type": "Point","coordinates": [103.83631,1.302452]}} 
{"id": "9146187445","server": "3671","farm": "4","userId": "96136457@N05","secret": "1674d11398","title": "P1010617.JPG","loc": {"type": "Point","coordinates": [103.8346,1.303]}} 
{"id": "9148413782","server": "7434","farm": "8","userId": "96136457@N05","secret": "93f18c3175","title": "P1010616.JPG","loc": {"type": "Point","coordinates": [103.8346,1.303]}} 
{"id": "9148412886","server": "7440","farm": "8","userId": "96136457@N05","secret": "3a84afc792","title": "P1010619.JPG","loc": {"type": "Point","coordinates": [103.8347,1.3031]}} 
{"id": "9148414034","server": "5448","farm": "6","userId": "96136457@N05","secret": "ed4eefe0b1","title": "P1010618.JPG","loc": {"type": "Point","coordinates": [103.8346,1.303]}} 
{"id": "9143037101","server": "7340","farm": "8","userId": "60061298@N00","secret": "fe5a7249b7","title": "聖誕樹 @ 烏節路 - 2","loc": {"type": "Point","coordinates": [103.83183,1.305]}} 
{"id": "9145245234","server": "5465","farm": "6","userId": "60061298@N00","secret": "f5d3787b04","title": "AKB48 Official Shop Singapore","loc": {"type": "Point","coordinates": [103.836334,1.301167]}} 
{"id": "9145246782","server": "3832","farm": "4","userId": "60061298@N00","secret": "0a085c3ca3","title": "Toast Box 咖央吐司","loc": {"type": "Point","coordinates": [103.8365,1.301167]}} 
{"id": "9142325644","server": "5349","farm": "6","userId": "76513461@N05","secret": "711e604349","title": "","loc": {"type": "Point","coordinates": [103.83172,1.305066]}} 
{"id": "9134909966","server": "2872","farm": "3","userId": "30436867@N00","secret": "c49fa72de1","title": "Scallop & Sakura prawn Japanese pasta","loc": {"type": "Point","coordinates": [103.8331,1.30396]}} 
{"id": "9130543857","server": "3834","farm": "4","userId": "48784929@N03","secret": "447712df48","title": "This was delish. #brunch #wildhoney #365/176","loc": {"type": "Point","coordinates": [103.83279,1.305908]}} 
{"id": "9125583015","server": "2835","farm": "3","userId": "66919430@N00","secret": "df0685c7bc","title": "Late night post-movie snack","loc": {"type": "Point","coordinates": [103.83692,1.301611]}} 
{"id": "9125580337","server": "5468","farm": "6","userId": "66919430@N00","secret": "de3fcb805f","title": "Checking out the moon along Orchard Road","loc": {"type": "Point","coordinates": [103.83698,1.301547]}} 
{"id": "9124435651","server": "3678","farm": "4","userId": "42454135@N00","secret": "37681aedfe","title": "Mini-sized popcorn vs children are super. #weirdcrop #beforeWWZ","loc": {"type": "Point","coordinates": [103.83702,1.301253]}} 
{"id": "9114627023","server": "5447","farm": "6","userId": "97852598@N07","secret": "0926d3837e","title": "#me#ugly#face#narcism#at#ion#orchardroad#tang#shop#singapore","loc": {"type": "Point","coordinates": [103.83194,1.304783]}} 
{"id": "9113673691","server": "3678","farm": "4","userId": "60026216@N00","secret": "a1ce5eb8f0","title": "Good #food.","loc": {"type": "Point","coordinates": [103.833275,1.304033]}} 
{"id": "9114423812","server": "7387","farm": "8","userId": "99942665@N00","secret": "d3d9fdde92","title": "IMG_20130621_071832","loc": {"type": "Point","coordinates": [103.83632,1.305933]}} 
{"id": "9112199623","server": "7353","farm": "8","userId": "99942665@N00","secret": "17ef9d361a","title": "IMG_20130620_204340","loc": {"type": "Point","coordinates": [103.83642,1.305835]}} 
{"id": "9105489977","server": "5346","farm": "6","userId": "11434986@N04","secret": "4e722794be","title": "My life is expensive..","loc": {"type": "Point","coordinates": [103.83509,1.303183]}} 
{"id": "9105404763","server": "7413","farm": "8","userId": "15170730@N07","secret": "2f56cf3748","title": "fine dine","loc": {"type": "Point","coordinates": [103.83618,1.303785]}} 
{"id": "9105369627","server": "5345","farm": "6","userId": "11434986@N04","secret": "6dfab7d67e","title": "Waiting..","loc": {"type": "Point","coordinates": [103.83516,1.303251]}} 
{"id": "9104428945","server": "2841","farm": "3","userId": "11434986@N04","secret": "f690187f20","title": "at #valentina by #valentino","loc": {"type": "Point","coordinates": [103.835014,1.304705]}} 
{"id": "9106566180","server": "2808","farm": "3","userId": "11434986@N04","secret": "2afb795b9c","title": "Hmmm..  Yum.. Yumm.. #Valentino","loc": {"type": "Point","coordinates": [103.835014,1.304705]}} 
{"id": "9100061479","server": "2813","farm": "3","userId": "88201527@N00","secret": "0701d72d40","title": "Orchard","loc": {"type": "Point","coordinates": [103.8315,1.304833]}} 
{"id": "9102292304","server": "5484","farm": "6","userId": "88201527@N00","secret": "cbaf740b5e","title": "Orchard","loc": {"type": "Point","coordinates": [103.835,1.303167]}} 
{"id": "9101493980","server": "7430","farm": "8","userId": "11434986@N04","secret": "3976d693f0","title": "So hungry!!!","loc": {"type": "Point","coordinates": [103.83509,1.303183]}} 
{"id": "9099169043","server": "5337","farm": "6","userId": "35468141938@N01","secret": "548de2fd83","title": "Half-day birthday leave with girlfriend began with three layers of wickedness...","loc": {"type": "Point","coordinates": [103.835754,1.303603]}} 
{"id": "9094864088","server": "2818","farm": "3","userId": "83981795@N08","secret": "6d45aa94d0","title": "20130613-DSCN4964.jpg","loc": {"type": "Point","coordinates": [103.83599,1.303397]}} 
{"id": "9094882526","server": "5470","farm": "6","userId": "83981795@N08","secret": "e3a391af27","title": "20130613-DSCN4973.jpg","loc": {"type": "Point","coordinates": [103.836075,1.302369]}} 
{"id": "9092625047","server": "5476","farm": "6","userId": "83981795@N08","secret": "cfd4833575","title": "20130613-DSCN4951.jpg","loc": {"type": "Point","coordinates": [103.83385,1.304513]}} 
{"id": "9093604336","server": "5463","farm": "6","userId": "54530665@N08","secret": "0f0604d7bc","title": "Random walk around   #sg #me #travel","loc": {"type": "Point","coordinates": [103.83509,1.303183]}} 
{"id": "9089986431","server": "2821","farm": "3","userId": "92951217@N02","secret": "952c72c5f0","title": "Balloons","loc": {"type": "Point","coordinates": [103.8335,1.304166]}} 
{"id": "9089838743","server": "7448","farm": "8","userId": "72725501@N03","secret": "ea8dc7a7ab","title": "IMG_9198.JPG","loc": {"type": "Point","coordinates": [103.83457,1.302592]}} 
{"id": "9089822597","server": "5532","farm": "6","userId": "72725501@N03","secret": "e8c4d3cf62","title": "IMG_9194.JPG","loc": {"type": "Point","coordinates": [103.83457,1.302592]}} 
{"id": "9092055252","server": "3714","farm": "4","userId": "72725501@N03","secret": "bf09c0e72e","title": "IMG_9197.JPG","loc": {"type": "Point","coordinates": [103.83457,1.302592]}} 
{"id": "9092049392","server": "7366","farm": "8","userId": "72725501@N03","secret": "dcb9bb9dd9","title": "IMG_9195.JPG","loc": {"type": "Point","coordinates": [103.83457,1.302592]}} 
{"id": "9092038712","server": "7310","farm": "8","userId": "72725501@N03","secret": "ac9c51ee22","title": "IMG_9192.JPG","loc": {"type": "Point","coordinates": [103.83457,1.302592]}} 
{"id": "9092025126","server": "5539","farm": "6","userId": "72725501@N03","secret": "68f0315bc1","title": "IMG_9189.JPG","loc": {"type": "Point","coordinates": [103.83457,1.302592]}} 
{"id": "9089814125","server": "2868","farm": "3","userId": "72725501@N03","secret": "b1252a618b","title": "IMG_9191.JPG","loc": {"type": "Point","coordinates": [103.83457,1.302592]}} 
{"id": "9089816773","server": "5464","farm": "6","userId": "72725501@N03","secret": "4333bc5231","title": "IMG_9193.JPG","loc": {"type": "Point","coordinates": [103.83457,1.302592]}} 
{"id": "9092031490","server": "3733","farm": "4","userId": "72725501@N03","secret": "3362301bd5","title": "IMG_9190.JPG","loc": {"type": "Point","coordinates": [103.83457,1.302592]}} 
{"id": "9091027550","server": "7435","farm": "8","userId": "92982109@N00","secret": "42cf7c6242","title": "May caffeine help remove the pollutants in my system.","loc": {"type": "Point","coordinates": [103.83279,1.305908]}} 
{"id": "9088510965","server": "7302","farm": "8","userId": "28261482@N05","secret": "66014dd1f1","title": "My fav Tiramisu.. Definitely the most shiok ever.. From Beanstro! #tiramisu #cake #desert #cblt #beanstro","loc": {"type": "Point","coordinates": [103.83498,1.303191]}} 
{"id": "9090701198","server": "3685","farm": "4","userId": "28261482@N05","secret": "fd3026b450","title": "New books.. Murakami and Keigo Higashino.. #books #murakami #keigo #higashino","loc": {"type": "Point","coordinates": [103.8347,1.303226]}} 
{"id": "9087281435","server": "5447","farm": "6","userId": "93885572@N08","secret": "7cd71d62cf","title": "20130214_191045","loc": {"type": "Point","coordinates": [103.83197,1.304105]}} 
{"id": "9089499852","server": "3691","farm": "4","userId": "93885572@N08","secret": "a67acc1c6a","title": "20130214_191330","loc": {"type": "Point","coordinates": [103.83197,1.304105]}} 
{"id": "9087281289","server": "7418","farm": "8","userId": "93885572@N08","secret": "2864280a07","title": "20130214_185337","loc": {"type": "Point","coordinates": [103.83197,1.304105]}} 
{"id": "9089499712","server": "3713","farm": "4","userId": "93885572@N08","secret": "b1bf971825","title": "20130214_191247","loc": {"type": "Point","coordinates": [103.83197,1.304105]}} 
{"id": "9087281837","server": "2846","farm": "3","userId": "93885572@N08","secret": "9898c7a266","title": "20130214_191221","loc": {"type": "Point","coordinates": [103.83197,1.304105]}} 
{"id": "9089500082","server": "7373","farm": "8","userId": "93885572@N08","secret": "1749a28a98","title": "20130214_191353","loc": {"type": "Point","coordinates": [103.83197,1.304105]}} 
{"id": "9087281649","server": "2881","farm": "3","userId": "93885572@N08","secret": "d1d262e057","title": "20130214_191113","loc": {"type": "Point","coordinates": [103.83197,1.304105]}} 
{"id": "9089500504","server": "5530","farm": "6","userId": "93885572@N08","secret": "1cb961f508","title": "20130214_191730","loc": {"type": "Point","coordinates": [103.83197,1.304105]}} 
{"id": "9085642862","server": "7405","farm": "8","userId": "72725501@N03","secret": "2d960765df","title": "IMG_9187.JPG","loc": {"type": "Point","coordinates": [103.83457,1.302592]}} 
{"id": "9083431309","server": "7389","farm": "8","userId": "72725501@N03","secret": "98c0ce13e1","title": "IMG_9188.JPG","loc": {"type": "Point","coordinates": [103.83457,1.302592]}} 
{"id": "9083411301","server": "3726","farm": "4","userId": "72725501@N03","secret": "bcf369902c","title": "IMG_9186.JPG","loc": {"type": "Point","coordinates": [103.83457,1.302592]}} 
{"id": "9083352035","server": "5488","farm": "6","userId": "72725501@N03","secret": "b7018a2415","title": "IMG_9177.JPG","loc": {"type": "Point","coordinates": [103.834114,1.304383]}} 
{"id": "9083372363","server": "5476","farm": "6","userId": "72725501@N03","secret": "7e153899e0","title": "IMG_9181.JPG","loc": {"type": "Point","coordinates": [103.83402,1.304355]}} 
{"id": "9083377021","server": "7434","farm": "8","userId": "72725501@N03","secret": "d989d0178c","title": "IMG_9183.JPG","loc": {"type": "Point","coordinates": [103.83457,1.302592]}} 
{"id": "9083365199","server": "3816","farm": "4","userId": "72725501@N03","secret": "592d4db66c","title": "IMG_9182.JPG","loc": {"type": "Point","coordinates": [103.83402,1.304355]}} 
{"id": "9085561058","server": "2893","farm": "3","userId": "72725501@N03","secret": "4a6b731ac3","title": "IMG_9178.JPG","loc": {"type": "Point","coordinates": [103.834114,1.304383]}} 
{"id": "9082890555","server": "7379","farm": "8","userId": "72725501@N03","secret": "628e9923d8","title": "IMG_9173.JPG","loc": {"type": "Point","coordinates": [103.834114,1.304383]}} 
{"id": "9082884169","server": "7436","farm": "8","userId": "72725501@N03","secret": "9f92106278","title": "IMG_9172.JPG","loc": {"type": "Point","coordinates": [103.834114,1.304383]}} 
{"id": "9085122910","server": "7294","farm": "8","userId": "72725501@N03","secret": "7d3c1e8d59","title": "IMG_9176.JPG","loc": {"type": "Point","coordinates": [103.834114,1.304383]}} 
{"id": "9082897401","server": "7331","farm": "8","userId": "72725501@N03","secret": "a62fceb67d","title": "IMG_9175.JPG","loc": {"type": "Point","coordinates": [103.834114,1.304383]}} 
{"id": "9082838783","server": "2886","farm": "3","userId": "72725501@N03","secret": "3cc91fcbb0","title": "IMG_9168.JPG","loc": {"type": "Point","coordinates": [103.834114,1.304383]}} 
{"id": "9082843369","server": "2823","farm": "3","userId": "72725501@N03","secret": "456d7a707c","title": "IMG_9169.JPG","loc": {"type": "Point","coordinates": [103.834114,1.304383]}} 
{"id": "9082872493","server": "2859","farm": "3","userId": "72725501@N03","secret": "68dfbee854","title": "IMG_9171.JPG","loc": {"type": "Point","coordinates": [103.834114,1.304383]}} 
{"id": "9085068832","server": "2872","farm": "3","userId": "72725501@N03","secret": "1d7fc458c0","title": "IMG_9170.JPG","loc": {"type": "Point","coordinates": [103.834114,1.304383]}} 
{"id": "9080617321","server": "7411","farm": "8","userId": "72725501@N03","secret": "d6ee3fc793","title": "IMG_9165.JPG","loc": {"type": "Point","coordinates": [103.832085,1.304385]}} 
{"id": "9080622053","server": "7437","farm": "8","userId": "72725501@N03","secret": "cef7fc3e26","title": "IMG_9166.JPG","loc": {"type": "Point","coordinates": [103.832085,1.304385]}} 
{"id": "9082825790","server": "3719","farm": "4","userId": "72725501@N03","secret": "b24e345072","title": "IMG_9163.JPG","loc": {"type": "Point","coordinates": [103.832085,1.304385]}} 
{"id": "9082828830","server": "5343","farm": "6","userId": "72725501@N03","secret": "a5e941cbaf","title": "IMG_9164.JPG","loc": {"type": "Point","coordinates": [103.832085,1.304385]}} 
{"id": "9082818194","server": "7387","farm": "8","userId": "72725501@N03","secret": "15c500f172","title": "IMG_9162.JPG","loc": {"type": "Point","coordinates": [103.832085,1.304385]}} 
{"id": "9078660313","server": "7410","farm": "8","userId": "99942665@N00","secret": "18ac4c645b","title": "P1190219","loc": {"type": "Point","coordinates": [103.83633,1.305907]}} 
{"id": "9077468464","server": "7306","farm": "8","userId": "7762143@N03","secret": "c5e431fd89","title": "","loc": {"type": "Point","coordinates": [103.83509,1.303184]}} 
{"id": "9077469692","server": "3717","farm": "4","userId": "7762143@N03","secret": "b15e6a6db2","title": "","loc": {"type": "Point","coordinates": [103.83509,1.303184]}} 
{"id": "9068535108","server": "7389","farm": "8","userId": "87803880@N07","secret": "1ded0c7a56","title": "","loc": {"type": "Point","coordinates": [103.833336,1.303]}} 
{"id": "9066320737","server": "5332","farm": "6","userId": "87803880@N07","secret": "313e14e265","title": "","loc": {"type": "Point","coordinates": [103.833,1.303166]}} 
{"id": "9065963253","server": "3782","farm": "4","userId": "40138859@N02","secret": "6d3a6f8016","title": "I was thinking for awhile, then I stopped thinking for awhile.","loc": {"type": "Point","coordinates": [103.835884,1.300941]}} 
{"id": "9057798036","server": "5327","farm": "6","userId": "99942665@N00","secret": "8f469d4fa4","title": "P1190205","loc": {"type": "Point","coordinates": [103.83633,1.305907]}} 
{"id": "9055348631","server": "7327","farm": "8","userId": "45099369@N08","secret": "7a1e3e5465","title": "Finally!","loc": {"type": "Point","coordinates": [103.83145,1.304729]}} 
{"id": "9056606506","server": "7459","farm": "8","userId": "19282426@N00","secret": "3c3def5fac","title": "Set B, salmon steak","loc": {"type": "Point","coordinates": [103.83175,1.304894]}} 
{"id": "9056244608","server": "5347","farm": "6","userId": "94512171@N00","secret": "77b7e6591b","title": "Egg custard bun - yum #foodporn #singapore #sg #igsg #foodphotography #asianfood #sgig #foodpornasia #instafood","loc": {"type": "Point","coordinates": [103.83492,1.303438]}} 
{"id": "9055113612","server": "7388","farm": "8","userId": "8659935@N03","secret": "14d2ea66cf","title": "Tonkichi","loc": {"type": "Point","coordinates": [103.83493,1.304338]}} 
{"id": "9052894843","server": "5344","farm": "6","userId": "8659935@N03","secret": "fcf21e0139","title": "Tonkichi","loc": {"type": "Point","coordinates": [103.83493,1.304338]}} 
{"id": "9049550272","server": "2849","farm": "3","userId": "80964197@N00","secret": "3be53709d4","title": "the best way to kill time.. :)","loc": {"type": "Point","coordinates": [103.8347,1.303226]}} 
{"id": "9041415277","server": "3824","farm": "4","userId": "80964197@N00","secret": "a41951484c","title": "'Lost' him for a bit and found him at reading.. :)","loc": {"type": "Point","coordinates": [103.8347,1.303226]}} 
{"id": "9039873863","server": "3671","farm": "4","userId": "57246876@N02","secret": "013b74f597","title": "Gardens by the Bay","loc": {"type": "Point","coordinates": [103.83668,1.305759]}} 
{"id": "9041613800","server": "3811","farm": "4","userId": "44065876@N03","secret": "e0b18aeb92","title": "Parking Fee","loc": {"type": "Point","coordinates": [103.83017,1.305833]}} 
{"id": "9034983073","server": "7348","farm": "8","userId": "7131703@N03","secret": "cac1af5cff","title": "IMG_2801","loc": {"type": "Point","coordinates": [103.836334,1.300333]}} 
{"id": "9034856301","server": "3710","farm": "4","userId": "7131703@N03","secret": "07da042f57","title": "IMG_2800","loc": {"type": "Point","coordinates": [103.83666,1.300333]}} 
{"id": "9037083700","server": "5526","farm": "6","userId": "7131703@N03","secret": "c8aa30269e","title": "IMG_2799","loc": {"type": "Point","coordinates": [103.83683,1.300333]}} 
{"id": "9031061233","server": "7315","farm": "8","userId": "24989432@N06","secret": "a2140a6055","title": "Chilled out tunes with my boys @pennylanesg \m/","loc": {"type": "Point","coordinates": [103.83203,1.305197]}} 
{"id": "9033023388","server": "7361","farm": "8","userId": "24989432@N06","secret": "1d03e384d9","title": "Asahi Beer in a Sapporo Glass #fail @sohjan","loc": {"type": "Point","coordinates": [103.83192,1.304256]}} 
{"id": "9016512166","server": "3814","farm": "4","userId": "78686549@N00","secret": "0722593b67","title": "Rendang Tok Beef Short Ribs. Today's was tender and totally off the bones. Rendang spice was aromatic too.","loc": {"type": "Point","coordinates": [103.83283,1.305847]}} 
{"id": "9015912010","server": "8120","farm": "9","userId": "78686549@N00","secret": "c1396b4604","title": "Can you spot the Keropok that's on my plate for dinner? What flavors of Keropok do you like?","loc": {"type": "Point","coordinates": [103.83283,1.305847]}} 
{"id": "9007029472","server": "8139","farm": "9","userId": "89212762@N02","secret": "12eeb5bca1","title": "That's a solid pair of balls right there.","loc": {"type": "Point","coordinates": [103.83702,1.301253]}} 
{"id": "8995487347","server": "2835","farm": "3","userId": "35468141938@N01","secret": "5d1cc764b6","title": "Got myself them ccilu shoes (Chilu in Kapanese apparently means 'liberate'). The latest project by brand-starter Killick Datta, this high-tech wearable represents a joint project by his new Singapore firm and a major injected shoe company in China (which","loc": {"type": "Point","coordinates": [103.83117,1.304702]}} 
{"id": "8996639360","server": "7310","farm": "8","userId": "14501676@N07","secret": "9e21da0a15","title": "♡ Yohji","loc": {"type": "Point","coordinates": [103.836784,1.302531]}} 
{"id": "8993450903","server": "8272","farm": "9","userId": "35468141938@N01","secret": "e90ac8b21d","title": "Bad guys end up here...","loc": {"type": "Point","coordinates": [103.83106,1.305467]}} 
{"id": "8994219588","server": "3759","farm": "4","userId": "99942665@N00","secret": "6910388b39","title": "P1180730","loc": {"type": "Point","coordinates": [103.83633,1.305907]}} 
{"id": "8993019725","server": "7382","farm": "8","userId": "99942665@N00","secret": "f98aca6c51","title": "P1180718","loc": {"type": "Point","coordinates": [103.83633,1.305907]}} 
{"id": "8993020759","server": "8540","farm": "9","userId": "99942665@N00","secret": "9c5455143c","title": "P1180727","loc": {"type": "Point","coordinates": [103.83633,1.305907]}} 
{"id": "8993028341","server": "7331","farm": "8","userId": "99942665@N00","secret": "b7b91e2140","title": "P1180731","loc": {"type": "Point","coordinates": [103.83633,1.305907]}} 
{"id": "8993026375","server": "7398","farm": "8","userId": "99942665@N00","secret": "9a3f628666","title": "_DSC9117","loc": {"type": "Point","coordinates": [103.83633,1.305907]}} 
{"id": "8994218860","server": "2890","farm": "3","userId": "99942665@N00","secret": "3bba19fb65","title": "Screen Shot 2013-06-09 at 10.07.40 AM","loc": {"type": "Point","coordinates": [103.83633,1.305907]}} 
{"id": "8994217170","server": "7327","farm": "8","userId": "99942665@N00","secret": "b1392b60be","title": "_DSC9111","loc": {"type": "Point","coordinates": [103.83633,1.305907]}} 
{"id": "8994116646","server": "2812","farm": "3","userId": "99942665@N00","secret": "f9451525b3","title": "IMG_20130608_103332","loc": {"type": "Point","coordinates": [103.83363,1.304288]}} 
{"id": "8992923109","server": "5331","farm": "6","userId": "99942665@N00","secret": "2cc941909f","title": "IMG_20130608_103247","loc": {"type": "Point","coordinates": [103.833984,1.304477]}} 
{"id": "8994117550","server": "7415","farm": "8","userId": "99942665@N00","secret": "23e01a3188","title": "IMG_20130608_110124","loc": {"type": "Point","coordinates": [103.833565,1.304502]}} 
{"id": "8992921969","server": "7282","farm": "8","userId": "99942665@N00","secret": "d5b2602631","title": "IMG_20130608_103159","loc": {"type": "Point","coordinates": [103.8338,1.304372]}} 
{"id": "8992521567","server": "7387","farm": "8","userId": "95503244@N08","secret": "5407ac791d","title": "8 (2)","loc": {"type": "Point","coordinates": [103.831894,1.304711]}} 
{"id": "8992338263","server": "8131","farm": "9","userId": "49098167@N07","secret": "59640a6085","title": "Big and Fatty Siew Mai :)","loc": {"type": "Point","coordinates": [103.8348,1.303078]}} 
{"id": "8993523608","server": "5447","farm": "6","userId": "49098167@N07","secret": "7008698cd2","title": "Elephant Dim Sum :p","loc": {"type": "Point","coordinates": [103.8348,1.303078]}} 
{"id": "8993482484","server": "5466","farm": "6","userId": "49098167@N07","secret": "81fbc052db","title": "Chicken Dance :p","loc": {"type": "Point","coordinates": [103.8348,1.303078]}} 
{"id": "8992268027","server": "3807","farm": "4","userId": "49098167@N07","secret": "beecff5722","title": "Father Day's Celebration Part 2 :)","loc": {"type": "Point","coordinates": [103.8348,1.303078]}} 
{"id": "8991619067","server": "5456","farm": "6","userId": "14501676@N07","secret": "67fb62a5f4","title": "blue version of Y3 heels by Yohji Yamamoto","loc": {"type": "Point","coordinates": [103.836784,1.302531]}} 
{"id": "8991821848","server": "3800","farm": "4","userId": "94460638@N08","secret": "7832bff82f","title": "Go for sunrise","loc": {"type": "Point","coordinates": [103.837,1.301166]}} 
{"id": "8988722530","server": "7352","farm": "8","userId": "41894167963@N01","secret": "1082fc201d","title": "","loc": {"type": "Point","coordinates": [103.836334,1.3025]}} 
{"id": "8987526267","server": "5455","farm": "6","userId": "41894167963@N01","secret": "5e5d57006a","title": "","loc": {"type": "Point","coordinates": [103.836334,1.3025]}} 
{"id": "8988727660","server": "5335","farm": "6","userId": "41894167963@N01","secret": "614739fd55","title": "","loc": {"type": "Point","coordinates": [103.836334,1.3025]}} 
{"id": "8987719240","server": "8396","farm": "9","userId": "11008075@N00","secret": "c4b9a19e2d","title": "Before and After  Yummy dinner with @wreckc","loc": {"type": "Point","coordinates": [103.832,1.304127]}} 
{"id": "8985778497","server": "5334","farm": "6","userId": "14501676@N07","secret": "03b78e143c","title": "♡♡♡ Yohji Yamamoto","loc": {"type": "Point","coordinates": [103.836784,1.302531]}} 
{"id": "8985369873","server": "8270","farm": "9","userId": "15170730@N07","secret": "99fec71830","title": "cheat night ","loc": {"type": "Point","coordinates": [103.83402,1.304408]}} 
{"id": "8985357549","server": "2859","farm": "3","userId": "72725501@N03","secret": "1828fa0054","title": "IMG_9073.JPG","loc": {"type": "Point","coordinates": [103.8361,1.302609]}} 
{"id": "8986544604","server": "3713","farm": "4","userId": "72725501@N03","secret": "1afd4ce78a","title": "IMG_9072.JPG","loc": {"type": "Point","coordinates": [103.8361,1.302609]}} 
{"id": "8986518724","server": "7350","farm": "8","userId": "72725501@N03","secret": "a9aa36d0ab","title": "IMG_9071.JPG","loc": {"type": "Point","coordinates": [103.83577,1.302776]}} 
{"id": "8985334151","server": "3776","farm": "4","userId": "72725501@N03","secret": "f99ca646bc","title": "IMG_9068.JPG","loc": {"type": "Point","coordinates": [103.83577,1.302776]}} 
{"id": "8985315669","server": "7299","farm": "8","userId": "72725501@N03","secret": "09ed1567b8","title": "IMG_9069.JPG","loc": {"type": "Point","coordinates": [103.83577,1.302776]}} 
{"id": "8985218841","server": "5441","farm": "6","userId": "72725501@N03","secret": "dd2208f2b9","title": "IMG_9065.JPG","loc": {"type": "Point","coordinates": [103.83579,1.302846]}} 
{"id": "8985233277","server": "8560","farm": "9","userId": "72725501@N03","secret": "71d9948174","title": "IMG_9067.JPG","loc": {"type": "Point","coordinates": [103.83577,1.302776]}} 
{"id": "8986398122","server": "7445","farm": "8","userId": "72725501@N03","secret": "ba664909d9","title": "IMG_9063.JPG","loc": {"type": "Point","coordinates": [103.83579,1.302846]}} 
{"id": "8985210795","server": "7312","farm": "8","userId": "72725501@N03","secret": "65a2cd5234","title": "IMG_9064.JPG","loc": {"type": "Point","coordinates": [103.83579,1.302846]}} 
{"id": "8985753906","server": "7397","farm": "8","userId": "60026216@N00","secret": "1216a3ce0c","title": "High tea, with wife.","loc": {"type": "Point","coordinates": [103.833275,1.304033]}} 
{"id": "8985377970","server": "8548","farm": "9","userId": "60026216@N00","secret": "ecdd6c1341","title": "Mega Luggage Fair @ Takashimaya B2.","loc": {"type": "Point","coordinates": [103.83488,1.303183]}} 
{"id": "8983648941","server": "8128","farm": "9","userId": "40869741@N00","secret": "876049c223","title": "Lunch @ Crystal Jade","loc": {"type": "Point","coordinates": [103.83483,1.303333]}} 
{"id": "8983630485","server": "3707","farm": "4","userId": "40869741@N00","secret": "f4bf00f123","title": "Lunch @ Crystal Jade","loc": {"type": "Point","coordinates": [103.834335,1.303]}} 
{"id": "8983629473","server": "8553","farm": "9","userId": "40869741@N00","secret": "7b068056fe","title": "Lunch @ Crystal Jade","loc": {"type": "Point","coordinates": [103.83617,1.3025]}} 
{"id": "8983633129","server": "5344","farm": "6","userId": "40869741@N00","secret": "35fa8e4ea4","title": "Lunch @ Crystal Jade","loc": {"type": "Point","coordinates": [103.83466,1.303333]}} 
{"id": "8984341128","server": "3710","farm": "4","userId": "47971089@N00","secret": "4dfa439a05","title": "Judith with #family #friends #weekend #gatherings #mycheekyprincess","loc": {"type": "Point","coordinates": [103.83279,1.305908]}} 
{"id": "8982036135","server": "3714","farm": "4","userId": "76520775@N04","secret": "b8498d6e33","title": "5A7A6173","loc": {"type": "Point","coordinates": [103.8336,1.304095]}} 
{"id": "8977623391","server": "8550","farm": "9","userId": "14249053@N05","secret": "42cb8b3c6e","title": "Having my dose of chocolate on a daily basis. Thanks love.","loc": {"type": "Point","coordinates": [103.83566,1.302931]}} 
{"id": "8976532273","server": "3823","farm": "4","userId": "15170730@N07","secret": "c87f6921ca","title": "6s","loc": {"type": "Point","coordinates": [103.83525,1.303955]}} 
{"id": "8975682719","server": "3766","farm": "4","userId": "91456356@N03","secret": "90cf4e1301","title": "Healthy BMI (phew!). But I have got a satanic 66.6kg weight omg.","loc": {"type": "Point","coordinates": [103.83152,1.305747]}} 
{"id": "8972028155","server": "3750","farm": "4","userId": "94460638@N08","secret": "d75871381a","title": "Fun of us","loc": {"type": "Point","coordinates": [103.83683,1.301]}} 
{"id": "8972017191","server": "3731","farm": "4","userId": "94460638@N08","secret": "4ab35042ae","title": "Fun of us","loc": {"type": "Point","coordinates": [103.837,1.301333]}} 
{"id": "8972026623","server": "3775","farm": "4","userId": "94460638@N08","secret": "674a2ae3d3","title": "Fun of us","loc": {"type": "Point","coordinates": [103.837,1.301]}} 
{"id": "8971950831","server": "3691","farm": "4","userId": "94460638@N08","secret": "84caae2030","title": "All of us","loc": {"type": "Point","coordinates": [103.836334,1.300833]}} 
{"id": "8969280817","server": "3702","farm": "4","userId": "83652136@N00","secret": "6f7aa001bb","title": "Unmistakable presence","loc": {"type": "Point","coordinates": [103.83655,1.302416]}} 
{"id": "8970478288","server": "2810","farm": "3","userId": "83652136@N00","secret": "d6b8db65e4","title": "Soul","loc": {"type": "Point","coordinates": [103.83655,1.302416]}} 
{"id": "8970494804","server": "8124","farm": "9","userId": "83652136@N00","secret": "c4459d74ca","title": "Power","loc": {"type": "Point","coordinates": [103.83655,1.302416]}} 
{"id": "8969294547","server": "3758","farm": "4","userId": "83652136@N00","secret": "a5d09f4bcb","title": "Beauty","loc": {"type": "Point","coordinates": [103.83655,1.302416]}} 
{"id": "8966060787","server": "3746","farm": "4","userId": "52658827@N06","secret": "a6c7884329","title": "Cute Present from the team at @koreastartups. Thank you","loc": {"type": "Point","coordinates": [103.83673,1.300832]}} 
{"id": "8964234414","server": "2850","farm": "3","userId": "83592540@N07","secret": "0071845850","title": "My Last Stay to Singapre","loc": {"type": "Point","coordinates": [103.83639,1.301111]}} 
{"id": "8963033619","server": "7327","farm": "8","userId": "83592540@N07","secret": "db728900ce","title": "My Last Stay to Singapre","loc": {"type": "Point","coordinates": [103.83639,1.301111]}} 
{"id": "8964233196","server": "5333","farm": "6","userId": "83592540@N07","secret": "654ef23f65","title": "My Last Stay to Singapre","loc": {"type": "Point","coordinates": [103.83639,1.301111]}} 
{"id": "8964247044","server": "2842","farm": "3","userId": "83592540@N07","secret": "22202f8b26","title": "My Last Stay to Singapre","loc": {"type": "Point","coordinates": [103.83639,1.301111]}} 
{"id": "8964233296","server": "8129","farm": "9","userId": "83592540@N07","secret": "bf76ac3aac","title": "My Last Stay to Singapre","loc": {"type": "Point","coordinates": [103.83639,1.301111]}} 
{"id": "8963030723","server": "7360","farm": "8","userId": "83592540@N07","secret": "00d21fcf83","title": "My Last Stay to Singapre","loc": {"type": "Point","coordinates": [103.83639,1.301111]}} 
{"id": "8963031425","server": "5350","farm": "6","userId": "83592540@N07","secret": "b0b660dd07","title": "My Last Stay to Singapre","loc": {"type": "Point","coordinates": [103.83639,1.301111]}} 
{"id": "8963047951","server": "3748","farm": "4","userId": "83592540@N07","secret": "975191ec6b","title": "My Last Stay to Singapre","loc": {"type": "Point","coordinates": [103.83639,1.301111]}} 
{"id": "8963050957","server": "5326","farm": "6","userId": "83592540@N07","secret": "83ed29bfd1","title": "My Last Stay to Singapre","loc": {"type": "Point","coordinates": [103.83639,1.301111]}} 
{"id": "8964228374","server": "5454","farm": "6","userId": "83592540@N07","secret": "2d263d573f","title": "My Last Stay to Singapre","loc": {"type": "Point","coordinates": [103.83639,1.301111]}} 
{"id": "8964240338","server": "3811","farm": "4","userId": "83592540@N07","secret": "914cd6d592","title": "My Last Stay to Singapre","loc": {"type": "Point","coordinates": [103.83639,1.301111]}} 
{"id": "8963042699","server": "7314","farm": "8","userId": "83592540@N07","secret": "54206c2a5b","title": "My Last Stay to Singapre","loc": {"type": "Point","coordinates": [103.83639,1.301111]}} 
{"id": "8963036243","server": "7317","farm": "8","userId": "83592540@N07","secret": "7a50b125bc","title": "My Last Stay to Singapre","loc": {"type": "Point","coordinates": [103.83639,1.301111]}} 
{"id": "8963042097","server": "5342","farm": "6","userId": "83592540@N07","secret": "fe79172986","title": "My Last Stay to Singapre","loc": {"type": "Point","coordinates": [103.83639,1.301111]}} 
{"id": "8964245826","server": "2814","farm": "3","userId": "83592540@N07","secret": "cde627e7eb","title": "My Last Stay to Singapre","loc": {"type": "Point","coordinates": [103.83639,1.301111]}} 
{"id": "8963034993","server": "8405","farm": "9","userId": "83592540@N07","secret": "c5ef79afd4","title": "My Last Stay to Singapre","loc": {"type": "Point","coordinates": [103.83639,1.301111]}} 
{"id": "8964243596","server": "5466","farm": "6","userId": "83592540@N07","secret": "c67d07b449","title": "My Last Stay to Singapre","loc": {"type": "Point","coordinates": [103.83639,1.301111]}} 
{"id": "8963047425","server": "7328","farm": "8","userId": "83592540@N07","secret": "6e156c0520","title": "My Last Stay to Singapre","loc": {"type": "Point","coordinates": [103.83639,1.301111]}} 
{"id": "8964250196","server": "3785","farm": "4","userId": "83592540@N07","secret": "5b7b13c6c0","title": "My Last Stay to Singapre","loc": {"type": "Point","coordinates": [103.83639,1.301111]}} 
{"id": "8964243784","server": "5463","farm": "6","userId": "83592540@N07","secret": "9e2b66627b","title": "My Last Stay to Singapre","loc": {"type": "Point","coordinates": [103.83639,1.301111]}} 
{"id": "8963045025","server": "5462","farm": "6","userId": "83592540@N07","secret": "a28e8ebef7","title": "My Last Stay to Singapre","loc": {"type": "Point","coordinates": [103.83639,1.301111]}} 
{"id": "8963051893","server": "2814","farm": "3","userId": "83592540@N07","secret": "6c24690dd6","title": "My Last Stay to Singapre","loc": {"type": "Point","coordinates": [103.83639,1.301111]}} 
{"id": "8964237882","server": "2857","farm": "3","userId": "83592540@N07","secret": "8fe3ff5a44","title": "My Last Stay to Singapre","loc": {"type": "Point","coordinates": [103.83639,1.301111]}} 
{"id": "8963034603","server": "3748","farm": "4","userId": "83592540@N07","secret": "e5b62719c5","title": "My Last Stay to Singapre","loc": {"type": "Point","coordinates": [103.83639,1.301111]}} 
{"id": "8963039163","server": "7405","farm": "8","userId": "83592540@N07","secret": "9383180d84","title": "My Last Stay to Singapre","loc": {"type": "Point","coordinates": [103.83639,1.301111]}} 
{"id": "8957817343","server": "3696","farm": "4","userId": "95762324@N03","secret": "105a517e0e","title": "#Singapore cappuccino","loc": {"type": "Point","coordinates": [103.83701,1.302484]}} 
{"id": "8931599534","server": "7423","farm": "8","userId": "95982698@N06","secret": "140778ccb4","title": "1 インポートする","loc": {"type": "Point","coordinates": [103.83417,1.303666]}} 
{"id": "8930884193","server": "3671","farm": "4","userId": "95982698@N06","secret": "b46b9997dd","title": "2 インポートする","loc": {"type": "Point","coordinates": [103.83283,1.305666]}} 
{"id": "8930826123","server": "8263","farm": "9","userId": "95982698@N06","secret": "66cd93f9f2","title": "10 インポートする","loc": {"type": "Point","coordinates": [103.83217,1.306]}} 
{"id": "8923762839","server": "7455","farm": "8","userId": "11434986@N04","secret": "309940f962","title": "잘먹었습니다!","loc": {"type": "Point","coordinates": [103.83479,1.303355]}} 
{"id": "8924112832","server": "3784","farm": "4","userId": "23005792@N06","secret": "e061122f15","title": "Food at Dome","loc": {"type": "Point","coordinates": [103.83178,1.305098]}} 
{"id": "8923497617","server": "3674","farm": "4","userId": "11434986@N04","secret": "87b727a14d","title": "I ❤ Kimchi 김치","loc": {"type": "Point","coordinates": [103.83479,1.303355]}} 
{"id": "8923046492","server": "3682","farm": "4","userId": "52407560@N00","secret": "613ca600c1","title": "I won't go home without new books","loc": {"type": "Point","coordinates": [103.8347,1.303226]}} 
{"id": "8921863193","server": "3726","farm": "4","userId": "52407560@N00","secret": "500b8eb114","title": "Nawala bad boy look for falling in line here. The things I do for you @sarssantos","loc": {"type": "Point","coordinates": [103.8347,1.303118]}} 
{"id": "8921008754","server": "3715","farm": "4","userId": "99942665@N00","secret": "fbf41d1dd9","title": "P1180528","loc": {"type": "Point","coordinates": [103.83633,1.305907]}} 
{"id": "8920939586","server": "7290","farm": "8","userId": "99942665@N00","secret": "509fbe1054","title": "P1180515","loc": {"type": "Point","coordinates": [103.83633,1.305907]}} 
{"id": "8920938244","server": "2820","farm": "3","userId": "99942665@N00","secret": "be19d341ab","title": "IMG_20130531_233050","loc": {"type": "Point","coordinates": [103.83397,1.30382]}} 
{"id": "8920237319","server": "3815","farm": "4","userId": "95833059@N05","secret": "dfd50c679a","title": "upload","loc": {"type": "Point","coordinates": [103.83194,1.304783]}} 
{"id": "8910635707","server": "7444","farm": "8","userId": "47282483@N00","secret": "03344396e9","title": "Ion Orchard and the glitzy glam stores","loc": {"type": "Point","coordinates": [103.83194,1.304783]}} 
{"id": "8911256910","server": "5460","farm": "6","userId": "47282483@N00","secret": "20c63c178f","title": "Ion Orchard and the glitzy glam stores","loc": {"type": "Point","coordinates": [103.83194,1.304783]}} 
{"id": "8911261056","server": "7417","farm": "8","userId": "47282483@N00","secret": "0649b1dc72","title": "Ion Orchard and the glitzy glam stores","loc": {"type": "Point","coordinates": [103.83194,1.304783]}} 
{"id": "8902384336","server": "5327","farm": "6","userId": "92593934@N04","secret": "fc097a057a","title": "Very decent spread of sublime cocktails (the Chilli Martini packs a real kick) and exemplar bar snacks--go for the Wood-fired focaccia with a savoury, aromatic truffle mascarpone cheese filling. Yums!","loc": {"type": "Point","coordinates": [103.82802,1.304503]}} 
{"id": "8899941505","server": "2838","farm": "3","userId": "36919220@N00","secret": "4b703186fe","title": "Raining","loc": {"type": "Point","coordinates": [103.83157,1.305543]}} 
{"id": "8897316574","server": "7364","farm": "8","userId": "52407560@N00","secret": "8d5b68f7aa","title": "Morning tea. A much better version of Sip & Gogh","loc": {"type": "Point","coordinates": [103.836006,1.302475]}} 
{"id": "8891522749","server": "5456","farm": "6","userId": "52407560@N00","secret": "846a94125b","title": "The touch of poached egg made it nomnomnom","loc": {"type": "Point","coordinates": [103.83685,1.302282]}} 
{"id": "8892101320","server": "5322","farm": "6","userId": "52407560@N00","secret": "f3043ee67f","title": "Fell in line for 30mins for this. :-)","loc": {"type": "Point","coordinates": [103.83685,1.302282]}} 
{"id": "8892083770","server": "8125","farm": "9","userId": "52407560@N00","secret": "715643b5f7","title": "#kuropotaangsarap","loc": {"type": "Point","coordinates": [103.83685,1.302282]}} 
{"id": "8889702299","server": "8278","farm": "9","userId": "42454135@N00","secret": "13286d167b","title": "I twist in Singapore. Woooo.","loc": {"type": "Point","coordinates": [103.833275,1.304033]}} 
{"id": "8889438476","server": "2824","farm": "3","userId": "52658827@N06","secret": "17def47094","title": "It's Time","loc": {"type": "Point","coordinates": [103.836655,1.300872]}} 
{"id": "8882557535","server": "2813","farm": "3","userId": "58874424@N07","secret": "8f5bb1a9ab","title": "Singapore1.Orchard St- 1","loc": {"type": "Point","coordinates": [103.83166,1.305972]}} 
{"id": "8875679913","server": "8274","farm": "9","userId": "88189322@N05","secret": "d74e46b0c4","title": "13050064","loc": {"type": "Point","coordinates": [103.833336,1.303611]}} 
{"id": "8875677117","server": "2890","farm": "3","userId": "88189322@N05","secret": "6e2ed7cd15","title": "13050063","loc": {"type": "Point","coordinates": [103.833336,1.303888]}} 
{"id": "8867450618","server": "3704","farm": "4","userId": "91317615@N05","secret": "0fbc12ed31","title": "Sexy One","loc": {"type": "Point","coordinates": [103.8351,1.30328]}} 
{"id": "8866119102","server": "5465","farm": "6","userId": "95929504@N04","secret": "979256260a","title": "","loc": {"type": "Point","coordinates": [103.832214,1.304036]}} 
{"id": "8865513339","server": "3744","farm": "4","userId": "95929504@N04","secret": "3934d3687a","title": "","loc": {"type": "Point","coordinates": [103.832214,1.304036]}} 
{"id": "8865509247","server": "2865","farm": "3","userId": "95929504@N04","secret": "93a0a9daac","title": "","loc": {"type": "Point","coordinates": [103.832214,1.304036]}} 
{"id": "8863160820","server": "7428","farm": "8","userId": "92593934@N04","secret": "52837a20b5","title": "Bluefin tuna to start the Japanese lunch.","loc": {"type": "Point","coordinates": [103.83498,1.303612]}} 
{"id": "8855184323","server": "2883","farm": "3","userId": "91317615@N05","secret": "97c885fb79","title": "Bluish Down-Under","loc": {"type": "Point","coordinates": [103.8351,1.30328]}} 
{"id": "8855228433","server": "7432","farm": "8","userId": "91317615@N05","secret": "2a60b8fb4a","title": "","loc": {"type": "Point","coordinates": [103.8351,1.30328]}} 
{"id": "8855067685","server": "7356","farm": "8","userId": "91317615@N05","secret": "3b3f37ee00","title": "Street Cool","loc": {"type": "Point","coordinates": [103.8351,1.30328]}} 
{"id": "8855160939","server": "7341","farm": "8","userId": "91317615@N05","secret": "5a59c36055","title": "Jap-inspired?","loc": {"type": "Point","coordinates": [103.8351,1.30328]}} 
{"id": "8855171471","server": "2850","farm": "3","userId": "91317615@N05","secret": "0f0f077e73","title": "Simply Fashion","loc": {"type": "Point","coordinates": [103.8351,1.30328]}} 
{"id": "8855699958","server": "8394","farm": "9","userId": "91317615@N05","secret": "ca15820531","title": "Boyish","loc": {"type": "Point","coordinates": [103.8351,1.30328]}} 
{"id": "8855706828","server": "5341","farm": "6","userId": "91317615@N05","secret": "b473eb125d","title": "Swag Fashion","loc": {"type": "Point","coordinates": [103.8351,1.30328]}} 
