{"id": "9436639832","server": "7348","farm": "8","userId": "37305800@N00","secret": "d77b82b9d3","title": "Pandan Reservoir 56","loc": {"type": "Point","coordinates": [103.73717,1.319833]}} 
{"id": "9433867353","server": "7341","farm": "8","userId": "37305800@N00","secret": "40c925f216","title": "Pandan Reservoir 55","loc": {"type": "Point","coordinates": [103.73717,1.319833]}} 
{"id": "9322448095","server": "7283","farm": "8","userId": "37305800@N00","secret": "1b48d4d04b","title": "Kampong Teban 1","loc": {"type": "Point","coordinates": [103.73766,1.323]}} 
{"id": "9322446277","server": "5533","farm": "6","userId": "37305800@N00","secret": "ff386bac62","title": "Kampong Teban 2","loc": {"type": "Point","coordinates": [103.73766,1.323]}} 
{"id": "8166581248","server": "8064","farm": "9","userId": "37305800@N00","secret": "d9a4147298","title": "En Bloc - Preparing the new flat 23","loc": {"type": "Point","coordinates": [103.73766,1.3225]}} 
{"id": "8166555349","server": "8058","farm": "9","userId": "37305800@N00","secret": "76802a2909","title": "En Bloc - Preparing the new flat 13","loc": {"type": "Point","coordinates": [103.73583,1.321833]}} 
{"id": "8166440310","server": "7134","farm": "8","userId": "37305800@N00","secret": "20ab6ba2dc","title": "En Bloc - Old Block's Trash 12","loc": {"type": "Point","coordinates": [103.73766,1.3235]}} 
{"id": "8100068728","server": "8054","farm": "9","userId": "95662496@N00","secret": "11bd4d7cd3","title": "Modern HDB Teban Garden","loc": {"type": "Point","coordinates": [103.73756,1.322391]}} 
{"id": "8034274059","server": "8451","farm": "9","userId": "76657582@N03","secret": "8f93c55fcc","title": "The park is almost done... #home #singapore #tebangardens #asia #park #recreation #recreational #stroll #walk #barbecue #chill #footballcourt #badmintoncourt #workout #jog #jogging #exercise #fun #family #weekend #garden #playground #view #sky #blueskies","loc": {"type": "Point","coordinates": [103.737686,1.324238]}} 
{"id": "8034059665","server": "8182","farm": "9","userId": "76657582@N03","secret": "547611cdd1","title": "Purple sky early Saturday morning...  #sky #purple #saturday #sunrise #morning #view #beautiful #nice #picture #relax","loc": {"type": "Point","coordinates": [103.737686,1.324238]}} 
