{"id": "9305135037","server": "2856","farm": "3","userId": "21768535@N06","secret": "8d594ebc76","title": "New style of Valley Inn wings","loc": {"type": "Point","coordinates": [103.720695,1.483503]}} 
{"id": "9307781752","server": "2836","farm": "3","userId": "21768535@N06","secret": "7ce8f7a18d","title": "Ramadan buffet is like potluck at church","loc": {"type": "Point","coordinates": [103.720695,1.483503]}} 
{"id": "9096078493","server": "5342","farm": "6","userId": "85144214@N03","secret": "ded12b5434","title": "Steel Cutter!","loc": {"type": "Point","coordinates": [103.71755,1.484591]}} 
{"id": "8739328609","server": "7281","farm": "8","userId": "65688323@N00","secret": "0a12d72fbf","title": "P1000548","loc": {"type": "Point","coordinates": [103.720825,1.483047]}} 
{"id": "8681142929","server": "8384","farm": "9","userId": "46221295@N04","secret": "6c36557287","title": "Sunset while skating.","loc": {"type": "Point","coordinates": [103.72127,1.483285]}} 
{"id": "8299395592","server": "8351","farm": "9","userId": "39489048@N04","secret": "044840158a","title": "Nasi Goreng Ikan Masin... yours truly","loc": {"type": "Point","coordinates": [103.7207,1.48351]}} 
{"id": "8298344343","server": "8358","farm": "9","userId": "39489048@N04","secret": "f7e372fb73","title": "Nasi Goreng Telur Masin...","loc": {"type": "Point","coordinates": [103.7208,1.483459]}} 
{"id": "8298344321","server": "8359","farm": "9","userId": "39489048@N04","secret": "2382547916","title": "Vanilla (ice-cream) Fried Ball","loc": {"type": "Point","coordinates": [103.7207,1.483509]}} 
{"id": "8298344231","server": "8364","farm": "9","userId": "39489048@N04","secret": "1ccdeca86c","title": "jepang ball....","loc": {"type": "Point","coordinates": [103.7207,1.483585]}} 
{"id": "8267882849","server": "8504","farm": "9","userId": "37957592@N06","secret": "19a0eaaca4","title": "Morning at the rooftop","loc": {"type": "Point","coordinates": [103.71825,1.483342]}} 
{"id": "8266243730","server": "8363","farm": "9","userId": "37957592@N06","secret": "e81fecf824","title": "Morning focus","loc": {"type": "Point","coordinates": [103.71825,1.483342]}} 
{"id": "8263408203","server": "8480","farm": "9","userId": "37957592@N06","secret": "9a823eb105","title": "life is like a box of.. TIKI?","loc": {"type": "Point","coordinates": [103.71825,1.483342]}} 
{"id": "8262879109","server": "8342","farm": "9","userId": "76502197@N00","secret": "10da39696d","title": "自然のパレット♪","loc": {"type": "Point","coordinates": [103.72081,1.481787]}} 
{"id": "8261172294","server": "8342","farm": "9","userId": "76502197@N00","secret": "82a9decf84","title": "I heart seas ♡","loc": {"type": "Point","coordinates": [103.72081,1.481787]}} 
{"id": "8223087345","server": "8484","farm": "9","userId": "50749781@N04","secret": "9ca799c47e","title": "Let's have some #Indian #food, so #spicy and #stomachache afterward. #travel #food #malaysia #johor #indian #india #bananaleaf #orangejuice #orange #curry #kari that's so much of #rice too! #Weekends","loc": {"type": "Point","coordinates": [103.71849,1.483546]}} 
{"id": "8179766629","server": "8058","farm": "9","userId": "22894584@N03","secret": "38653e99db","title": "Johor panorama","loc": {"type": "Point","coordinates": [103.72101,1.478226]}} 
{"id": "8099238878","server": "8474","farm": "9","userId": "7616011@N05","secret": "8c63ef89c5","title": "Last night #dinner. #LambChop. Ermmm... maybe there is some other restaurant that can offer better lamb chop.","loc": {"type": "Point","coordinates": [103.71939,1.48441]}} 
