{"id": "8635316288","server": "8525","farm": "9","userId": "18338366@N00","secret": "3f323633af","title": "SBS Transit Volvo Super Olympian B10TL Volgren CR222LD","loc": {"type": "Point","coordinates": [103.705734,1.340306]}} 
{"id": "8295590403","server": "8491","farm": "9","userId": "88199293@N03","secret": "bd9b0b782a","title": "","loc": {"type": "Point","coordinates": [103.70541,1.338873]}} 
{"id": "8112416744","server": "8053","farm": "9","userId": "41298448@N08","secret": "a3057d44ce","title": "I got milk !","loc": {"type": "Point","coordinates": [103.70554,1.338838]}} 
{"id": "9443642326","server": "3722","farm": "4","userId": "88199293@N03","secret": "d87a67c67c","title": "Pistachio Ice Cream","loc": {"type": "Point","coordinates": [103.70186,1.338589]}} 
{"id": "9358472412","server": "7442","farm": "8","userId": "99344317@N06","secret": "823a4bf9f4","title": "Kids cap","loc": {"type": "Point","coordinates": [103.697945,1.338016]}} 
{"id": "9355700229","server": "3726","farm": "4","userId": "99344317@N06","secret": "34cc6fac56","title": "Adult cap","loc": {"type": "Point","coordinates": [103.697945,1.338016]}} 
{"id": "9355700415","server": "3766","farm": "4","userId": "99344317@N06","secret": "a769f207cb","title": "Adult cap","loc": {"type": "Point","coordinates": [103.697945,1.338016]}} 
{"id": "9358440066","server": "3820","farm": "4","userId": "99344317@N06","secret": "ff92c5de98","title": "Adult cap","loc": {"type": "Point","coordinates": [103.697945,1.338016]}} 
{"id": "9355674181","server": "5459","farm": "6","userId": "99344317@N06","secret": "c6941ac6ec","title": "Kids cap","loc": {"type": "Point","coordinates": [103.697945,1.338016]}} 
{"id": "9358440326","server": "7292","farm": "8","userId": "99344317@N06","secret": "225690b171","title": "Adult cap","loc": {"type": "Point","coordinates": [103.697945,1.338016]}} 
{"id": "9358427868","server": "5460","farm": "6","userId": "99344317@N06","secret": "433286c83d","title": "Kids cap","loc": {"type": "Point","coordinates": [103.697945,1.338016]}} 
{"id": "9358435282","server": "3752","farm": "4","userId": "99344317@N06","secret": "25019de828","title": "Kids cap","loc": {"type": "Point","coordinates": [103.697945,1.338016]}} 
{"id": "9358454164","server": "2829","farm": "3","userId": "99344317@N06","secret": "f667a3beff","title": "Adult cap","loc": {"type": "Point","coordinates": [103.697945,1.338016]}} 
{"id": "9355667269","server": "7422","farm": "8","userId": "99344317@N06","secret": "768257cc08","title": "Adult cap","loc": {"type": "Point","coordinates": [103.697945,1.338016]}} 
{"id": "9358398224","server": "5487","farm": "6","userId": "99344317@N06","secret": "4f1855582e","title": "Bear w a bag","loc": {"type": "Point","coordinates": [103.697945,1.338016]}} 
{"id": "9355623711","server": "2872","farm": "3","userId": "99344317@N06","secret": "feb1dd5aec","title": "Bear w a bag","loc": {"type": "Point","coordinates": [103.697945,1.338016]}} 
{"id": "9358398890","server": "5522","farm": "6","userId": "99344317@N06","secret": "fee1dce38a","title": "Bear w a bag","loc": {"type": "Point","coordinates": [103.697945,1.338016]}} 
{"id": "9355626049","server": "3806","farm": "4","userId": "99344317@N06","secret": "57eb502bce","title": "Bear w a bag","loc": {"type": "Point","coordinates": [103.697945,1.338016]}} 
{"id": "9358397500","server": "3668","farm": "4","userId": "99344317@N06","secret": "be14528fe7","title": "Bear w a bag","loc": {"type": "Point","coordinates": [103.697945,1.338016]}} 
{"id": "9358397820","server": "3674","farm": "4","userId": "99344317@N06","secret": "84e4512f70","title": "Bear w a bag","loc": {"type": "Point","coordinates": [103.697945,1.338016]}} 
{"id": "9358399844","server": "7454","farm": "8","userId": "99344317@N06","secret": "725829c2fb","title": "Bear w a bag","loc": {"type": "Point","coordinates": [103.697945,1.338016]}} 
{"id": "9358399226","server": "2827","farm": "3","userId": "99344317@N06","secret": "9c23bec27e","title": "Bear w a bag","loc": {"type": "Point","coordinates": [103.697945,1.338016]}} 
{"id": "9358398592","server": "5522","farm": "6","userId": "99344317@N06","secret": "db14328183","title": "Bear w a bag","loc": {"type": "Point","coordinates": [103.697945,1.338016]}} 
{"id": "9355626645","server": "7396","farm": "8","userId": "99344317@N06","secret": "1eb7a04ea5","title": "Bear w a bag","loc": {"type": "Point","coordinates": [103.697945,1.338016]}} 
{"id": "9355626955","server": "7284","farm": "8","userId": "99344317@N06","secret": "d21a7607f4","title": "Bear w a bag","loc": {"type": "Point","coordinates": [103.697945,1.338016]}} 
{"id": "9358360898","server": "5506","farm": "6","userId": "99344317@N06","secret": "308ab7020c","title": "Lovely bag","loc": {"type": "Point","coordinates": [103.697945,1.338016]}} 
{"id": "9355536223","server": "5495","farm": "6","userId": "99344317@N06","secret": "2f3163b319","title": "Zoo animals bag","loc": {"type": "Point","coordinates": [103.69809,1.339348]}} 
{"id": "9358317564","server": "3771","farm": "4","userId": "99344317@N06","secret": "8beec33eff","title": "Sling bag","loc": {"type": "Point","coordinates": [103.69809,1.339348]}} 
{"id": "9355535917","server": "5475","farm": "6","userId": "99344317@N06","secret": "80f8aa8c6e","title": "Zoo animals bag","loc": {"type": "Point","coordinates": [103.69809,1.339348]}} 
{"id": "9355342289","server": "2858","farm": "3","userId": "28261482@N05","secret": "d3ca45b67e","title": "OTWH with #incubus","loc": {"type": "Point","coordinates": [103.70546,1.339948]}} 
{"id": "9304197469","server": "3770","farm": "4","userId": "96738935@N00","secret": "14c51c44a0","title": "IMG_2875","loc": {"type": "Point","coordinates": [103.704666,1.339333]}} 
{"id": "9306981216","server": "3678","farm": "4","userId": "96738935@N00","secret": "c9d77cfb0d","title": "IMG_2867","loc": {"type": "Point","coordinates": [103.704666,1.339166]}} 
{"id": "9306980742","server": "7297","farm": "8","userId": "96738935@N00","secret": "437cf3ee64","title": "IMG_2873","loc": {"type": "Point","coordinates": [103.7045,1.339333]}} 
{"id": "9304197909","server": "5531","farm": "6","userId": "96738935@N00","secret": "91f34d2ea1","title": "IMG_2868","loc": {"type": "Point","coordinates": [103.704666,1.339166]}} 
{"id": "9306837140","server": "2890","farm": "3","userId": "96738935@N00","secret": "c673efb37c","title": "IMG_2259","loc": {"type": "Point","coordinates": [103.704666,1.339333]}} 
{"id": "9304056029","server": "2865","farm": "3","userId": "96738935@N00","secret": "936bbe7405","title": "IMG_2257","loc": {"type": "Point","coordinates": [103.70433,1.339166]}} 
{"id": "9306837062","server": "2835","farm": "3","userId": "96738935@N00","secret": "3a886bc303","title": "IMG_2260","loc": {"type": "Point","coordinates": [103.704834,1.339333]}} 
{"id": "9304055627","server": "3721","farm": "4","userId": "96738935@N00","secret": "19170b875d","title": "IMG_2261","loc": {"type": "Point","coordinates": [103.704834,1.339333]}} 
{"id": "9304054901","server": "3795","farm": "4","userId": "96738935@N00","secret": "eac6cba82f","title": "IMG_2272","loc": {"type": "Point","coordinates": [103.70433,1.339166]}} 
{"id": "9306836904","server": "7434","farm": "8","userId": "96738935@N00","secret": "9c381f6df5","title": "IMG_2262","loc": {"type": "Point","coordinates": [103.704834,1.339166]}} 
{"id": "9306837278","server": "5525","farm": "6","userId": "96738935@N00","secret": "6934af9c15","title": "IMG_2258","loc": {"type": "Point","coordinates": [103.70433,1.339166]}} 
{"id": "9306525934","server": "3817","farm": "4","userId": "96738935@N00","secret": "ce4bb4964b","title": "IMG_1479","loc": {"type": "Point","coordinates": [103.704666,1.339166]}} 
{"id": "9303744615","server": "7362","farm": "8","userId": "96738935@N00","secret": "7dc338d1d0","title": "IMG_1476","loc": {"type": "Point","coordinates": [103.7045,1.339]}} 
{"id": "9306524364","server": "7332","farm": "8","userId": "96738935@N00","secret": "2bccc84eff","title": "IMG_1485","loc": {"type": "Point","coordinates": [103.7045,1.339166]}} 
{"id": "9303742795","server": "3686","farm": "4","userId": "96738935@N00","secret": "8a14b417ff","title": "IMG_1483","loc": {"type": "Point","coordinates": [103.7045,1.339166]}} 
{"id": "9306526168","server": "7454","farm": "8","userId": "96738935@N00","secret": "683fcb64e5","title": "IMG_1478","loc": {"type": "Point","coordinates": [103.704666,1.339166]}} 
{"id": "9303743339","server": "5497","farm": "6","userId": "96738935@N00","secret": "c17a72b2ab","title": "IMG_1481","loc": {"type": "Point","coordinates": [103.704666,1.339166]}} 
{"id": "9306524598","server": "3674","farm": "4","userId": "96738935@N00","secret": "c76a42efc4","title": "IMG_1484","loc": {"type": "Point","coordinates": [103.7045,1.339333]}} 
{"id": "9303743603","server": "3710","farm": "4","userId": "96738935@N00","secret": "8fd2253734","title": "IMG_1480","loc": {"type": "Point","coordinates": [103.704666,1.339166]}} 
{"id": "9306526402","server": "3692","farm": "4","userId": "96738935@N00","secret": "a1dc6dcc96","title": "IMG_1477","loc": {"type": "Point","coordinates": [103.704666,1.339333]}} 
{"id": "9303744865","server": "7405","farm": "8","userId": "96738935@N00","secret": "b73db4ddc2","title": "IMG_1475","loc": {"type": "Point","coordinates": [103.7045,1.339]}} 
{"id": "9305457038","server": "5449","farm": "6","userId": "96738935@N00","secret": "36c032b700","title": "IMG_1406","loc": {"type": "Point","coordinates": [103.7045,1.339166]}} 
{"id": "9305456922","server": "3775","farm": "4","userId": "96738935@N00","secret": "988a1c980a","title": "IMG_1407","loc": {"type": "Point","coordinates": [103.7045,1.339166]}} 
{"id": "9305457220","server": "5516","farm": "6","userId": "96738935@N00","secret": "8534f5202a","title": "IMG_1405","loc": {"type": "Point","coordinates": [103.7045,1.339166]}} 
{"id": "9302598411","server": "3708","farm": "4","userId": "96738935@N00","secret": "c23332c1c1","title": "IMG_1187","loc": {"type": "Point","coordinates": [103.7045,1.337833]}} 
{"id": "9302598577","server": "2817","farm": "3","userId": "96738935@N00","secret": "b1d976658d","title": "IMG_1186","loc": {"type": "Point","coordinates": [103.7045,1.338166]}} 
{"id": "9302383583","server": "7339","farm": "8","userId": "96738935@N00","secret": "5128142513","title": "IMG_0963","loc": {"type": "Point","coordinates": [103.704666,1.339166]}} 
{"id": "9305164702","server": "5327","farm": "6","userId": "96738935@N00","secret": "501c7afd4f","title": "IMG_0961","loc": {"type": "Point","coordinates": [103.7045,1.339166]}} 
{"id": "9302051931","server": "7381","farm": "8","userId": "96738935@N00","secret": "0ecd78999c","title": "IMG_0540","loc": {"type": "Point","coordinates": [103.7045,1.3395]}} 
{"id": "9304832140","server": "5510","farm": "6","userId": "96738935@N00","secret": "33c3c03965","title": "IMG_0542","loc": {"type": "Point","coordinates": [103.705666,1.338833]}} 
{"id": "9302051661","server": "3786","farm": "4","userId": "96738935@N00","secret": "687755fd2f","title": "IMG_0541","loc": {"type": "Point","coordinates": [103.7045,1.3395]}} 
{"id": "9177277757","server": "7294","farm": "8","userId": "28261482@N05","secret": "95e9bcd034","title": "Bought False Plaintiff tracks this morning on bsndcamp. Fucking love it.. On my way to work and rocking in the bus with it.. #falseplaintiff #singapore #local #music","loc": {"type": "Point","coordinates": [103.70562,1.339785]}} 
{"id": "9112203425","server": "5337","farm": "6","userId": "99942665@N00","secret": "a7cda7838d","title": "IMG_20130621_173252","loc": {"type": "Point","coordinates": [103.69732,1.337478]}} 
{"id": "9112198767","server": "3796","farm": "4","userId": "99942665@N00","secret": "1a2a37ff45","title": "IMG_20130620_120155","loc": {"type": "Point","coordinates": [103.69734,1.337478]}} 
{"id": "9056424131","server": "5450","farm": "6","userId": "69379954@N08","secret": "85e4c21d04","title": "So many bicycles","loc": {"type": "Point","coordinates": [103.704384,1.338498]}} 
{"id": "8987386459","server": "7447","farm": "8","userId": "28455224@N04","secret": "704176dd8c","title": "...","loc": {"type": "Point","coordinates": [103.70575,1.338922]}} 
{"id": "8977993378","server": "3761","farm": "4","userId": "24773033@N02","secret": "7a6ccaeb96","title": "The different seasons of my life as a mommybel.... #kids #loves #gift #ThankYouLord #precious #iamamomofwonderfulkids","loc": {"type": "Point","coordinates": [103.70553,1.338875]}} 
{"id": "8970740810","server": "3742","farm": "4","userId": "28455224@N04","secret": "f41521ed7e","title": "Eat orgasmic. For breakfast tomorrow. Insya Allah. #genggua #my_genggua #genggua_makan","loc": {"type": "Point","coordinates": [103.70574,1.339694]}} 
{"id": "8920741000","server": "7405","farm": "8","userId": "28261482@N05","secret": "66d29bd826","title": "Lunch Crowd @ JP","loc": {"type": "Point","coordinates": [103.70554,1.338879]}} 
{"id": "8919407415","server": "5450","farm": "6","userId": "28261482@N05","secret": "f52583c302","title": "Fries","loc": {"type": "Point","coordinates": [103.70542,1.33881]}} 
{"id": "8919389485","server": "2847","farm": "3","userId": "28261482@N05","secret": "e7314f2e8f","title": "Some Duck..","loc": {"type": "Point","coordinates": [103.70542,1.33881]}} 
{"id": "8919372255","server": "3781","farm": "4","userId": "28261482@N05","secret": "c8da1a5b53","title": "Salad.. Yummy","loc": {"type": "Point","coordinates": [103.70542,1.33881]}} 
{"id": "8919384099","server": "5458","farm": "6","userId": "28261482@N05","secret": "539959c253","title": "Poulet De Cranberry","loc": {"type": "Point","coordinates": [103.70542,1.33881]}} 
{"id": "8920012080","server": "7369","farm": "8","userId": "28261482@N05","secret": "6a67963e49","title": "Lamb","loc": {"type": "Point","coordinates": [103.70542,1.33881]}} 
{"id": "8919994030","server": "3804","farm": "4","userId": "28261482@N05","secret": "2f3233fc19","title": "Sausages..","loc": {"type": "Point","coordinates": [103.70542,1.33881]}} 
{"id": "8919364843","server": "2862","farm": "3","userId": "28261482@N05","secret": "4681da6361","title": "My fave soup.. Yummy!","loc": {"type": "Point","coordinates": [103.70542,1.33881]}} 
{"id": "8888906488","server": "7413","farm": "8","userId": "95975076@N00","secret": "cb6298d1bb","title": "Garmin 910XT Replacement Bands","loc": {"type": "Point","coordinates": [103.70333,1.338666]}} 
{"id": "8888280275","server": "5451","farm": "6","userId": "95975076@N00","secret": "18e8ccb88b","title": "Garmin 910XT Replacement Bands","loc": {"type": "Point","coordinates": [103.70333,1.338666]}} 
{"id": "8888894006","server": "3794","farm": "4","userId": "95975076@N00","secret": "d2f8bb6834","title": "Garmin 910XT Replacement Bands","loc": {"type": "Point","coordinates": [103.70333,1.338666]}} 
{"id": "8888276443","server": "5442","farm": "6","userId": "95975076@N00","secret": "50d6ce37cc","title": "Garmin 910XT Replacement Bands","loc": {"type": "Point","coordinates": [103.70333,1.338666]}} 
{"id": "8888904418","server": "3798","farm": "4","userId": "95975076@N00","secret": "2a5486fd21","title": "Garmin 910XT Replacement Bands","loc": {"type": "Point","coordinates": [103.70333,1.338666]}} 
{"id": "8888896008","server": "7320","farm": "8","userId": "95975076@N00","secret": "5592e9c9f8","title": "Garmin 910XT Replacement Bands","loc": {"type": "Point","coordinates": [103.70333,1.338666]}} 
{"id": "8888899540","server": "8549","farm": "9","userId": "95975076@N00","secret": "0794f8010e","title": "Garmin 910XT Replacement Bands","loc": {"type": "Point","coordinates": [103.70333,1.338666]}} 
{"id": "8867052611","server": "5450","farm": "6","userId": "58301151@N00","secret": "e9a77c6191","title": "Untitled","loc": {"type": "Point","coordinates": [103.696335,1.334166]}} 
{"id": "8867665202","server": "7398","farm": "8","userId": "58301151@N00","secret": "ea858e1f10","title": "Untitled","loc": {"type": "Point","coordinates": [103.6965,1.3345]}} 
{"id": "8859411275","server": "2854","farm": "3","userId": "28261482@N05","secret": "393673961b","title": "Me, myself and I.. #interchange #bus #waiting #lifeless #boonlay #singapore #myself #alone","loc": {"type": "Point","coordinates": [103.705376,1.339365]}} 
{"id": "8762429806","server": "2884","farm": "3","userId": "52537869@N00","secret": "58ba4eea15","title": "#singapore #sbs","loc": {"type": "Point","coordinates": [103.7038,1.339833]}} 
{"id": "8762443252","server": "3792","farm": "4","userId": "52537869@N00","secret": "e6da6574fd","title": "Portrait of the runner","loc": {"type": "Point","coordinates": [103.69488,1.338493]}} 
{"id": "8761321705","server": "8418","farm": "9","userId": "52537869@N00","secret": "33729c464a","title": "屠妖節午後，宅在住處，聽昨天Hiroki 介紹的台灣獨立樂團-#透明雜誌","loc": {"type": "Point","coordinates": [103.70158,1.33999]}} 
{"id": "8762431588","server": "3813","farm": "4","userId": "52537869@N00","secret": "f70f946dc1","title": "Toast box 賣的咖喱雞，屬於馬來風格，會在咖哩中加椰奶，配飯或長米","loc": {"type": "Point","coordinates": [103.70163,1.340249]}} 
{"id": "8755813642","server": "3754","farm": "4","userId": "28261482@N05","secret": "f5816126b6","title": "I stand alone.. #me #alone #waiting","loc": {"type": "Point","coordinates": [103.705376,1.339365]}} 
{"id": "8740035780","server": "7284","farm": "8","userId": "28261482@N05","secret": "e63ea78b06","title": "Any amount of time to have the eyes shut is very much needed.. Happy Resting Dude! #busride #work #sleeping #rest #worker #migrant #dude #sleepy #resting","loc": {"type": "Point","coordinates": [103.695595,1.338214]}} 
{"id": "8735832359","server": "7311","farm": "8","userId": "28261482@N05","secret": "68a77f2a8b","title": "Wore my running shoes to work this morning. Might consider running home after work in the near future..  #shoes #nb #newbalance #minimus #running #work #busride #bus","loc": {"type": "Point","coordinates": [103.695595,1.338214]}} 
{"id": "8709555286","server": "8123","farm": "9","userId": "51294514@N06","secret": "51eb955be8","title": "Honey Sesame Chicken with Rice #androidography #food","loc": {"type": "Point","coordinates": [103.70502,1.33887]}} 
{"id": "8702384243","server": "8398","farm": "9","userId": "28261482@N05","secret": "b2e4fd58f0","title": "Good morning mates.. It's TGIF! My ink wanna say Peace + Love = Happiness  listen to more of GROUPLOVE #peace #happiness #love #inked #tattoos #tattooed #bodyart #sg #singaporean #busride #work #grouplove #tgif #friday #me","loc": {"type": "Point","coordinates": [103.695595,1.338214]}} 
{"id": "8691099602","server": "7055","farm": "8","userId": "28261482@N05","secret": "02d3739d33","title": "Everyone is busy with work and stuffs. Traveling to and fro on a daily basis.  But surely maybe, one can take five minutes to reply or send a message? It's the kind of environment  we live in nowadays..","loc": {"type": "Point","coordinates": [103.69845,1.336471]}} 
{"id": "8679630754","server": "8262","farm": "9","userId": "28261482@N05","secret": "635ac1d7b7","title": "Happy Thursday.. #thursday #happy #work","loc": {"type": "Point","coordinates": [103.69988,1.338283]}} 
{"id": "8642344430","server": "8382","farm": "9","userId": "14385475@N05","secret": "ccec315d6c","title": "IMG_4480","loc": {"type": "Point","coordinates": [103.7055,1.338333]}} 
{"id": "8639733440","server": "8542","farm": "9","userId": "44065876@N03","secret": "e0d02b025a","title": "Bicycles","loc": {"type": "Point","coordinates": [103.7055,1.337999]}} 
{"id": "8625397892","server": "8539","farm": "9","userId": "18338366@N00","secret": "b17d9c0a91","title": "SMRT Taxis Carbodies TX1 London Taxi","loc": {"type": "Point","coordinates": [103.705734,1.340306]}} 
{"id": "8609464560","server": "8246","farm": "9","userId": "28261482@N05","secret": "a74e841a9b","title": "The Swiss have called..!!!","loc": {"type": "Point","coordinates": [103.70436,1.340262]}} 
{"id": "8585463852","server": "8241","farm": "9","userId": "28261482@N05","secret": "8d9b325ed8","title": "DON is my new love.. #don #pie","loc": {"type": "Point","coordinates": [103.703125,1.33904]}} 
{"id": "8576356332","server": "8096","farm": "9","userId": "28261482@N05","secret": "870683b8f1","title": "The gay boy look started back in 1993.. #ballboy #hockey #1993 #seagames #yuhua","loc": {"type": "Point","coordinates": [103.695595,1.338214]}} 
{"id": "8575256337","server": "8241","farm": "9","userId": "28261482@N05","secret": "c9ee4d9561","title": "Last time I only 'action' pretended that I could play these instruments. Now definitely I am able to.. ✌ #musician #freelance #kid #organ #guitar","loc": {"type": "Point","coordinates": [103.695595,1.338214]}} 
{"id": "8547023975","server": "8377","farm": "9","userId": "35468141938@N01","secret": "89e05f171d","title": "Non-Aircon Double Decker SBS Bus","loc": {"type": "Point","coordinates": [103.6985,1.337666]}} 
{"id": "8543889898","server": "8237","farm": "9","userId": "69379954@N08","secret": "1a3ebcce44","title": "Fast food has terrible post effects","loc": {"type": "Point","coordinates": [103.704666,1.338598]}} 
{"id": "8502161377","server": "8515","farm": "9","userId": "88199293@N03","secret": "f3e81dea64","title": "Pork Chop Noodles","loc": {"type": "Point","coordinates": [103.70568,1.338955]}} 
{"id": "8478219466","server": "8250","farm": "9","userId": "50135936@N02","secret": "87e1ef6625","title": "2013-02-09 13.20.36","loc": {"type": "Point","coordinates": [103.70367,1.338833]}} 
{"id": "8460401107","server": "8370","farm": "9","userId": "95975076@N00","secret": "3d43c6428f","title": "Salomon Sense Ultra","loc": {"type": "Point","coordinates": [103.70333,1.338666]}} 
{"id": "8460400147","server": "8247","farm": "9","userId": "95975076@N00","secret": "bf0d1316e3","title": "Salomon Sense Ultra","loc": {"type": "Point","coordinates": [103.70333,1.338666]}} 
{"id": "8460400697","server": "8091","farm": "9","userId": "95975076@N00","secret": "1b71aeaba0","title": "Salomon Sense Ultra","loc": {"type": "Point","coordinates": [103.70333,1.338666]}} 
{"id": "8461499542","server": "8391","farm": "9","userId": "95975076@N00","secret": "8dae557537","title": "Salomon Sense Ultra","loc": {"type": "Point","coordinates": [103.7035,1.338666]}} 
{"id": "8461497440","server": "8529","farm": "9","userId": "95975076@N00","secret": "eac3c87327","title": "Salomon Sense Ultra","loc": {"type": "Point","coordinates": [103.70333,1.338666]}} 
{"id": "8461496390","server": "8529","farm": "9","userId": "95975076@N00","secret": "d28f813fd2","title": "Salomon Sense Ultra","loc": {"type": "Point","coordinates": [103.70333,1.338666]}} 
{"id": "8461498982","server": "8100","farm": "9","userId": "95975076@N00","secret": "a7bb9e96ca","title": "Salomon Sense Ultra","loc": {"type": "Point","coordinates": [103.7035,1.338666]}} 
{"id": "8460398589","server": "8100","farm": "9","userId": "95975076@N00","secret": "99b1793480","title": "Salomon Sense Ultra","loc": {"type": "Point","coordinates": [103.70333,1.338666]}} 
{"id": "8461497924","server": "8368","farm": "9","userId": "95975076@N00","secret": "6703e13213","title": "Salomon Sense Ultra","loc": {"type": "Point","coordinates": [103.70333,1.338666]}} 
{"id": "8461496842","server": "8246","farm": "9","userId": "95975076@N00","secret": "2b751c04f3","title": "Salomon Sense Ultra","loc": {"type": "Point","coordinates": [103.70333,1.338666]}} 
{"id": "8452629346","server": "8529","farm": "9","userId": "54696848@N00","secret": "02acf8292b","title": "Yesterday's dessert that I forgot to post loool","loc": {"type": "Point","coordinates": [103.70542,1.3389]}} 
{"id": "8419981696","server": "8053","farm": "9","userId": "74855524@N00","secret": "94dc33b3d2","title": "CNY Decorations","loc": {"type": "Point","coordinates": [103.70554,1.33888]}} 
{"id": "8418878521","server": "8234","farm": "9","userId": "74855524@N00","secret": "2eb04ac80e","title": "Crushed Ice Vanilla Tea with Pearls","loc": {"type": "Point","coordinates": [103.70554,1.33888]}} 
{"id": "8382960879","server": "8502","farm": "9","userId": "28455224@N04","secret": "3c6b344c5a","title": "Bermuzakarah di jalan raya. #genggua #my_genggua","loc": {"type": "Point","coordinates": [103.70333,1.337651]}} 
{"id": "8377037674","server": "8089","farm": "9","userId": "14249053@N05","secret": "a775a9b099","title": "Balling balling balling... Sweat sweat sweat...","loc": {"type": "Point","coordinates": [103.70301,1.340333]}} 
{"id": "8373735424","server": "8491","farm": "9","userId": "69379954@N08","secret": "4f9ab70e46","title": "Flatten the burger","loc": {"type": "Point","coordinates": [103.70531,1.338493]}} 
{"id": "8358743653","server": "8079","farm": "9","userId": "28261482@N05","secret": "b0a17b29e5","title": "The bus is freezing...","loc": {"type": "Point","coordinates": [103.69705,1.337421]}} 
{"id": "8349245592","server": "8211","farm": "9","userId": "16102830@N05","secret": "fd993a0117","title": "1206_JuneRandoms_HR_059","loc": {"type": "Point","coordinates": [103.69717,1.3375]}} 
{"id": "8348065523","server": "8363","farm": "9","userId": "16102830@N05","secret": "912f8a720f","title": "1205_MayRandoms_HR_059","loc": {"type": "Point","coordinates": [103.69683,1.3375]}} 
{"id": "8348985092","server": "8464","farm": "9","userId": "16102830@N05","secret": "2232e59f31","title": "1204_AprRandoms_HR_141","loc": {"type": "Point","coordinates": [103.69666,1.337666]}} 
{"id": "8347949961","server": "8079","farm": "9","userId": "16102830@N05","secret": "b7b260e2ff","title": "1204_AprRandoms_HR_062","loc": {"type": "Point","coordinates": [103.7015,1.3385]}} 
{"id": "8349023782","server": "8221","farm": "9","userId": "16102830@N05","secret": "9493a3e1c2","title": "1204_AprRandoms_HR_007","loc": {"type": "Point","coordinates": [103.69783,1.337]}} 
{"id": "8347952151","server": "8467","farm": "9","userId": "16102830@N05","secret": "271e992227","title": "1204_AprRandoms_HR_054","loc": {"type": "Point","coordinates": [103.69766,1.3375]}} 
{"id": "8349010542","server": "8213","farm": "9","userId": "16102830@N05","secret": "e961236630","title": "1204_AprRandoms_HR_055","loc": {"type": "Point","coordinates": [103.69766,1.3375]}} 
{"id": "8347120084","server": "8223","farm": "9","userId": "16102830@N05","secret": "fd9ec95256","title": "1203_MarRandoms_HR_074","loc": {"type": "Point","coordinates": [103.697334,1.3375]}} 
{"id": "8346065633","server": "8502","farm": "9","userId": "16102830@N05","secret": "3cd281bdab","title": "1203_MarRandoms_HR_075","loc": {"type": "Point","coordinates": [103.697334,1.3375]}} 
{"id": "8346077183","server": "8223","farm": "9","userId": "16102830@N05","secret": "790e61b16b","title": "1203_MarRandoms_HR_037","loc": {"type": "Point","coordinates": [103.69766,1.337333]}} 
{"id": "8346078003","server": "8211","farm": "9","userId": "16102830@N05","secret": "19b8d3861b","title": "1203_MarRandoms_HR_035","loc": {"type": "Point","coordinates": [103.69766,1.337333]}} 
{"id": "8346083339","server": "8213","farm": "9","userId": "16102830@N05","secret": "543a9ebb3e","title": "1203_MarRandoms_HR_018","loc": {"type": "Point","coordinates": [103.697334,1.337666]}} 
{"id": "8309929049","server": "8084","farm": "9","userId": "39926850@N04","secret": "c91757a150","title": "Swensens","loc": {"type": "Point","coordinates": [103.70562,1.338935]}} 
{"id": "8309488404","server": "8075","farm": "9","userId": "42594504@N00","secret": "83c7ae743d","title": "Our dinner today thank you The Ng family :)) @peeter777 missing local food??","loc": {"type": "Point","coordinates": [103.6951,1.336369]}} 
{"id": "8308436631","server": "8499","farm": "9","userId": "42594504@N00","secret": "976c308ae2","title": "Future rocker :))","loc": {"type": "Point","coordinates": [103.6952,1.336249]}} 
{"id": "8308444179","server": "8211","farm": "9","userId": "42594504@N00","secret": "18f7479057","title": "Really hope we can get the unit we have been discussing about to tomorrow. *fingers crossed*","loc": {"type": "Point","coordinates": [103.702774,1.337445]}} 
{"id": "8309497306","server": "8220","farm": "9","userId": "42594504@N00","secret": "328784e850","title": "Who is following me.","loc": {"type": "Point","coordinates": [103.6952,1.336241]}} 
{"id": "8308424725","server": "8499","farm": "9","userId": "42594504@N00","secret": "495fe0a97d","title": "guess this sums up this part of sg.. under construction","loc": {"type": "Point","coordinates": [103.7057,1.338772]}} 
{"id": "8309483920","server": "8361","farm": "9","userId": "42594504@N00","secret": "fdc625fc07","title": "Our childhood","loc": {"type": "Point","coordinates": [103.695,1.336045]}} 
{"id": "8308432767","server": "8364","farm": "9","userId": "42594504@N00","secret": "d0560e6749","title": "Matthias likes my cards especially the credit cards #iphoneonly","loc": {"type": "Point","coordinates": [103.6953,1.336461]}} 
{"id": "8295545085","server": "8217","farm": "9","userId": "88199293@N03","secret": "7490e84e31","title": "Penang Prawn Mee","loc": {"type": "Point","coordinates": [103.705376,1.338872]}} 
{"id": "8294780898","server": "8078","farm": "9","userId": "88199293@N03","secret": "8781188c22","title": "Pork Kimuchi Ramen with Baby Octopus","loc": {"type": "Point","coordinates": [103.70481,1.338708]}} 
{"id": "8289706698","server": "8221","farm": "9","userId": "28261482@N05","secret": "34fabcc19e","title": "Wah! #googlemaps is damn accurate right now. Managed to locate me at the corner of my bedroom..  #bedroom","loc": {"type": "Point","coordinates": [103.70472,1.340093]}} 
{"id": "8286488269","server": "8067","farm": "9","userId": "28455224@N04","secret": "3e22a37dda","title": "BK • cubatah ada Begedel King • #genggua #my_genggua","loc": {"type": "Point","coordinates": [103.70198,1.338515]}} 
{"id": "8271549859","server": "8502","farm": "9","userId": "25217916@N06","secret": "b4d711995d","title": "Have a golden holidays everyone! #christmas #december #ferrero #foodporn #pinoy #instagood #photooftheday #instamood #igers #picoftheday #instadaily #instagramhub #bestoftheday #igdaily #jj #webstagram #follow #instagramers #followme #statigram #instahub","loc": {"type": "Point","coordinates": [103.70574,1.339694]}} 
{"id": "8269268583","server": "8479","farm": "9","userId": "88199293@N03","secret": "094ee3b3f4","title": "Toffee Nut Latte","loc": {"type": "Point","coordinates": [103.70562,1.33888]}} 
{"id": "8269487638","server": "8081","farm": "9","userId": "28261482@N05","secret": "0154887988","title": "#rain","loc": {"type": "Point","coordinates": [103.69988,1.338283]}} 
{"id": "8265824029","server": "8488","farm": "9","userId": "36579035@N04","secret": "ef36b0bd13","title": "pampalipas gutom...","loc": {"type": "Point","coordinates": [103.70554,1.338879]}} 
{"id": "8251787175","server": "8344","farm": "9","userId": "25217916@N06","secret": "ccaea58c7c","title": "Must-try at Thai Express #food #foodporn #singapore  #pinoy #instagood #photooftheday #instamood #igers #picoftheday #instadaily #instagramhub #bestoftheday #igdaily #jj #webstagram #follow #instagramers #followme #statigram #instahub #photo #like #all_sh","loc": {"type": "Point","coordinates": [103.70575,1.338975]}} 
{"id": "8251373309","server": "8482","farm": "9","userId": "60026216@N00","secret": "b8282eb4ce","title": "Soft-bone chicken (ayam tulang lunak).","loc": {"type": "Point","coordinates": [103.70198,1.338508]}} 
{"id": "8248810120","server": "8485","farm": "9","userId": "31872365@N08","secret": "c67520d6fd","title": "天真好，但是这个季节的新加坡下午一定下雨","loc": {"type": "Point","coordinates": [103.69752,1.335501]}} 
{"id": "8228389865","server": "8344","farm": "9","userId": "28455224@N04","secret": "4065a5a24d","title": "Pretzel • #genggua #genggua_makan #my_genggua #oh_my_genggua #lovefoodhatewaste #brunika #sgig #instasg","loc": {"type": "Point","coordinates": [103.70536,1.338739]}} 
{"id": "8223427430","server": "8487","farm": "9","userId": "41933249@N08","secret": "61b201c74e","title": "Having lunch after a long meeting in the morning.. #thaiexpress #lunch #lunchinsingapore #tuesday","loc": {"type": "Point","coordinates": [103.70575,1.338975]}} 
{"id": "8220458626","server": "8337","farm": "9","userId": "28455224@N04","secret": "88a9d8537f","title": "We are soldiers • #genggua #my_genggua #oh_my_genggua #wiraUBD","loc": {"type": "Point","coordinates": [103.69705,1.337421]}} 
{"id": "8213661192","server": "8343","farm": "9","userId": "25217916@N06","secret": "2bf6bbd1c8","title": "RYG #colors #singapore #pinoy #food #instagood #photooftheday #instamood #igers #picoftheday #instadaily #instagramhub #bestoftheday #igdaily #jj #webstagram #follow #instagramers #followme #statigram #instahub #photo #like #all_shots #instago #awesome #i","loc": {"type": "Point","coordinates": [103.70574,1.339694]}} 
{"id": "8198239967","server": "8066","farm": "9","userId": "41933249@N08","secret": "a581a0880a","title": "Reading and working at starbucks jurong point. Wonderful noon here...#starbucks #singapore #jurong point","loc": {"type": "Point","coordinates": [103.70561,1.338879]}} 
{"id": "8143062816","server": "8056","farm": "9","userId": "28261482@N05","secret": "9e06568921","title": "In the bus...","loc": {"type": "Point","coordinates": [103.7045,1.338171]}} 
{"id": "8116466077","server": "8466","farm": "9","userId": "18338366@N00","secret": "48ce5a893f","title": "Frontier Primary School Multi Purpose Hall","loc": {"type": "Point","coordinates": [103.6995,1.336906]}} 
{"id": "8116462393","server": "8190","farm": "9","userId": "18338366@N00","secret": "1a7d3eecbe","title": "Frontier Primary School","loc": {"type": "Point","coordinates": [103.6995,1.336906]}} 
{"id": "8110472325","server": "8194","farm": "9","userId": "41298448@N08","secret": "cc5852bddb","title": "满载而归","loc": {"type": "Point","coordinates": [103.70554,1.338838]}} 
{"id": "8108233315","server": "8045","farm": "9","userId": "95975076@N00","secret": "6e37ca3046","title": "Shirt - Overall","loc": {"type": "Point","coordinates": [103.70333,1.338666]}} 
{"id": "8108240730","server": "8326","farm": "9","userId": "95975076@N00","secret": "9cb481e7ff","title": "Vintage Bag","loc": {"type": "Point","coordinates": [103.70333,1.338666]}} 
{"id": "8108241036","server": "8186","farm": "9","userId": "95975076@N00","secret": "c85e825143","title": "Vintage Bag Close up","loc": {"type": "Point","coordinates": [103.70333,1.338666]}} 
{"id": "8108232465","server": "8470","farm": "9","userId": "95975076@N00","secret": "9c37efb638","title": "Medal - Front","loc": {"type": "Point","coordinates": [103.70333,1.338666]}} 
{"id": "8108242350","server": "8330","farm": "9","userId": "95975076@N00","secret": "f7e1c5c20d","title": "Shirt - Front","loc": {"type": "Point","coordinates": [103.70333,1.338666]}} 
{"id": "8108233799","server": "8330","farm": "9","userId": "95975076@N00","secret": "ce63953522","title": "Dirty Senses","loc": {"type": "Point","coordinates": [103.70333,1.338666]}} 
{"id": "8108232835","server": "8334","farm": "9","userId": "95975076@N00","secret": "d2233e23c1","title": "Shirt - Back","loc": {"type": "Point","coordinates": [103.70333,1.338666]}} 
{"id": "8108241430","server": "8464","farm": "9","userId": "95975076@N00","secret": "58095053bc","title": "Medal - Back","loc": {"type": "Point","coordinates": [103.70333,1.338666]}} 
{"id": "8101769546","server": "8185","farm": "9","userId": "85252992@N06","secret": "5334157847","title": "Mercedes-Benz O405 Duple Metsec","loc": {"type": "Point","coordinates": [103.70524,1.340016]}} 
{"id": "8086100683","server": "8195","farm": "9","userId": "88615408@N03","secret": "d0d6e6de48","title": "SBS8955T (243G)","loc": {"type": "Point","coordinates": [103.698654,1.340338]}} 
{"id": "8066307281","server": "8034","farm": "9","userId": "88525127@N00","secret": "7a58d70a12","title": "The Wait is On","loc": {"type": "Point","coordinates": [103.7051,1.337024]}} 
{"id": "8065031246","server": "8038","farm": "9","userId": "88199293@N03","secret": "af08f355c1","title": "Japanese Fried Tofu","loc": {"type": "Point","coordinates": [103.70407,1.340276]}} 
{"id": "8064819980","server": "8321","farm": "9","userId": "88199293@N03","secret": "858f7f0a63","title": "Salted Pepper Chicken","loc": {"type": "Point","coordinates": [103.7055,1.33889]}} 
{"id": "8064816064","server": "8321","farm": "9","userId": "88199293@N03","secret": "f9b17364e3","title": "Tofu with Century Egg and Chicken Floss","loc": {"type": "Point","coordinates": [103.7055,1.33889]}} 
{"id": "8064808215","server": "8462","farm": "9","userId": "88199293@N03","secret": "f1122a2aa0","title": "Fried Cod Fish","loc": {"type": "Point","coordinates": [103.70541,1.338873]}} 
{"id": "8064805058","server": "8451","farm": "9","userId": "88199293@N03","secret": "94c5a31438","title": "Scallops with Broccoli","loc": {"type": "Point","coordinates": [103.70541,1.338873]}} 
{"id": "8064797801","server": "8031","farm": "9","userId": "88199293@N03","secret": "5322cc865d","title": "Prawns","loc": {"type": "Point","coordinates": [103.70541,1.338873]}} 
{"id": "8063574806","server": "8178","farm": "9","userId": "88199293@N03","secret": "6fe1184bfa","title": "Dong-po Pork","loc": {"type": "Point","coordinates": [103.70541,1.338873]}} 
{"id": "8063568086","server": "8177","farm": "9","userId": "88199293@N03","secret": "61220dbf49","title": "Herbal Roasted Duck","loc": {"type": "Point","coordinates": [103.70541,1.338873]}} 
{"id": "8058731346","server": "8033","farm": "9","userId": "95975076@N00","secret": "ffde33c12a","title": "Race map and Bib","loc": {"type": "Point","coordinates": [103.70333,1.338667]}} 
{"id": "8058732250","server": "8034","farm": "9","userId": "95975076@N00","secret": "000465d4f6","title": "Event T-Shirt","loc": {"type": "Point","coordinates": [103.70333,1.338667]}} 
{"id": "8058732307","server": "8321","farm": "9","userId": "95975076@N00","secret": "d6efd65875","title": "Bib","loc": {"type": "Point","coordinates": [103.70333,1.338667]}} 
{"id": "8055080488","server": "8177","farm": "9","userId": "28261482@N05","secret": "1786566108","title": "You do something to me that I can't explain. So would I be out of line if I said 'I miss you'?","loc": {"type": "Point","coordinates": [103.70282,1.33679]}} 
{"id": "8034690459","server": "8309","farm": "9","userId": "95975076@N00","secret": "ea48839322","title": "Race Pack Contents","loc": {"type": "Point","coordinates": [103.70333,1.3385]}} 
{"id": "8034690951","server": "8315","farm": "9","userId": "95975076@N00","secret": "48b5f08f06","title": "Race BIB","loc": {"type": "Point","coordinates": [103.70333,1.3385]}} 
{"id": "8034689012","server": "8449","farm": "9","userId": "95975076@N00","secret": "48699b7f29","title": "Race Pack/Bag","loc": {"type": "Point","coordinates": [103.70333,1.338667]}} 
