{"id": "9419397967","server": "7429","farm": "8","userId": "62854216@N00","secret": "7cc4176934","title": "What have you gotten me? #xmasia #sito #birthday","loc": {"type": "Point","coordinates": [103.83693,1.310863]}} 
{"id": "9419397979","server": "5482","farm": "6","userId": "62854216@N00","secret": "e342c50586","title": "'Cake cutting' the Sito way #tgfs #birthday #xmasia","loc": {"type": "Point","coordinates": [103.83693,1.310863]}} 
{"id": "9367797230","server": "5341","farm": "6","userId": "60413485@N06","secret": "ec787a517f","title": "Sheraton Towers Singapore—Pool","loc": {"type": "Point","coordinates": [103.83676,1.311479]}} 
{"id": "9335270002","server": "3672","farm": "4","userId": "77747394@N05","secret": "960393b84d","title": "Dessert in 10 at claymore at pan pacific orchard","loc": {"type": "Point","coordinates": [103.83017,1.3075]}} 
{"id": "9302187771","server": "5494","farm": "6","userId": "20636317@N00","secret": "cdddb4e0ca","title": "Campbell learning to climb","loc": {"type": "Point","coordinates": [103.8265,1.308166]}} 
{"id": "9304965728","server": "2864","farm": "3","userId": "20636317@N00","secret": "12655fa33d","title": "Photo by Oliver","loc": {"type": "Point","coordinates": [103.8265,1.311833]}} 
{"id": "9304968304","server": "7447","farm": "8","userId": "20636317@N00","secret": "4653c942bf","title": "Oliver and Campbell at Treetops playground","loc": {"type": "Point","coordinates": [103.82667,1.308333]}} 
{"id": "9304969812","server": "5500","farm": "6","userId": "20636317@N00","secret": "c772d89c24","title": "Oliver looking for birthday presence","loc": {"type": "Point","coordinates": [103.829,1.3065]}} 
{"id": "9302188787","server": "3774","farm": "4","userId": "20636317@N00","secret": "4e4b4a6a13","title": "Having a rest","loc": {"type": "Point","coordinates": [103.82633,1.308166]}} 
{"id": "9304968820","server": "5448","farm": "6","userId": "20636317@N00","secret": "a40378bd58","title": "Oliver","loc": {"type": "Point","coordinates": [103.83117,1.307833]}} 
{"id": "9281431944","server": "7283","farm": "8","userId": "19256525@N00","secret": "d9dce3b34a","title": "souffle","loc": {"type": "Point","coordinates": [103.831665,1.306833]}} 
{"id": "9225548873","server": "2881","farm": "3","userId": "64565252@N00","secret": "86694fe36b","title": "First meeting of the Rotary Year , 3rd, July 2013  PM0A0509","loc": {"type": "Point","coordinates": [103.83234,1.310037]}} 
{"id": "9225554935","server": "7322","farm": "8","userId": "64565252@N00","secret": "b88a4edae3","title": "First meeting of the Rotary Year , 3rd, July 2013PM0A0492","loc": {"type": "Point","coordinates": [103.83234,1.310037]}} 
{"id": "9225556817","server": "5442","farm": "6","userId": "64565252@N00","secret": "812ec28032","title": "First meeting of the Rotary Year , 3rd, July 2013  PM0A0489","loc": {"type": "Point","coordinates": [103.83234,1.310037]}} 
{"id": "9228340950","server": "7428","farm": "8","userId": "64565252@N00","secret": "7898d2db50","title": "First meeting of the Rotary Year , 3rd, July 2013 PM0A0476","loc": {"type": "Point","coordinates": [103.83234,1.310037]}} 
{"id": "9225544495","server": "3757","farm": "4","userId": "64565252@N00","secret": "a716cbc241","title": "First meeting of the Rotary Year , 3rd, July 2013  PM0A0521","loc": {"type": "Point","coordinates": [103.83234,1.310037]}} 
{"id": "9228323310","server": "3668","farm": "4","userId": "64565252@N00","secret": "7acd440f18","title": "First meeting of the Rotary Year , 3rd, July 2013 PM0A0528","loc": {"type": "Point","coordinates": [103.83234,1.310037]}} 
{"id": "9225561709","server": "7319","farm": "8","userId": "64565252@N00","secret": "aa47bb1d40","title": "First meeting of the Rotary Year , 3rd, July 2013 PM0A0474","loc": {"type": "Point","coordinates": [103.83234,1.310037]}} 
{"id": "9228330934","server": "3673","farm": "4","userId": "64565252@N00","secret": "8a9f552c85","title": "PM0A0503","loc": {"type": "Point","coordinates": [103.83234,1.310037]}} 
{"id": "9225542625","server": "3776","farm": "4","userId": "64565252@N00","secret": "72b2d36e71","title": "First meeting of the Rotary Year , 3rd, July 2013   PM0A0532","loc": {"type": "Point","coordinates": [103.83234,1.310037]}} 
{"id": "9228340140","server": "3675","farm": "4","userId": "64565252@N00","secret": "50c390c4f8","title": "First meeting of the Rotary Year , 3rd, July 2013 PM0A0480","loc": {"type": "Point","coordinates": [103.83234,1.310037]}} 
{"id": "9225553271","server": "5321","farm": "6","userId": "64565252@N00","secret": "1ca6d7aafa","title": "First meeting of the Rotary Year , 3rd, July 2013 PM0A0495","loc": {"type": "Point","coordinates": [103.83234,1.310037]}} 
{"id": "9228334814","server": "2821","farm": "3","userId": "64565252@N00","secret": "8a5861b597","title": "First meeting of the Rotary Year , 3rd, July 2013 PM0A0494","loc": {"type": "Point","coordinates": [103.83234,1.310037]}} 
{"id": "9228338826","server": "2874","farm": "3","userId": "64565252@N00","secret": "71540407f1","title": "First meeting of the Rotary Year , 3rd, July 2013 PM0A0487","loc": {"type": "Point","coordinates": [103.83234,1.310037]}} 
{"id": "9228339778","server": "7429","farm": "8","userId": "64565252@N00","secret": "5a25ee9345","title": "First meeting of the Rotary Year , 3rd, July 2013 PM0A0482","loc": {"type": "Point","coordinates": [103.83234,1.310037]}} 
{"id": "9225546955","server": "3672","farm": "4","userId": "64565252@N00","secret": "edc66d4f64","title": "PM0A0516","loc": {"type": "Point","coordinates": [103.83234,1.310037]}} 
{"id": "9225546001","server": "2833","farm": "3","userId": "64565252@N00","secret": "f6d2848a7b","title": "First meeting of the Rotary Year , 3rd, July 2013 PM0A0519","loc": {"type": "Point","coordinates": [103.83234,1.310037]}} 
{"id": "9225549245","server": "3698","farm": "4","userId": "64565252@N00","secret": "4f91f029da","title": "First meeting of the Rotary Year , 3rd, July 2013  PM0A0505","loc": {"type": "Point","coordinates": [103.83234,1.310037]}} 
{"id": "9228322530","server": "3818","farm": "4","userId": "64565252@N00","secret": "67914572a8","title": "First meeting of the Rotary Year , 3rd, July 2013  PM0A0539","loc": {"type": "Point","coordinates": [103.83234,1.310037]}} 
{"id": "9228328416","server": "2840","farm": "3","userId": "64565252@N00","secret": "67bbbb487c","title": "First meeting of the Rotary Year , 3rd, July 2013  PM0A0512","loc": {"type": "Point","coordinates": [103.83234,1.310037]}} 
{"id": "9228315482","server": "3800","farm": "4","userId": "64565252@N00","secret": "4c393b050b","title": "First meeting of the Rotary Year , 3rd, July 2013 PM0A0559","loc": {"type": "Point","coordinates": [103.83234,1.310037]}} 
{"id": "9228319046","server": "5510","farm": "6","userId": "64565252@N00","secret": "0aeb2f2b30","title": "First meeting of the Rotary Year , 3rd, July 2013","loc": {"type": "Point","coordinates": [103.83234,1.310037]}} 
{"id": "9228346278","server": "7321","farm": "8","userId": "64565252@N00","secret": "255eaf0aea","title": "First meeting of the Rotary Year , 3rd, July 2013 PM0A0465","loc": {"type": "Point","coordinates": [103.83234,1.310037]}} 
{"id": "9225562945","server": "3831","farm": "4","userId": "64565252@N00","secret": "e0cab2b64b","title": "First meeting of the Rotary Year , 3rd, July 2013 PM0A0471","loc": {"type": "Point","coordinates": [103.83234,1.310037]}} 
{"id": "9228325382","server": "7392","farm": "8","userId": "64565252@N00","secret": "83102d07d3","title": "PM0A0520","loc": {"type": "Point","coordinates": [103.83234,1.310037]}} 
{"id": "9225565115","server": "7357","farm": "8","userId": "64565252@N00","secret": "92d8e7be9e","title": "First meeting of the Rotary Year , 3rd, July 2013 PM0A0466","loc": {"type": "Point","coordinates": [103.83234,1.310037]}} 
{"id": "9228331752","server": "5509","farm": "6","userId": "64565252@N00","secret": "543bd6b303","title": "PM0A0501","loc": {"type": "Point","coordinates": [103.83234,1.310037]}} 
{"id": "9225535781","server": "2853","farm": "3","userId": "64565252@N00","secret": "a81940f5c1","title": "First meeting of the Rotary Year , 3rd, July 2013","loc": {"type": "Point","coordinates": [103.83234,1.310037]}} 
{"id": "9228337822","server": "3712","farm": "4","userId": "64565252@N00","secret": "7c18a88d6a","title": "First meeting of the Rotary Year , 3rd, July 2013 PM0A0488","loc": {"type": "Point","coordinates": [103.83234,1.310037]}} 
{"id": "9225560025","server": "3833","farm": "4","userId": "64565252@N00","secret": "37af5e598d","title": "First meeting of the Rotary Year , 3rd, July 2013 PM0A0478","loc": {"type": "Point","coordinates": [103.83234,1.310037]}} 
{"id": "9225541155","server": "3806","farm": "4","userId": "64565252@N00","secret": "2c743da43a","title": "First meeting of the Rotary Year , 3rd, July 2013","loc": {"type": "Point","coordinates": [103.83234,1.310037]}} 
{"id": "9225562041","server": "7370","farm": "8","userId": "64565252@N00","secret": "805aa84d68","title": "First meeting of the Rotary Year , 3rd, July 2013 PM0A0473","loc": {"type": "Point","coordinates": [103.83234,1.310037]}} 
{"id": "9225567705","server": "7409","farm": "8","userId": "64565252@N00","secret": "334f345ed7","title": "First meeting of the Rotary Year , 3rd, July 2013 PM0A0462","loc": {"type": "Point","coordinates": [103.83234,1.310037]}} 
{"id": "9228319736","server": "2877","farm": "3","userId": "64565252@N00","secret": "a812e663ca","title": "First meeting of the Rotary Year , 3rd, July 2013","loc": {"type": "Point","coordinates": [103.83234,1.310037]}} 
{"id": "9228319850","server": "7426","farm": "8","userId": "64565252@N00","secret": "82a346c196","title": "First meeting of the Rotary Year , 3rd, July 2013","loc": {"type": "Point","coordinates": [103.83234,1.310037]}} 
{"id": "9225563279","server": "2807","farm": "3","userId": "64565252@N00","secret": "305ed906f3","title": "First meeting of the Rotary Year , 3rd, July 2013 PM0A0469","loc": {"type": "Point","coordinates": [103.83234,1.310037]}} 
{"id": "9225543981","server": "3769","farm": "4","userId": "64565252@N00","secret": "09812a926f","title": "First meeting of the Rotary Year , 3rd, July 2013  PM0A0526","loc": {"type": "Point","coordinates": [103.83234,1.310037]}} 
{"id": "9223700863","server": "5485","farm": "6","userId": "92923304@N08","secret": "346b11a4da","title": "Cake @ Goodwood Park Hotel","loc": {"type": "Point","coordinates": [103.834564,1.307716]}} 
{"id": "9223686823","server": "7385","farm": "8","userId": "92923304@N08","secret": "cc662b2ef5","title": "Cake @ Goodwood Park Hotel","loc": {"type": "Point","coordinates": [103.834564,1.307716]}} 
{"id": "9226458528","server": "3820","farm": "4","userId": "92923304@N08","secret": "d741132ee7","title": "Cake @ Goodwood Park Hotel","loc": {"type": "Point","coordinates": [103.834564,1.307716]}} 
{"id": "9222213839","server": "7324","farm": "8","userId": "41894167963@N01","secret": "a99b0083ae","title": "High tea buffet","loc": {"type": "Point","coordinates": [103.83436,1.30828]}} 
{"id": "9200539226","server": "3833","farm": "4","userId": "92923304@N08","secret": "e8c1877a36","title": "Cake @ Goodwood Park Hotel","loc": {"type": "Point","coordinates": [103.834564,1.307716]}} 
{"id": "9090122294","server": "3811","farm": "4","userId": "7311038@N03","secret": "61808cd8a6","title": "Singapore Haze #1/4 - PSI 321","loc": {"type": "Point","coordinates": [103.83548,1.310627]}} 
{"id": "9090126014","server": "3793","farm": "4","userId": "7311038@N03","secret": "38869ac0b4","title": "Singapore Haze #4/4 - PSI 321","loc": {"type": "Point","coordinates": [103.83269,1.306616]}} 
{"id": "9090123506","server": "2846","farm": "3","userId": "7311038@N03","secret": "3ce2565b9f","title": "Singapore Haze #2/4 - PSI 321","loc": {"type": "Point","coordinates": [103.83548,1.310627]}} 
{"id": "9090124732","server": "5480","farm": "6","userId": "7311038@N03","secret": "2f77a36173","title": "Singapore Haze #3/4 - PSI 321","loc": {"type": "Point","coordinates": [103.83398,1.309597]}} 
{"id": "9048897932","server": "7381","farm": "8","userId": "75753030@N08","secret": "2a6a427ff6","title": "Buy what you need, not what you desires. More of the time the eyes are doing the choosing not the mind. #monoart #LV #LouisVuitton","loc": {"type": "Point","coordinates": [103.83278,1.307161]}} 
{"id": "8931062453","server": "2820","farm": "3","userId": "95982698@N06","secret": "1096c47019","title": "9 インポートする","loc": {"type": "Point","coordinates": [103.835335,1.309666]}} 
{"id": "8931069923","server": "3817","farm": "4","userId": "95982698@N06","secret": "8b53721842","title": "10 インポートする","loc": {"type": "Point","coordinates": [103.8335,1.308]}} 
{"id": "8930997203","server": "7428","farm": "8","userId": "95982698@N06","secret": "3e5d6ca2c3","title": "2 インポートする","loc": {"type": "Point","coordinates": [103.8345,1.3085]}} 
{"id": "8931016519","server": "3761","farm": "4","userId": "95982698@N06","secret": "010a0c08eb","title": "4 インポートする","loc": {"type": "Point","coordinates": [103.8345,1.3085]}} 
{"id": "8931643448","server": "7432","farm": "8","userId": "95982698@N06","secret": "4007ddbb5e","title": "6 インポートする","loc": {"type": "Point","coordinates": [103.83483,1.3085]}} 
{"id": "8931055221","server": "7391","farm": "8","userId": "95982698@N06","secret": "6013eb1dbf","title": "8 インポートする","loc": {"type": "Point","coordinates": [103.83517,1.309666]}} 
{"id": "8931006489","server": "7337","farm": "8","userId": "95982698@N06","secret": "0f672ac446","title": "3 インポートする","loc": {"type": "Point","coordinates": [103.8345,1.3085]}} 
{"id": "8931023621","server": "8263","farm": "9","userId": "95982698@N06","secret": "a1260716d1","title": "5 インポートする","loc": {"type": "Point","coordinates": [103.83466,1.3085]}} 
{"id": "8931551996","server": "7317","farm": "8","userId": "95982698@N06","secret": "2149949b0f","title": "10 インポートする","loc": {"type": "Point","coordinates": [103.834,1.308333]}} 
{"id": "8931544908","server": "3669","farm": "4","userId": "95982698@N06","secret": "dd23dc6ef9","title": "9 インポートする","loc": {"type": "Point","coordinates": [103.83383,1.308333]}} 
{"id": "8930894337","server": "7285","farm": "8","userId": "95982698@N06","secret": "e706abbc09","title": "3 インポートする","loc": {"type": "Point","coordinates": [103.8335,1.308]}} 
{"id": "8930906253","server": "8133","farm": "9","userId": "95982698@N06","secret": "f5e2b524e7","title": "5 インポートする","loc": {"type": "Point","coordinates": [103.83383,1.308166]}} 
{"id": "8931541866","server": "7329","farm": "8","userId": "95982698@N06","secret": "2e93018b50","title": "8 インポートする","loc": {"type": "Point","coordinates": [103.83383,1.308333]}} 
{"id": "8930913097","server": "8279","farm": "9","userId": "95982698@N06","secret": "778acc57cb","title": "6 インポートする","loc": {"type": "Point","coordinates": [103.83383,1.308166]}} 
{"id": "8931531344","server": "5344","farm": "6","userId": "95982698@N06","secret": "e836577449","title": "7 インポートする","loc": {"type": "Point","coordinates": [103.83383,1.308333]}} 
{"id": "8931485438","server": "8253","farm": "9","userId": "95982698@N06","secret": "f23beeb62a","title": "1 インポートする","loc": {"type": "Point","coordinates": [103.83234,1.306166]}} 
{"id": "8918755065","server": "3772","farm": "4","userId": "60413485@N06","secret": "41f49f125e","title": "Sheraton Towers Singapore—Topaz Room Chinoiserie Setting","loc": {"type": "Point","coordinates": [103.83676,1.311479]}} 
{"id": "8918766101","server": "3807","farm": "4","userId": "60413485@N06","secret": "2d0e3dd015","title": "Sheraton Towers Singapore—Marina Barrage","loc": {"type": "Point","coordinates": [103.83676,1.311479]}} 
{"id": "8919355270","server": "5444","farm": "6","userId": "60413485@N06","secret": "185864c471","title": "Sheraton Towers Singapore—Business Centre","loc": {"type": "Point","coordinates": [103.83676,1.311479]}} 
{"id": "8919346478","server": "7410","farm": "8","userId": "60413485@N06","secret": "ef1a5708cf","title": "Sheraton Towers Singapore—Pool Area","loc": {"type": "Point","coordinates": [103.83676,1.311479]}} 
{"id": "8910831404","server": "3749","farm": "4","userId": "95982698@N06","secret": "94108a0e72","title": "1 インポートする","loc": {"type": "Point","coordinates": [103.8345,1.308666]}} 
{"id": "9444524736","server": "2820","farm": "3","userId": "40138859@N02","secret": "f9518cc5ea","title": "I was nursing a manly pint of Guinness when this landed on my head. I screamed. Men in the pub laughed. I took this picture. It jumped on me again. So I screamed (yes again), paid and left.","loc": {"type": "Point","coordinates": [103.82903,1.307221]}} 
{"id": "9439292723","server": "7361","farm": "8","userId": "92593934@N04","secret": "201cc2dbdc","title": "Say cheese. *SNAP*","loc": {"type": "Point","coordinates": [103.83015,1.307685]}} 
{"id": "9429729306","server": "5546","farm": "6","userId": "60026216@N00","secret": "c70e941c39","title": "Shining #baby Indi. :)","loc": {"type": "Point","coordinates": [103.83175,1.309563]}} 
{"id": "9426752843","server": "7359","farm": "8","userId": "60026216@N00","secret": "6dc9cc5072","title": "Uni Raisa babysitting two babies. :)","loc": {"type": "Point","coordinates": [103.83175,1.309563]}} 
{"id": "9426565081","server": "5517","farm": "6","userId": "60026216@N00","secret": "2a4e7a5765","title": "#Baby Indi playing with other kids.","loc": {"type": "Point","coordinates": [103.83175,1.309563]}} 
{"id": "9426336245","server": "2850","farm": "3","userId": "60026216@N00","secret": "731bd7190d","title": "#Baby Indi with kakak Naira.","loc": {"type": "Point","coordinates": [103.83175,1.309563]}} 
{"id": "9429077372","server": "3726","farm": "4","userId": "60026216@N00","secret": "7be96d9661","title": "Iftar @ Yendra and Yesha 's.","loc": {"type": "Point","coordinates": [103.83175,1.309563]}} 
{"id": "9380004471","server": "5511","farm": "6","userId": "94512171@N00","secret": "ed34839f12","title": "Red bean pancake #foodporn #singapore #sg #igsg #foodphotography #asianfood #sgig #foodpornasia #instafood","loc": {"type": "Point","coordinates": [103.82814,1.308058]}} 
{"id": "9382651594","server": "3705","farm": "4","userId": "94512171@N00","secret": "3866983b32","title": "Custard Bun with Salted Egg. #foodporn #singapore #sg #igsg #foodphotography #asianfood #sgig #foodpornasia #instafood","loc": {"type": "Point","coordinates": [103.82814,1.308058]}} 
{"id": "9381655330","server": "3679","farm": "4","userId": "98532612@N02","secret": "9b0d7dfa60","title": "paint over the car","loc": {"type": "Point","coordinates": [103.82938,1.306213]}} 
{"id": "9375375985","server": "3743","farm": "4","userId": "98873354@N03","secret": "7088dfd756","title": "Merlion Park","loc": {"type": "Point","coordinates": [103.83269,1.306176]}} 
{"id": "9377820438","server": "3682","farm": "4","userId": "98873354@N03","secret": "163d5fe438","title": "Ion Orchard Shopping Mall","loc": {"type": "Point","coordinates": [103.83269,1.306176]}} 
{"id": "9371202764","server": "3747","farm": "4","userId": "35531616@N05","secret": "37dcd89c29","title": "[ Fri , Jul 26th 2013 ] #selfie #singapore","loc": {"type": "Point","coordinates": [103.832344,1.306766]}} 
{"id": "9370788390","server": "3670","farm": "4","userId": "62854216@N00","secret": "1b7c5ebb3f","title": "Thank you","loc": {"type": "Point","coordinates": [103.83693,1.310863]}} 
{"id": "9365056431","server": "7429","farm": "8","userId": "60413485@N06","secret": "01e0cfc555","title": "Sheraton Towers Singapore—Executive Suite Beijing - Bedroom","loc": {"type": "Point","coordinates": [103.83676,1.311479]}} 
{"id": "9365034187","server": "3721","farm": "4","userId": "60413485@N06","secret": "5c03770ff1","title": "Sheraton Towers Singapore—Executive Suite Rome - Bedroom","loc": {"type": "Point","coordinates": [103.83676,1.311479]}} 
{"id": "9365049099","server": "3679","farm": "4","userId": "60413485@N06","secret": "74520f3a15","title": "Sheraton Towers Singapore—Towers Cabana","loc": {"type": "Point","coordinates": [103.83676,1.311479]}} 
{"id": "9365042479","server": "2819","farm": "3","userId": "60413485@N06","secret": "6a6fc395af","title": "Sheraton Towers Singapore—Executive Suite Madrid - Bedroom","loc": {"type": "Point","coordinates": [103.83676,1.311479]}} 
{"id": "9365051617","server": "5464","farm": "6","userId": "60413485@N06","secret": "1d8defe99e","title": "Sheraton Towers Singapore—Executive Suite Budapest - Bedroom","loc": {"type": "Point","coordinates": [103.83676,1.311479]}} 
{"id": "9365030293","server": "7337","farm": "8","userId": "60413485@N06","secret": "6c2a7396b7","title": "Sheraton Towers Singapore—Executive Suite Cambridge - Bedroom","loc": {"type": "Point","coordinates": [103.83676,1.311479]}} 
{"id": "9365054205","server": "2806","farm": "3","userId": "60413485@N06","secret": "71edf89173","title": "Sheraton Towers Singapore—Executive Suite Beijing - Lounge","loc": {"type": "Point","coordinates": [103.83676,1.311479]}} 
{"id": "9367809484","server": "7323","farm": "8","userId": "60413485@N06","secret": "6a0ddabfc9","title": "Sheraton Towers Singapore—Executive Suite Budapest - Lounge","loc": {"type": "Point","coordinates": [103.83676,1.311479]}} 
{"id": "9365026089","server": "7413","farm": "8","userId": "60413485@N06","secret": "0768fcf1a8","title": "Sheraton Towers Singapore—Executive Suite Cambridge - Lounge","loc": {"type": "Point","coordinates": [103.83676,1.311479]}} 
{"id": "9365044639","server": "3754","farm": "4","userId": "60413485@N06","secret": "d3837a0c91","title": "Sheraton Towers Singapore—Executive Suite Vienna - Bedroom","loc": {"type": "Point","coordinates": [103.83676,1.311479]}} 
{"id": "9367817528","server": "5488","farm": "6","userId": "60413485@N06","secret": "1e9b29b109","title": "Sheraton Towers Singapore—Executive Suite Rome - Lounge","loc": {"type": "Point","coordinates": [103.83676,1.311479]}} 
{"id": "9365038351","server": "3730","farm": "4","userId": "60413485@N06","secret": "9d561c298e","title": "Sheraton Towers Singapore—Executive Suite Madrid - Lounge","loc": {"type": "Point","coordinates": [103.83676,1.311479]}} 
{"id": "9367827986","server": "3724","farm": "4","userId": "60413485@N06","secret": "c17f7d2bd3","title": "Sheraton Towers Singapore—Executive Suite Vienna - Lounge","loc": {"type": "Point","coordinates": [103.83676,1.311479]}} 
{"id": "9365032387","server": "7319","farm": "8","userId": "60413485@N06","secret": "e6a8ac15e6","title": "Sheraton Towers Singapore—Executive Suite Dublin - Bedroom","loc": {"type": "Point","coordinates": [103.83676,1.311479]}} 
{"id": "9367805242","server": "5497","farm": "6","userId": "60413485@N06","secret": "497d4c8dbe","title": "Sheraton Towers Singapore—Executive Suite Copenhagen - Lounge","loc": {"type": "Point","coordinates": [103.83676,1.311479]}} 
{"id": "9365040427","server": "2853","farm": "3","userId": "60413485@N06","secret": "203de5b0c0","title": "Sheraton Towers Singapore—Executive Suite Dublin - Lounge","loc": {"type": "Point","coordinates": [103.83676,1.311479]}} 
{"id": "9365058487","server": "7286","farm": "8","userId": "60413485@N06","secret": "f5e1a3eb8a","title": "Sheraton Towers Singapore—Executive Suite Amsterdam - Bedroom","loc": {"type": "Point","coordinates": [103.83676,1.311479]}} 
{"id": "9367791360","server": "5349","farm": "6","userId": "60413485@N06","secret": "5d963b0bba","title": "Sheraton Towers Singapore—Executive Suite London - Lounge","loc": {"type": "Point","coordinates": [103.83676,1.311479]}} 
{"id": "9367785850","server": "7340","farm": "8","userId": "60413485@N06","secret": "a59e548f39","title": "Sheraton Towers Singapore—Executive Suite Oxford - Bedroom","loc": {"type": "Point","coordinates": [103.83676,1.311479]}} 
{"id": "9367789436","server": "7315","farm": "8","userId": "60413485@N06","secret": "c0f627d855","title": "Sheraton Towers Singapore—Executive Suite Athens - Bedroom","loc": {"type": "Point","coordinates": [103.83676,1.311479]}} 
{"id": "9367778110","server": "3744","farm": "4","userId": "60413485@N06","secret": "a241845bb1","title": "Sheraton Towers Singapore—Lower Lobby Fountain","loc": {"type": "Point","coordinates": [103.83676,1.311479]}} 
{"id": "9364998619","server": "3796","farm": "4","userId": "60413485@N06","secret": "0dd1ca6248","title": "Sheraton Towers Singapore—Executive Suite Oxford - Lounge","loc": {"type": "Point","coordinates": [103.83676,1.311479]}} 
{"id": "9367795210","server": "5455","farm": "6","userId": "60413485@N06","secret": "a4bafdff24","title": "Sheraton Towers Singapore—Swimming Pool","loc": {"type": "Point","coordinates": [103.83676,1.311479]}} 
{"id": "9365018077","server": "5335","farm": "6","userId": "60413485@N06","secret": "4671b8dd6b","title": "Sheraton Towers Singapore—Li Bai Cantonese Restaurant","loc": {"type": "Point","coordinates": [103.83676,1.311479]}} 
{"id": "9367783906","server": "5442","farm": "6","userId": "60413485@N06","secret": "cdbb12898d","title": "Sheraton Towers Singapore—Towers Terrace Room","loc": {"type": "Point","coordinates": [103.83676,1.311479]}} 
{"id": "9367801374","server": "5527","farm": "6","userId": "60413485@N06","secret": "b2c71cc083","title": "Sheraton Towers Singapore—Li Bai Cantonese Restaurant","loc": {"type": "Point","coordinates": [103.83676,1.311479]}} 
{"id": "9367787630","server": "3749","farm": "4","userId": "60413485@N06","secret": "06b3c5da5c","title": "Sheraton Towers Singapore—Executive Suite Athens - Lounge","loc": {"type": "Point","coordinates": [103.83676,1.311479]}} 
{"id": "9365000657","server": "3805","farm": "4","userId": "60413485@N06","secret": "ac244798d2","title": "Sheraton Towers Singapore—Towers Pool Room","loc": {"type": "Point","coordinates": [103.83676,1.311479]}} 
{"id": "9365011995","server": "5494","farm": "6","userId": "60413485@N06","secret": "c8f65df91e","title": "Sheraton Towers Singapore—Executive Suite London - Bedroom","loc": {"type": "Point","coordinates": [103.83676,1.311479]}} 
{"id": "9365022291","server": "7293","farm": "8","userId": "60413485@N06","secret": "b5e5e1ac41","title": "Sheraton Towers Singapore—Executive Suite Copenhagen - Bedroom","loc": {"type": "Point","coordinates": [103.83676,1.311479]}} 
{"id": "9367738656","server": "5331","farm": "6","userId": "60413485@N06","secret": "c4b5e363ce","title": "Sheraton Towers Singapore—Deluxe Twin Room","loc": {"type": "Point","coordinates": [103.83676,1.311479]}} 
{"id": "9363275933","server": "3808","farm": "4","userId": "12558795@N00","secret": "4a47f87485","title": "Enjoyed these creative martinis last night. I had the Basil Sling. There were like 59 others on the menu!","loc": {"type": "Point","coordinates": [103.83282,1.306719]}} 
{"id": "9359300143","server": "2848","farm": "3","userId": "35531616@N05","secret": "dd0010ef83","title": "[ Thu , July 25 2013] #sahur . Me py face","loc": {"type": "Point","coordinates": [103.832344,1.306766]}} 
{"id": "9340937115","server": "3691","farm": "4","userId": "83713483@N00","secret": "b18405fdff","title": "Pavlova crepe at Antoinette, Palais Renaissance #french #food #singapore #sg #instasg #sgig #instagramsg #sginstagram #igsinga #igsg #webstagram #statigram #pinstagram #instagramers #igers #igersmanila  #instamood #instagood #images #ipad #ipad4","loc": {"type": "Point","coordinates": [103.82961,1.306564]}} 
{"id": "9340930655","server": "5346","farm": "6","userId": "83713483@N00","secret": "43652281ef","title": "Strawberry shortcake at Antoinette, Palais Renaissance #food #french #singapore #sg #instasg #sgig #instagramsg #sginstagram #igsinga #igsg #webstagram #statigram #pinstagram #instagramers #igers #igersmanila  #instamood #instagood #images #ipad #ipad4","loc": {"type": "Point","coordinates": [103.82961,1.306564]}} 
{"id": "9333566449","server": "3813","farm": "4","userId": "96179718@N06","secret": "74f8f101c5","title": "相机胶卷-208","loc": {"type": "Point","coordinates": [103.8285,1.3065]}} 
{"id": "9333567807","server": "5324","farm": "6","userId": "96179718@N06","secret": "4b2d2a2e4e","title": "相机胶卷-209","loc": {"type": "Point","coordinates": [103.82833,1.307]}} 
{"id": "9335530450","server": "7443","farm": "8","userId": "14501676@N07","secret": "e82950f249","title": "&MADE by Bruno Menard","loc": {"type": "Point","coordinates": [103.832085,1.306401]}} 
{"id": "9332627279","server": "3666","farm": "4","userId": "14501676@N07","secret": "d3151fd0ab","title": "Lollipop Waffle ~ with chocolate, caramel & vanilla sauce.. this is not right.. LOL!!... - MUST TRY!!!","loc": {"type": "Point","coordinates": [103.832085,1.306401]}} 
{"id": "9332571899","server": "7352","farm": "8","userId": "60026216@N00","secret": "f466da506e","title": "#Baby Indi and kakak Nadira. #LateUpload","loc": {"type": "Point","coordinates": [103.82685,1.306432]}} 
{"id": "9335356722","server": "5484","farm": "6","userId": "14501676@N07","secret": "f154423c52","title": "my share.. hehehe cant eat too much of this!!..♡","loc": {"type": "Point","coordinates": [103.832085,1.306401]}} 
{"id": "9335075028","server": "5447","farm": "6","userId": "14501676@N07","secret": "11001433e0","title": "caesar salad with tiger prawns - best one in town...♡♡♡","loc": {"type": "Point","coordinates": [103.832085,1.306401]}} 
{"id": "9332151477","server": "5454","farm": "6","userId": "14501676@N07","secret": "eb3f8d9bba","title": "B Burger with truffles fries - must try!","loc": {"type": "Point","coordinates": [103.832085,1.306401]}} 
{"id": "9332095403","server": "7397","farm": "8","userId": "14501676@N07","secret": "b4dfb30b31","title": "raspberry, rose n lychee shake - yummmmmm","loc": {"type": "Point","coordinates": [103.832085,1.306401]}} 
{"id": "9331766977","server": "2847","farm": "3","userId": "60026216@N00","secret": "f6f1af1f2c","title": "#Baby Indi with kakak Anya.","loc": {"type": "Point","coordinates": [103.82685,1.306432]}} 
{"id": "9333185694","server": "5327","farm": "6","userId": "14501676@N07","secret": "5565a4fea4","title": "Lychee Mojito at &MADE ~ one of the best mojito","loc": {"type": "Point","coordinates": [103.832085,1.306401]}} 
{"id": "9330246189","server": "3809","farm": "4","userId": "83713483@N00","secret": "a887a27c46","title": "beef bourguignon at Antoinette, Palais Rennaissance #french #food #singapore #sg #instasg #sgig #instagramsg #sginstagram #igsinga #igsg #webstagram #statigram #pinstagram #instagramers #igers #igersmanila #instamood #instagood #images  #Android #smartpho","loc": {"type": "Point","coordinates": [103.82961,1.306564]}} 
{"id": "9330191179","server": "3784","farm": "4","userId": "83713483@N00","secret": "b8b8b6c0a2","title": "Pan fried foie gras at Antoinette, Palais Rennaissance #french #food #singapore #sg #instasg #sgig #instagramsg #sginstagram #igsinga #igsg #webstagram #statigram #pinstagram #instagramers #igers #igersmanila #instamood #instagood #images  #Android #smart","loc": {"type": "Point","coordinates": [103.82961,1.306564]}} 
{"id": "9330214851","server": "2805","farm": "3","userId": "83713483@N00","secret": "32a83ec13a","title": "Stuffed chicken leg at Antoinette, Palais Rennaissance #french #food #singapore #sg #instasg #sgig #instagramsg #sginstagram #igsinga #igsg #webstagram #statigram #pinstagram #instagramers #igers #igersmanila #instamood #instagood #images  #Android #smart","loc": {"type": "Point","coordinates": [103.82961,1.306564]}} 
{"id": "9330177633","server": "7365","farm": "8","userId": "83713483@N00","secret": "47579400cc","title": "Antoinette at Palais Rennaissance #french #food #singapore #sg #instasg #sgig #instagramsg #sginstagram #igsinga #igsg #webstagram #statigram #pinstagram #instagramers #igers #igersmanila #instamood #instagood #images  #Android #smartphoneography #instaro","loc": {"type": "Point","coordinates": [103.82961,1.306564]}} 
{"id": "9325893077","server": "2836","farm": "3","userId": "62854216@N00","secret": "e82056519a","title": "S$5K psf! that is how 'cheap' that toy car showcase apartment opposite the office cost!","loc": {"type": "Point","coordinates": [103.83614,1.310987]}} 
{"id": "9318980789","server": "5337","farm": "6","userId": "45099369@N08","secret": "c99582993b","title": "I must do this everytime I'm back....","loc": {"type": "Point","coordinates": [103.82994,1.30663]}} 
{"id": "9318793355","server": "5444","farm": "6","userId": "62854216@N00","secret": "db23ed10ae","title": "Grinning in Green :) #xmasia","loc": {"type": "Point","coordinates": [103.83693,1.310863]}} 
{"id": "9316605597","server": "7428","farm": "8","userId": "92982109@N00","secret": "0a92abc324","title": "Uncle Uber delivering us the ice cream #UberIceCream @uber_sing","loc": {"type": "Point","coordinates": [103.837,1.310874]}} 
{"id": "9319397122","server": "7402","farm": "8","userId": "92982109@N00","secret": "c3706f5cc5","title": "Vanilla Popsicle with #UberIceCream @uber_sing","loc": {"type": "Point","coordinates": [103.837,1.310874]}} 
{"id": "9315019932","server": "5485","farm": "6","userId": "67851013@N02","secret": "cf549d801b","title": "#Evening #brew 18/07/13. #Dark #Mocha #White #Chocolate #Pudding","loc": {"type": "Point","coordinates": [103.82854,1.306684]}} 
{"id": "9314981814","server": "5456","farm": "6","userId": "67851013@N02","secret": "77c74c014f","title": "#Sweet things are made of these 18/07/13. #Peanut #Chocolate #Cake","loc": {"type": "Point","coordinates": [103.82854,1.306684]}} 
{"id": "9314851774","server": "7367","farm": "8","userId": "67851013@N02","secret": "8802b73c4b","title": "#Sweet things are made of these 18/07/13. #Yuzu #Cake","loc": {"type": "Point","coordinates": [103.82854,1.306684]}} 
{"id": "9314810384","server": "5457","farm": "6","userId": "67851013@N02","secret": "718172735a","title": "#Food heals the #world 18/06/13. #Ramen #Flavored #Egg","loc": {"type": "Point","coordinates": [103.82726,1.30676]}} 
{"id": "9314820156","server": "2894","farm": "3","userId": "67851013@N02","secret": "213e420bc7","title": "#Food heals the #world 18/06/13. #Goza","loc": {"type": "Point","coordinates": [103.82726,1.30676]}} 
{"id": "9306918084","server": "3802","farm": "4","userId": "99696178@N00","secret": "92e036bcb2","title": "我是警察","loc": {"type": "Point","coordinates": [103.83016,1.307617]}} 
{"id": "9304102473","server": "3784","farm": "4","userId": "99696178@N00","secret": "f312424b52","title": "#无间道","loc": {"type": "Point","coordinates": [103.83016,1.307617]}} 
{"id": "9306845734","server": "7332","farm": "8","userId": "99696178@N00","secret": "c80d3feb4d","title": "我是警察 #spiderman","loc": {"type": "Point","coordinates": [103.83016,1.307617]}} 
{"id": "9306778090","server": "3737","farm": "4","userId": "99696178@N00","secret": "04ba60f5c9","title": "#无间道","loc": {"type": "Point","coordinates": [103.83016,1.307617]}} 
{"id": "9288709946","server": "2819","farm": "3","userId": "25530545@N04","secret": "0579951845","title": "2013-06-29 at 18-04-44","loc": {"type": "Point","coordinates": [103.82733,1.307167]}} 
{"id": "9288709000","server": "7363","farm": "8","userId": "25530545@N04","secret": "5e30d6f535","title": "2013-06-29 at 18-04-40","loc": {"type": "Point","coordinates": [103.8275,1.307333]}} 
{"id": "9285930541","server": "3677","farm": "4","userId": "25530545@N04","secret": "e215ccd0f7","title": "2013-06-29 at 18-03-49","loc": {"type": "Point","coordinates": [103.8275,1.306667]}} 
{"id": "9288708164","server": "7322","farm": "8","userId": "25530545@N04","secret": "79c7ae31db","title": "2013-06-29 at 18-03-59","loc": {"type": "Point","coordinates": [103.827835,1.307333]}} 
{"id": "9285866531","server": "3790","farm": "4","userId": "25530545@N04","secret": "3261764d99","title": "2013-06-29 at 11-29-34","loc": {"type": "Point","coordinates": [103.833,1.306167]}} 
{"id": "9282768450","server": "7452","farm": "8","userId": "9454157@N08","secret": "ed33ebbfc3","title": "Teh Tarik followed by champagne","loc": {"type": "Point","coordinates": [103.82676,1.31109]}} 
{"id": "9282244140","server": "5340","farm": "6","userId": "9454157@N08","secret": "77f62c56aa","title": "#oysters #prawns #lobster with free flow #champagne #nomnomnom","loc": {"type": "Point","coordinates": [103.82676,1.31109]}} 
{"id": "9279026722","server": "7441","farm": "8","userId": "11434986@N04","secret": "81ff139bd4","title": "You think i can sing??? 'Just give me a reason' -Taylor Swift","loc": {"type": "Point","coordinates": [103.827705,1.307038]}} 
{"id": "9276080155","server": "3824","farm": "4","userId": "11434986@N04","secret": "3f728f1c2a","title": "My chinese day? Lol #karaoke !!!","loc": {"type": "Point","coordinates": [103.827705,1.307038]}} 
{"id": "9266205035","server": "7381","farm": "8","userId": "10124523@N07","secret": "374b1cec16","title": "Lesdudis! @patriciacey","loc": {"type": "Point","coordinates": [103.83668,1.311657]}} 
{"id": "9239459160","server": "7412","farm": "8","userId": "19282426@N00","secret": "c538e1245a","title": "Durian puffs","loc": {"type": "Point","coordinates": [103.83436,1.308279]}} 
{"id": "9230594469","server": "2817","farm": "3","userId": "92434067@N00","secret": "9f1378b519","title": "Do mind your step.","loc": {"type": "Point","coordinates": [103.832,1.307]}} 
{"id": "9233375658","server": "2844","farm": "3","userId": "92434067@N00","secret": "cdb6600cb9","title": "Pusing pusing sepsyen","loc": {"type": "Point","coordinates": [103.83258,1.306879]}} 
{"id": "9230594771","server": "2844","farm": "3","userId": "92434067@N00","secret": "9366f9695f","title": "'wuddup G?'","loc": {"type": "Point","coordinates": [103.833336,1.307333]}} 
{"id": "9227956243","server": "7332","farm": "8","userId": "69921557@N00","secret": "f959155366","title": "Dancing sea bream","loc": {"type": "Point","coordinates": [103.82729,1.306793]}} 
{"id": "9227234925","server": "2858","farm": "3","userId": "62854216@N00","secret": "c62a1e4f1f","title": "It's a masterpiece  #foiegras  #dryagedbeef","loc": {"type": "Point","coordinates": [103.832085,1.306401]}} 
{"id": "9229972432","server": "3743","farm": "4","userId": "62854216@N00","secret": "195fca1f5b","title": "Lethal combo. Excellent! Thanks @joelyeo for the bringing me here, and @looopsie for your reco! :)","loc": {"type": "Point","coordinates": [103.832085,1.306401]}} 
{"id": "9230004364","server": "7378","farm": "8","userId": "62854216@N00","secret": "0aeec3758d","title": "Oh mine... #foiegras #dryagedbeef #trufflefries","loc": {"type": "Point","coordinates": [103.832085,1.306401]}} 
{"id": "9225541835","server": "2833","farm": "3","userId": "64565252@N00","secret": "64cd7f098c","title": "First meeting of the Rotary Year , 3rd, July 2013  PM0A0544","loc": {"type": "Point","coordinates": [103.83234,1.310037]}} 
{"id": "9222450604","server": "3775","farm": "4","userId": "98356781@N00","secret": "35fbb83712","title": "Brands, Singapore.","loc": {"type": "Point","coordinates": [103.82873,1.306404]}} 
{"id": "9206271460","server": "3672","farm": "4","userId": "24989432@N06","secret": "948b2ea763","title": "The new #ManOfSteel dropped by my cubicle just now....","loc": {"type": "Point","coordinates": [103.8284,1.306222]}} 
{"id": "9199079128","server": "3748","farm": "4","userId": "92982109@N00","secret": "02b845ff2b","title": "Yakitori bento set #foodspotting - quite value for money during lunch.","loc": {"type": "Point","coordinates": [103.8331,1.306974]}} 
{"id": "9174523170","server": "5545","farm": "6","userId": "45335371@N00","secret": "5289d699f0","title": "Just part of my refeed today. Too busy eating to take pics with only 2 hours. Thanks @ssadako!  #refeed #buffet #TriCamera","loc": {"type": "Point","coordinates": [103.832375,1.306787]}} 
{"id": "9164780005","server": "3675","farm": "4","userId": "30057340@N02","secret": "12dabb76fc","title": "Tea Tarik to end the dinner! Quite sweeeeeeeeeeet! :)","loc": {"type": "Point","coordinates": [103.8329,1.306583]}} 
{"id": "9166879246","server": "2876","farm": "3","userId": "30057340@N02","secret": "b4d88b8f5c","title": "Dinner at Straits Kitchen with family! Yumz! :)","loc": {"type": "Point","coordinates": [103.8329,1.306583]}} 
{"id": "9149534879","server": "5540","farm": "6","userId": "51854834@N00","secret": "397270cb28","title": "#throwbackthursday Had this Magnum Gold back in Singapore last month haha. @hazidiee say #alumsusah makan amas. #makanamas","loc": {"type": "Point","coordinates": [103.83016,1.307617]}} 
{"id": "9147798553","server": "5495","farm": "6","userId": "24989432@N06","secret": "4ce8464692","title": "Dude @spkbxxx !!! Seriously bro?!?","loc": {"type": "Point","coordinates": [103.8284,1.306222]}} 
{"id": "9133413304","server": "2852","farm": "3","userId": "24989432@N06","secret": "e4361bc21d","title": "Luncheon with @sohjan","loc": {"type": "Point","coordinates": [103.82808,1.306183]}} 
{"id": "9132745184","server": "2820","farm": "3","userId": "24989432@N06","secret": "e85c491b39","title": "Finally arrived.... And packaged in my fav color","loc": {"type": "Point","coordinates": [103.8284,1.306222]}} 
{"id": "9099583173","server": "5541","farm": "6","userId": "35531616@N05","secret": "0bb5a1464f","title": "[ Fri , June 21st 2013] Place I call home for 3 days #royalplazaonscotts #singapore","loc": {"type": "Point","coordinates": [103.832344,1.306766]}} 
{"id": "9099526515","server": "7307","farm": "8","userId": "35531616@N05","secret": "c8403d311e","title": "[ Fri , June 21st 2013] Place I call home for 3 days #royalplazaonscotts #singapore","loc": {"type": "Point","coordinates": [103.832344,1.306766]}} 
{"id": "9089142375","server": "2821","farm": "3","userId": "24989432@N06","secret": "19df2f38b2","title": "Trying to eat healthy","loc": {"type": "Point","coordinates": [103.82808,1.306183]}} 
{"id": "9073189978","server": "3678","farm": "4","userId": "24989432@N06","secret": "10b9913741","title": "Taking my OCD-ness to different heights","loc": {"type": "Point","coordinates": [103.8284,1.306222]}} 
{"id": "9065099442","server": "2818","farm": "3","userId": "92593934@N04","secret": "90fbb5833a","title": "Crab claw dim sum? Sure!","loc": {"type": "Point","coordinates": [103.83639,1.311875]}} 
{"id": "9031853188","server": "7422","farm": "8","userId": "24989432@N06","secret": "ab95ac49e0","title": "A rare craving","loc": {"type": "Point","coordinates": [103.8284,1.306222]}} 
{"id": "9026338633","server": "8268","farm": "9","userId": "43321456@N00","secret": "b6ecc023c8","title": "","loc": {"type": "Point","coordinates": [103.8325,1.306666]}} 
{"id": "9021458756","server": "5343","farm": "6","userId": "26284978@N02","secret": "2cac6409e5","title": "LX Do 050","loc": {"type": "Point","coordinates": [103.83583,1.311166]}} 
{"id": "9021459824","server": "5330","farm": "6","userId": "26284978@N02","secret": "d598e57a09","title": "LX Do 048","loc": {"type": "Point","coordinates": [103.834,1.3085]}} 
{"id": "9021468398","server": "7349","farm": "8","userId": "26284978@N02","secret": "a113d5c88f","title": "LX Do 046","loc": {"type": "Point","coordinates": [103.83317,1.306333]}} 
{"id": "9019240161","server": "5453","farm": "6","userId": "26284978@N02","secret": "6ca4515385","title": "LX Do 047","loc": {"type": "Point","coordinates": [103.83317,1.306333]}} 
{"id": "9012212031","server": "7291","farm": "8","userId": "46697685@N00","secret": "bddf1f9d4d","title": "Pano Ardmore","loc": {"type": "Point","coordinates": [103.827835,1.310833]}} 
{"id": "9002628998","server": "7339","farm": "8","userId": "24989432@N06","secret": "2216be72b4","title": "I've built my temporary nest with familiar stuff ☺ it's that time of the year #NothingElseComesClose","loc": {"type": "Point","coordinates": [103.8284,1.306222]}} 
{"id": "8993643925","server": "3824","farm": "4","userId": "25718534@N05","secret": "220029bd72","title": "wp81_130604_002","loc": {"type": "Point","coordinates": [103.836174,1.306922]}} 
{"id": "8994799774","server": "5336","farm": "6","userId": "25718534@N05","secret": "8d7c92c242","title": "wp82_130602_007","loc": {"type": "Point","coordinates": [103.83569,1.3075]}} 
{"id": "8974692969","server": "7443","farm": "8","userId": "92982109@N00","secret": "1790e15e81","title": "Sun. Things I do when there's a fraking fire drill at 2pm.","loc": {"type": "Point","coordinates": [103.837,1.310874]}} 
{"id": "8973917104","server": "5343","farm": "6","userId": "96233672@N05","secret": "b16e313210","title": "2013 Ian Birthday","loc": {"type": "Point","coordinates": [103.83382,1.308177]}} 
{"id": "8966936618","server": "3789","farm": "4","userId": "17366099@N00","secret": "5d9eea63f5","title": "King Soup is GOOD! The Tom Yam flavor is flavorful and it has MUSHROOMS inside!! Don't put in too much water though. But it makes a quick lunch, and is filling with a good rice dish (maybe paired with economical rice?).  #food #foodgram #foodporn #soup #i","loc": {"type": "Point","coordinates": [103.83285,1.308114]}} 
{"id": "8948596954","server": "8536","farm": "9","userId": "81871661@N00","secret": "d0404c6e9e","title": "#sogamo  filling up! come join me!","loc": {"type": "Point","coordinates": [103.82802,1.307318]}} 
{"id": "8930602541","server": "7389","farm": "8","userId": "19282426@N00","secret": "0e5b990e9a","title": "","loc": {"type": "Point","coordinates": [103.82733,1.310166]}} 
{"id": "8924008383","server": "7398","farm": "8","userId": "83592540@N07","secret": "964c83a59c","title": "Mixed Photo in Singapore","loc": {"type": "Point","coordinates": [103.833336,1.3075]}} 
{"id": "8922178993","server": "7311","farm": "8","userId": "48889054224@N01","secret": "366cdb976e","title": "Sunday BBQ","loc": {"type": "Point","coordinates": [103.82732,1.306976]}} 
{"id": "8919370846","server": "2829","farm": "3","userId": "60413485@N06","secret": "4a6048b91c","title": "Sheraton Towers Singapore—Outdoor Wedding Waterfall","loc": {"type": "Point","coordinates": [103.83676,1.311479]}} 
{"id": "8918764765","server": "2874","farm": "3","userId": "60413485@N06","secret": "3be71c26b7","title": "Sheraton Towers Singapore—Singapore flyer","loc": {"type": "Point","coordinates": [103.83676,1.311479]}} 
{"id": "8918751175","server": "5339","farm": "6","userId": "60413485@N06","secret": "3832e14e1d","title": "Sheraton Towers Singapore—Lobby Bar","loc": {"type": "Point","coordinates": [103.83676,1.311479]}} 
{"id": "8918749479","server": "7296","farm": "8","userId": "60413485@N06","secret": "263ea2ffda","title": "Sheraton Towers Singapore—Pool Bar Evening","loc": {"type": "Point","coordinates": [103.83676,1.311479]}} 
{"id": "8919391158","server": "5326","farm": "6","userId": "60413485@N06","secret": "b64b6e1e7b","title": "Sheraton Towers Singapore—Wheelchair Accessible Room","loc": {"type": "Point","coordinates": [103.83676,1.311479]}} 
{"id": "8919395800","server": "7357","farm": "8","userId": "60413485@N06","secret": "f66a781918","title": "Sheraton Towers Singapore—Grand Ballroom - Theater Setting","loc": {"type": "Point","coordinates": [103.83676,1.311479]}} 
{"id": "8918782147","server": "3788","farm": "4","userId": "60413485@N06","secret": "5c0974124f","title": "Sheraton Towers Singapore—Gardens by the Bay","loc": {"type": "Point","coordinates": [103.83676,1.311479]}} 
{"id": "8918761373","server": "8128","farm": "9","userId": "60413485@N06","secret": "c266a0a682","title": "Sheraton Towers Singapore—Turquoise Room Hollow Square Setting","loc": {"type": "Point","coordinates": [103.83676,1.311479]}} 
{"id": "8919374866","server": "5322","farm": "6","userId": "60413485@N06","secret": "d3b3f22d7c","title": "Sheraton Towers Singapore—Topaz Room Classroom Setting","loc": {"type": "Point","coordinates": [103.83676,1.311479]}} 
{"id": "8918753957","server": "7419","farm": "8","userId": "60413485@N06","secret": "73064cf0da","title": "Sheraton Towers Singapore—Grand Ballroom Wedding Banquet","loc": {"type": "Point","coordinates": [103.83676,1.311479]}} 
{"id": "8918752061","server": "7422","farm": "8","userId": "60413485@N06","secret": "8527928cd1","title": "Sheraton Towers Singapore—Li Bai Cantonese Restaurant","loc": {"type": "Point","coordinates": [103.83676,1.311479]}} 
{"id": "8919388762","server": "5462","farm": "6","userId": "60413485@N06","secret": "2db92ab370","title": "Sheraton Towers Singapore—Deluxe Suite Barcelona - Bedroom","loc": {"type": "Point","coordinates": [103.83676,1.311479]}} 
{"id": "8919385436","server": "7329","farm": "8","userId": "60413485@N06","secret": "863b1e1bef","title": "Sheraton Towers Singapore—Deluxe Twin Room","loc": {"type": "Point","coordinates": [103.83676,1.311479]}} 
{"id": "8918758547","server": "5468","farm": "6","userId": "60413485@N06","secret": "9b9e68c0b3","title": "Sheraton Towers Singapore—Turquoise Room Cluster Setting","loc": {"type": "Point","coordinates": [103.83676,1.311479]}} 
{"id": "8919391878","server": "7347","farm": "8","userId": "60413485@N06","secret": "487091e450","title": "Sheraton Towers Singapore—Deluxe Suite Barcelona - Lounge","loc": {"type": "Point","coordinates": [103.83676,1.311479]}} 
{"id": "8919383656","server": "8539","farm": "9","userId": "60413485@N06","secret": "3306dde5a8","title": "Sheraton Towers Singapore—Royal Suite Monaco - Lounge","loc": {"type": "Point","coordinates": [103.83676,1.311479]}} 
{"id": "8919387466","server": "7416","farm": "8","userId": "60413485@N06","secret": "12abaaeac3","title": "Sheraton Towers Singapore—Royal Suite Monaco - Bedroom","loc": {"type": "Point","coordinates": [103.83676,1.311479]}} 
{"id": "8919372160","server": "3699","farm": "4","userId": "60413485@N06","secret": "97de6ec732","title": "Sheraton Towers Singapore—Outdoor Wedding Pool","loc": {"type": "Point","coordinates": [103.83676,1.311479]}} 
{"id": "8918779715","server": "3705","farm": "4","userId": "60413485@N06","secret": "452e0f895c","title": "Sheraton Towers Singapore—Grand Ballroom - Cocktail Setup","loc": {"type": "Point","coordinates": [103.83676,1.311479]}} 
{"id": "8918762511","server": "2855","farm": "3","userId": "60413485@N06","secret": "1efb35ea36","title": "Sheraton Towers Singapore—The Boardroom","loc": {"type": "Point","coordinates": [103.83676,1.311479]}} 
{"id": "8918763533","server": "3692","farm": "4","userId": "60413485@N06","secret": "acd904eeda","title": "Sheraton Towers Singapore—Singapore underwater world","loc": {"type": "Point","coordinates": [103.83676,1.311479]}} 
{"id": "8918767035","server": "2864","farm": "3","userId": "60413485@N06","secret": "b05a339195","title": "Sheraton Towers Singapore—ION Orchard","loc": {"type": "Point","coordinates": [103.83676,1.311479]}} 
{"id": "8918769509","server": "3676","farm": "4","userId": "60413485@N06","secret": "9e44f6c8bb","title": "Sheraton Towers Singapore—Deluxe King Room","loc": {"type": "Point","coordinates": [103.83676,1.311479]}} 
{"id": "8918778003","server": "7411","farm": "8","userId": "60413485@N06","secret": "3f9e175ecc","title": "Sheraton Towers Singapore—Royal Suite Monaco - Bathroom","loc": {"type": "Point","coordinates": [103.83676,1.311479]}} 
{"id": "8918744393","server": "3793","farm": "4","userId": "60413485@N06","secret": "95f10eb768","title": "Sheraton Towers Singapore—Towers Executive Lounge - Library","loc": {"type": "Point","coordinates": [103.83676,1.311479]}} 
{"id": "8918730777","server": "3774","farm": "4","userId": "60413485@N06","secret": "c6a0f4c4f0","title": "Sheraton Towers Singapore—Towers Executive Lounge - Main Lounge","loc": {"type": "Point","coordinates": [103.83676,1.311479]}} 
{"id": "8918741551","server": "7388","farm": "8","userId": "60413485@N06","secret": "97d45cf270","title": "Sheraton Towers Singapore—Grand Staircase","loc": {"type": "Point","coordinates": [103.83676,1.311479]}} 
{"id": "8919352838","server": "5445","farm": "6","userId": "60413485@N06","secret": "69de0121a6","title": "Sheraton Towers Singapore—Grand Ballroom - Hollow Square Setting","loc": {"type": "Point","coordinates": [103.83676,1.311479]}} 
{"id": "8919358028","server": "5322","farm": "6","userId": "60413485@N06","secret": "d8c3997bf3","title": "Sheraton Towers Singapore—Towers Executive Lounge - Reception","loc": {"type": "Point","coordinates": [103.83676,1.311479]}} 
{"id": "8919360118","server": "7428","farm": "8","userId": "60413485@N06","secret": "e247bf5bf2","title": "Sheraton Towers Singapore—Executive Suite - Istanbul - Lounge","loc": {"type": "Point","coordinates": [103.83676,1.311479]}} 
{"id": "8919347754","server": "2838","farm": "3","userId": "60413485@N06","secret": "699edb1a15","title": "Sheraton Towers Singapore—DOMVS, the Italian Restaurant","loc": {"type": "Point","coordinates": [103.83676,1.311479]}} 
{"id": "8918735623","server": "5444","farm": "6","userId": "60413485@N06","secret": "9d4647a234","title": "Sheraton Towers Singapore—The Spa","loc": {"type": "Point","coordinates": [103.83676,1.311479]}} 
{"id": "8919344026","server": "3817","farm": "4","userId": "60413485@N06","secret": "db90ae58ed","title": "Sheraton Towers Singapore—Atrium","loc": {"type": "Point","coordinates": [103.83676,1.311479]}} 
{"id": "8919357110","server": "3819","farm": "4","userId": "60413485@N06","secret": "0bd00160f0","title": "Sheraton Towers Singapore—Towers Executive Lounge - Internet Workstation","loc": {"type": "Point","coordinates": [103.83676,1.311479]}} 
{"id": "8919348954","server": "3686","farm": "4","userId": "60413485@N06","secret": "81fa1b6e79","title": "Sheraton Towers Singapore—Towers Executive Lounge","loc": {"type": "Point","coordinates": [103.83676,1.311479]}} 
{"id": "8918739591","server": "2827","farm": "3","userId": "60413485@N06","secret": "8bb78d0011","title": "Sheraton Towers Singapore—Diamond Room - Longevity","loc": {"type": "Point","coordinates": [103.83676,1.311479]}} 
{"id": "8919342490","server": "3747","farm": "4","userId": "60413485@N06","secret": "b23629cb01","title": "Sheraton Towers Singapore—Facade","loc": {"type": "Point","coordinates": [103.83676,1.311479]}} 
{"id": "8918730125","server": "5451","farm": "6","userId": "60413485@N06","secret": "5e944e6f6d","title": "Sheraton Towers Singapore—Deluxe King Room","loc": {"type": "Point","coordinates": [103.83676,1.311479]}} 
{"id": "8918515229","server": "7382","farm": "8","userId": "19282426@N00","secret": "05f222dc7b","title": "The Vegetarian dish looked really good","loc": {"type": "Point","coordinates": [103.83016,1.307617]}} 
{"id": "8912499926","server": "5445","farm": "6","userId": "19282426@N00","secret": "672c5aedb5","title": "Wedding dinner guest","loc": {"type": "Point","coordinates": [103.83016,1.307617]}} 
{"id": "8901727908","server": "3801","farm": "4","userId": "78686549@N00","secret": "4382941887","title": "Pajelis Ong Lai. (Pineapple Curry) It has a sour, salty, sweet, spicy. Rather unique.","loc": {"type": "Point","coordinates": [103.835655,1.310864]}} 
{"id": "8901301198","server": "5458","farm": "6","userId": "78686549@N00","secret": "456072596c","title": "Rendang Sapi (beef rendang) very tender, it's nice but a tad too much buah pelaga.","loc": {"type": "Point","coordinates": [103.835655,1.310864]}} 
{"id": "8901201074","server": "2857","farm": "3","userId": "78686549@N00","secret": "5df0b75e42","title": "Buah Keluak Fried Rice. It's quite good! With the sambal belachan.","loc": {"type": "Point","coordinates": [103.835655,1.310864]}} 
{"id": "8893409290","server": "2874","farm": "3","userId": "92923304@N08","secret": "7f97432472","title": "Abalone Braised in Brown Sauce @ Thai Village Restaurant @ Goodwood Park Hotel","loc": {"type": "Point","coordinates": [103.83467,1.308449]}} 
{"id": "8893398330","server": "8396","farm": "9","userId": "92923304@N08","secret": "722c8c6766","title": "Abalone Braised in Brown Sauce @ Thai Village Restaurant @ Goodwood Park Hotel","loc": {"type": "Point","coordinates": [103.83467,1.308449]}} 
{"id": "8893369650","server": "2856","farm": "3","userId": "92923304@N08","secret": "1c4487b41d","title": "Braised Shark's Fin Soup In Claypot @ Thai Village Restaurant @ Goodwood Park Hotel","loc": {"type": "Point","coordinates": [103.83467,1.308449]}} 
{"id": "8885824152","server": "3827","farm": "4","userId": "39825004@N00","secret": "b41c9b5b02","title": "Breakfast #pscafe #iphone5 #singapore","loc": {"type": "Point","coordinates": [103.82994,1.30663]}} 
{"id": "8784861081","server": "7305","farm": "8","userId": "95982698@N06","secret": "8ea8d19e99","title": "IMAGE_117.jpeg","loc": {"type": "Point","coordinates": [103.83234,1.306166]}} 
{"id": "8784753403","server": "8118","farm": "9","userId": "95982698@N06","secret": "e8a777d8f6","title": "IMAGE_104.jpeg","loc": {"type": "Point","coordinates": [103.8345,1.3085]}} 
{"id": "8795401120","server": "8280","farm": "9","userId": "95982698@N06","secret": "642035b008","title": "IMAGE_114.jpeg","loc": {"type": "Point","coordinates": [103.8335,1.308]}} 
{"id": "8784805135","server": "8551","farm": "9","userId": "95982698@N06","secret": "5181724805","title": "IMAGE_110.jpeg","loc": {"type": "Point","coordinates": [103.83383,1.308333]}} 
{"id": "8784782131","server": "8274","farm": "9","userId": "95982698@N06","secret": "c8d5fb6bae","title": "IMAGE_108.jpeg","loc": {"type": "Point","coordinates": [103.83383,1.308333]}} 
{"id": "8795354512","server": "7343","farm": "8","userId": "95982698@N06","secret": "29636c1cbf","title": "IMAGE_107.jpeg","loc": {"type": "Point","coordinates": [103.834,1.308333]}} 
{"id": "8795388774","server": "3834","farm": "4","userId": "95982698@N06","secret": "1e25a2f561","title": "IMAGE_113.jpeg","loc": {"type": "Point","coordinates": [103.8335,1.308]}} 
{"id": "8795385292","server": "5339","farm": "6","userId": "95982698@N06","secret": "843b45c2a0","title": "IMAGE_111.jpeg","loc": {"type": "Point","coordinates": [103.83383,1.308166]}} 
{"id": "8795373398","server": "7297","farm": "8","userId": "95982698@N06","secret": "b5555922ee","title": "IMAGE_109.jpeg","loc": {"type": "Point","coordinates": [103.83383,1.308333]}} 
{"id": "8795352102","server": "7365","farm": "8","userId": "95982698@N06","secret": "8c2d9e9749","title": "IMAGE_106.jpeg","loc": {"type": "Point","coordinates": [103.8345,1.308666]}} 
{"id": "8784808863","server": "7298","farm": "8","userId": "95982698@N06","secret": "86d6356184","title": "IMAGE_112.jpeg","loc": {"type": "Point","coordinates": [103.83383,1.308166]}} 
{"id": "8795273782","server": "5455","farm": "6","userId": "95982698@N06","secret": "fd990da26d","title": "IMAGE_99.jpeg","loc": {"type": "Point","coordinates": [103.83517,1.309666]}} 
{"id": "8784679753","server": "8405","farm": "9","userId": "95982698@N06","secret": "6b0ca174fe","title": "IMAGE_98.jpeg","loc": {"type": "Point","coordinates": [103.835335,1.309666]}} 
{"id": "8784730669","server": "5335","farm": "6","userId": "95982698@N06","secret": "0776483af5","title": "IMAGE_102.jpeg","loc": {"type": "Point","coordinates": [103.83466,1.3085]}} 
{"id": "8795286704","server": "3772","farm": "4","userId": "95982698@N06","secret": "ddf822fac5","title": "IMAGE_100.jpeg","loc": {"type": "Point","coordinates": [103.83483,1.3085]}} 
{"id": "8784742491","server": "5343","farm": "6","userId": "95982698@N06","secret": "029b81ee09","title": "IMAGE_103.jpeg","loc": {"type": "Point","coordinates": [103.8345,1.3085]}} 
{"id": "8784721869","server": "7304","farm": "8","userId": "95982698@N06","secret": "80f9541754","title": "IMAGE_101.jpeg","loc": {"type": "Point","coordinates": [103.83483,1.3085]}} 
{"id": "8795247918","server": "5332","farm": "6","userId": "95982698@N06","secret": "33d17d903b","title": "IMAGE_97.jpeg","loc": {"type": "Point","coordinates": [103.8335,1.308]}} 
{"id": "8730832823","server": "7356","farm": "8","userId": "99942665@N00","secret": "00c29b0fbb","title": "IMG_20130428_174333","loc": {"type": "Point","coordinates": [103.83327,1.307282]}} 
{"id": "8686066656","server": "8264","farm": "9","userId": "89975165@N07","secret": "433db00d7f","title": "American Cheesecake x Shirley Temple.","loc": {"type": "Point","coordinates": [103.82938,1.306213]}} 
{"id": "8630825882","server": "8256","farm": "9","userId": "89975165@N07","secret": "02373bedf9","title": "Hot Plate Tofu, Salted Egg Pork Ribs & Dou Miao for lunch with momma.","loc": {"type": "Point","coordinates": [103.83624,1.307881]}} 
{"id": "8618894704","server": "8239","farm": "9","userId": "92593934@N04","secret": "782e7fe93b","title": "Salad from their $25 3-course set lunch. 10% off if you order wine!","loc": {"type": "Point","coordinates": [103.832,1.306315]}} 
{"id": "8606758640","server": "8521","farm": "9","userId": "49421461@N00","secret": "15a2069078","title": "PamO441","loc": {"type": "Point","coordinates": [103.83283,1.306666]}} 
{"id": "8581294469","server": "8107","farm": "9","userId": "54696848@N00","secret": "3718fd13b3","title": "Gintama marathoning with @nuggetmeal & @yueqian pt 1!!","loc": {"type": "Point","coordinates": [103.82829,1.306364]}} 
{"id": "8562036900","server": "8532","farm": "9","userId": "19282426@N00","secret": "0bf4efd979","title": "#gyoza #sgshiok","loc": {"type": "Point","coordinates": [103.82726,1.306732]}} 
{"id": "8541279022","server": "8517","farm": "9","userId": "59920115@N07","secret": "2a1f9621c0","title": "Salmon sandwich","loc": {"type": "Point","coordinates": [103.82943,1.30689]}} 
{"id": "8523481006","server": "8250","farm": "9","userId": "25802865@N08","secret": "78af896364","title": "Indo Cafe - The White House","loc": {"type": "Point","coordinates": [103.83535,1.310834]}} 
{"id": "8523480536","server": "8372","farm": "9","userId": "25802865@N08","secret": "183eb3a475","title": "Indo Cafe - The White House","loc": {"type": "Point","coordinates": [103.835396,1.310834]}} 
{"id": "8509139868","server": "8231","farm": "9","userId": "60026216@N00","secret": "ff241b30ab","title": "'Bandwidth Aware Multicast Load Balancing' by Vincent Ng, Cisco. #APRICOT2013","loc": {"type": "Point","coordinates": [103.826416,1.311149]}} 
{"id": "8503591454","server": "8520","farm": "9","userId": "69921557@N00","secret": "50ff96549a","title": "Altar at Goodwood Park Hotel car park","loc": {"type": "Point","coordinates": [103.83387,1.308575]}} 
{"id": "8502714836","server": "8094","farm": "9","userId": "26007569@N03","secret": "ab066e59c2","title": "Dapat sandwich lang kaso narinig ko na may adobo pala sila. :)","loc": {"type": "Point","coordinates": [103.82825,1.306704]}} 
{"id": "8394241453","server": "8500","farm": "9","userId": "26978304@N08","secret": "db007e232b","title": "Bburago Street Fire Die Cast Vehicles","loc": {"type": "Point","coordinates": [103.82861,1.306272]}} 
{"id": "8900153431","server": "7454","farm": "8","userId": "92593934@N04","secret": "f01afab77f","title": "They say once you start, you can't stop. @GrandHyattSing has 3 new snowskin #mooncake creations this year: Green tea with sake truffle, White lotus with XO truffle, and Yam with coconut truffle.","loc": {"type": "Point","coordinates": [103.83293,1.306541]}} 
{"id": "8888511151","server": "7377","farm": "8","userId": "92593934@N04","secret": "c9eb72d8d4","title": "The crab cakes here are amazing.","loc": {"type": "Point","coordinates": [103.83308,1.306735]}} 
{"id": "8876203503","server": "5342","farm": "6","userId": "52407560@N00","secret": "ddd2be7762","title": "Time for a run and see the city","loc": {"type": "Point","coordinates": [103.82938,1.306213]}} 
{"id": "8873213596","server": "7378","farm": "8","userId": "52407560@N00","secret": "91c3f3fb9a","title": "The daily grind starts now.","loc": {"type": "Point","coordinates": [103.82938,1.306213]}} 
{"id": "8863512219","server": "5459","farm": "6","userId": "24989432@N06","secret": "af4320f833","title": "*melts* Pink Tiramisu & Madeleine","loc": {"type": "Point","coordinates": [103.83159,1.306628]}} 
{"id": "8863294133","server": "2808","farm": "3","userId": "24989432@N06","secret": "3a0f8fa4da","title": "Lunch with @20tallo : Fois Gras, Ratatouille, Lamb Spare Ribs & Salmon Trout *nom nom nom*","loc": {"type": "Point","coordinates": [103.83159,1.306628]}} 
{"id": "8819528552","server": "8115","farm": "9","userId": "99942665@N00","secret": "dbf1552a5e","title": "IMG_20130524_145421","loc": {"type": "Point","coordinates": [103.83644,1.30629]}} 
{"id": "8813944766","server": "7457","farm": "8","userId": "21929925@N02","secret": "aff50e9179","title": "Ink on skin","loc": {"type": "Point","coordinates": [103.83358,1.306948]}} 
{"id": "8787912227","server": "7457","farm": "8","userId": "81871661@N00","secret": "f063e27427","title": "not zombie and it was a gal #casualconnect# #cason human","loc": {"type": "Point","coordinates": [103.826546,1.311114]}} 
{"id": "8798451826","server": "8117","farm": "9","userId": "28261482@N05","secret": "8a7c399aa1","title": "Woa.. Such a hot weather is great for a King's Wafer Ice Cream. Been a while since I ate this.. #icecream #desert #yam #king's #wafer","loc": {"type": "Point","coordinates": [103.83604,1.310498]}} 
{"id": "8753047996","server": "5332","farm": "6","userId": "91030800@N04","secret": "d98bf3115c","title": "Finally- chicken curry and rice!","loc": {"type": "Point","coordinates": [103.83263,1.309898]}} 
{"id": "8752626466","server": "8113","farm": "9","userId": "15488769@N00","secret": "1cf631cdb9","title": "Shang Palace","loc": {"type": "Point","coordinates": [103.826546,1.311114]}} 
{"id": "8749798877","server": "5467","farm": "6","userId": "8583503@N07","secret": "b2363ca60f","title": "Congrats!","loc": {"type": "Point","coordinates": [103.83436,1.308279]}} 
{"id": "8749539161","server": "8120","farm": "9","userId": "69921557@N00","secret": "f26acd0561","title": "Invisible tea party","loc": {"type": "Point","coordinates": [103.83436,1.308279]}} 
{"id": "8745249401","server": "7306","farm": "8","userId": "51854834@N00","secret": "59aa5b5d98","title": "Day 2. Excited for today. With @lonsafko author of the most comprehensive book on social media 'Social Media Bible' #socialmediabible #lonsafko #fusionmarketing #lifeinmarketing","loc": {"type": "Point","coordinates": [103.83016,1.307617]}} 
{"id": "8743561517","server": "7289","farm": "8","userId": "99233151@N00","secret": "9708ab265a","title": "We share this award with our amazing media agency, MEC too!","loc": {"type": "Point","coordinates": [103.826546,1.311114]}} 
{"id": "8743399151","server": "7290","farm": "8","userId": "99233151@N00","secret": "24a042f564","title": "The latest award for the Singtel Digital Marketing team: Best Idea - Online at the #AOTY13 #Markies with OgilvyOne","loc": {"type": "Point","coordinates": [103.826546,1.311114]}} 
{"id": "8744009564","server": "7290","farm": "8","userId": "78686549@N00","secret": "49145bbaa9","title": "Soft spot for these blueberry tarts.","loc": {"type": "Point","coordinates": [103.82676,1.31109]}} 
{"id": "8742465701","server": "7287","farm": "8","userId": "92593934@N04","secret": "62d43aed86","title": "Check out the 'Spicy Thai' buffet dinner promotion launching at The Line tomorrow! Details on Six&Seven.","loc": {"type": "Point","coordinates": [103.826546,1.311114]}} 
{"id": "8743568116","server": "7281","farm": "8","userId": "51854834@N00","secret": "3476672962","title": "Two new charms from last night's walkabout: a bouquet of orchids (Singapore's national flower), and a camera to celebrate my 90,000th photo. Haha seriously!","loc": {"type": "Point","coordinates": [103.827675,1.306801]}} 
{"id": "8741543910","server": "7293","farm": "8","userId": "78686549@N00","secret": "813b4586df","title": "s @ s - satay at shang-rila.","loc": {"type": "Point","coordinates": [103.826546,1.311114]}} 
{"id": "8740304855","server": "7281","farm": "8","userId": "78686549@N00","secret": "a19d2cafe5","title": "This Thai Otah has a nice name. It's called Hor Mak Soufflé. (Steamed fish mousse in pandan leaf)","loc": {"type": "Point","coordinates": [103.82676,1.31109]}} 
{"id": "8741334838","server": "7294","farm": "8","userId": "78686549@N00","secret": "02f3ae3d46","title": "This is something very Thai. Tom Yam Mojitos. Just don't choke!","loc": {"type": "Point","coordinates": [103.82676,1.31109]}} 
{"id": "8739963381","server": "7289","farm": "8","userId": "81871661@N00","secret": "b50d6481cf","title": "#nusenterprise# #noc# #nus# #innovfest2013#","loc": {"type": "Point","coordinates": [103.827934,1.307516]}} 
{"id": "8739578057","server": "7288","farm": "8","userId": "92593934@N04","secret": "a10e25b060","title": "Here for the 'Spicy Thai' media tasting! Promo runs from 17-26 May.","loc": {"type": "Point","coordinates": [103.82676,1.31109]}} 
{"id": "8735740412","server": "7323","farm": "8","userId": "45609158@N03","secret": "552271298e","title": "All I got was this t-shirt....","loc": {"type": "Point","coordinates": [103.82808,1.306183]}} 
{"id": "8730144833","server": "7431","farm": "8","userId": "99233151@N00","secret": "f0b58e4fa6","title": "You get a glass of champagne because it's Mother's Day. Now that's style!","loc": {"type": "Point","coordinates": [103.83492,1.307875]}} 
{"id": "8730692708","server": "7430","farm": "8","userId": "17366099@N00","secret": "1b4cf0835c","title": "Book sale today! Finally these used books get to see the light of day and meet new families!   #love #life #singapore #reading #books #text #sgig #igsg #instasg #igers #sun #light","loc": {"type": "Point","coordinates": [103.8325,1.308333]}} 
{"id": "8728343638","server": "7373","farm": "8","userId": "39824929@N00","secret": "4eceb6dfdd","title": "Sighting in town. #elephant #gold #sgig #singapore #instasg #instagood #instagram #instamood #instaaaaah #instadaily #webstagram #jj #hipstamatic","loc": {"type": "Point","coordinates": [103.83299,1.307198]}} 
{"id": "8728203612","server": "7373","farm": "8","userId": "39824929@N00","secret": "53b5c91c8d","title": "2nd hand bookstore. So rare of this date. #bookstore #singapore #sgig #instasg #instagood #instagram #instamood #instaaaaah #instadaily #webstagram #jj #happiness #hipstamatic #books","loc": {"type": "Point","coordinates": [103.83314,1.307173]}} 
{"id": "8718176047","server": "7338","farm": "8","userId": "80321933@N00","secret": "f207a93423","title": "IMG_5017 Singapore","loc": {"type": "Point","coordinates": [103.83617,1.311833]}} 
{"id": "8713891111","server": "7282","farm": "8","userId": "24989432@N06","secret": "96701db3b6","title": "1am on a Monday Night and @pennylanesg is rocking out with @its_janinii & @dom__ wedding!!! Congrats guys \m/","loc": {"type": "Point","coordinates": [103.83293,1.306541]}} 
{"id": "8713314293","server": "8401","farm": "9","userId": "24989432@N06","secret": "e3348de585","title": "Oh dear @dubiousbrother got married to his Best Friend @fwoomp","loc": {"type": "Point","coordinates": [103.83293,1.306541]}} 
{"id": "8714201766","server": "8123","farm": "9","userId": "71141369@N03","secret": "8c5088ff83","title": "Bulls on fashion parade","loc": {"type": "Point","coordinates": [103.83299,1.307198]}} 
{"id": "8708894423","server": "8138","farm": "9","userId": "95461212@N02","secret": "dae1ddf492","title": "","loc": {"type": "Point","coordinates": [103.8325,1.308333]}} 
{"id": "8708895509","server": "8272","farm": "9","userId": "95461212@N02","secret": "600b252c6b","title": "","loc": {"type": "Point","coordinates": [103.83234,1.308333]}} 
{"id": "8706975763","server": "8278","farm": "9","userId": "58072194@N08","secret": "47f1765446","title": "4_25","loc": {"type": "Point","coordinates": [103.836334,1.311]}} 
{"id": "8706837312","server": "8414","farm": "9","userId": "33156839@N00","secret": "44f12af158","title": "At Orchard road","loc": {"type": "Point","coordinates": [103.828835,1.306833]}} 
{"id": "8705494653","server": "8542","farm": "9","userId": "34064267@N00","secret": "3a062ec48a","title": "03.19.2013","loc": {"type": "Point","coordinates": [103.829,1.3065]}} 
{"id": "8706617552","server": "8261","farm": "9","userId": "34064267@N00","secret": "cd13969089","title": "03.19.2013","loc": {"type": "Point","coordinates": [103.828835,1.306666]}} 
{"id": "8706618856","server": "8138","farm": "9","userId": "34064267@N00","secret": "abbdfb3c48","title": "03.19.2013","loc": {"type": "Point","coordinates": [103.827,1.306666]}} 
{"id": "8705495967","server": "8533","farm": "9","userId": "34064267@N00","secret": "42b618c104","title": "03.19.2013","loc": {"type": "Point","coordinates": [103.828,1.307166]}} 
{"id": "8705495095","server": "8537","farm": "9","userId": "34064267@N00","secret": "d422a1db8e","title": "03.19.2013","loc": {"type": "Point","coordinates": [103.829,1.3065]}} 
{"id": "8706618468","server": "8274","farm": "9","userId": "34064267@N00","secret": "b69617e31d","title": "03.19.2013","loc": {"type": "Point","coordinates": [103.827835,1.307166]}} 
{"id": "8706544956","server": "8127","farm": "9","userId": "34064267@N00","secret": "0cdbe9dfbd","title": "03.17.2013","loc": {"type": "Point","coordinates": [103.828835,1.3065]}} 
{"id": "8706545426","server": "8120","farm": "9","userId": "34064267@N00","secret": "16d8093aa5","title": "03.18.2013","loc": {"type": "Point","coordinates": [103.829,1.307]}} 
{"id": "8695312444","server": "8126","farm": "9","userId": "17366099@N00","secret": "bcd4765381","title": "Chicken tikka masala for lunch!! Yums!! #singapore #life #food #foodporn #sgig #igsg #instasg #igers #indianfood #love","loc": {"type": "Point","coordinates": [103.83256,1.308396]}} 
{"id": "8687870979","server": "7048","farm": "8","userId": "69921557@N00","secret": "c8ee79698b","title": "upload","loc": {"type": "Point","coordinates": [103.82729,1.306793]}} 
{"id": "8678583876","server": "8123","farm": "9","userId": "14976902@N00","secret": "6f5b670df7","title": "IMAG0322","loc": {"type": "Point","coordinates": [103.83262,1.306872]}} 
{"id": "8678584076","server": "8391","farm": "9","userId": "14976902@N00","secret": "e6fe7d43a9","title": "IMAG0321","loc": {"type": "Point","coordinates": [103.83262,1.306872]}} 
{"id": "8676427229","server": "8530","farm": "9","userId": "24989432@N06","secret": "08f89749ee","title": "And you thought you were having a busy day","loc": {"type": "Point","coordinates": [103.8284,1.306222]}} 
{"id": "8672530769","server": "8525","farm": "9","userId": "94573077@N08","secret": "cd7efb1bcf","title": "","loc": {"type": "Point","coordinates": [103.836334,1.311166]}} 
{"id": "8668050338","server": "8527","farm": "9","userId": "99942665@N00","secret": "7582bffc21","title": "IMG_20130420_140105","loc": {"type": "Point","coordinates": [103.83327,1.307282]}} 
{"id": "8668049760","server": "8534","farm": "9","userId": "99942665@N00","secret": "e70a38f2d2","title": "IMG_20130420_135904","loc": {"type": "Point","coordinates": [103.83327,1.307282]}} 
{"id": "8667810788","server": "8541","farm": "9","userId": "9454157@N08","secret": "5d60188d91","title": "#sisters #sk&m #wedding","loc": {"type": "Point","coordinates": [103.83438,1.308236]}} 
{"id": "8666425827","server": "8256","farm": "9","userId": "9454157@N08","secret": "ed0eb446c5","title": "And now it's official #sk&m, Maxilian and SK's married!!","loc": {"type": "Point","coordinates": [103.83438,1.308236]}} 
{"id": "8666422999","server": "8260","farm": "9","userId": "9454157@N08","secret": "d747225c53","title": "#sisters for life! Well there's no choice #sk&m, my younger sister the bride","loc": {"type": "Point","coordinates": [103.83438,1.308236]}} 
{"id": "8662109251","server": "8244","farm": "9","userId": "9454157@N08","secret": "a81c6a1db0","title": "#sk&m rehearsal done","loc": {"type": "Point","coordinates": [103.83438,1.308236]}} 
{"id": "8661915755","server": "8263","farm": "9","userId": "9454157@N08","secret": "5f7cefd435","title": "Just like the real wedding day","loc": {"type": "Point","coordinates": [103.83438,1.308236]}} 
{"id": "8644459213","server": "8402","farm": "9","userId": "69921557@N00","secret": "fa05f127b9","title": "Thumbs up for the durian crepe! :)","loc": {"type": "Point","coordinates": [103.833755,1.308598]}} 
{"id": "8645523336","server": "8246","farm": "9","userId": "69921557@N00","secret": "87c7b7e4be","title": "Mum and dad and the durian crepes","loc": {"type": "Point","coordinates": [103.833755,1.308598]}} 
{"id": "8645365670","server": "8120","farm": "9","userId": "30436867@N00","secret": "2104611937","title": "上汤鲈鱼面","loc": {"type": "Point","coordinates": [103.82782,1.307767]}} 
{"id": "8645127990","server": "8404","farm": "9","userId": "57773342@N00","secret": "c7457f6a23","title": "Tried my first salsa. No major feet stepping on each other :p","loc": {"type": "Point","coordinates": [103.831825,1.307519]}} 
{"id": "8641296023","server": "8391","farm": "9","userId": "33508548@N08","secret": "884f83e419","title": "#nutella!! #chocolate #instadaily","loc": {"type": "Point","coordinates": [103.8267,1.311196]}} 
{"id": "8636242435","server": "8108","farm": "9","userId": "59587495@N07","secret": "b3e5aa33fa","title": "Visuals of professional speakers at ASSAP 2013","loc": {"type": "Point","coordinates": [103.82938,1.306213]}} 
{"id": "8626526381","server": "8527","farm": "9","userId": "24773033@N02","secret": "dee85dec12","title": "Joy is a first class business trip around the world at no extra cost. - Ptr. Joshua Harris #encs #everynationchurch #joy #gospel #God #encentral","loc": {"type": "Point","coordinates": [103.82795,1.30713]}} 
{"id": "8626038225","server": "8103","farm": "9","userId": "62158995@N08","secret": "2ffc048123","title": "Chicken ramen","loc": {"type": "Point","coordinates": [103.83349,1.307443]}} 
{"id": "8624258905","server": "8252","farm": "9","userId": "18338366@N00","secret": "946e453498","title": "CityCab Hyundai i40 Taxi","loc": {"type": "Point","coordinates": [103.8283,1.306991]}} 
{"id": "8624391956","server": "8116","farm": "9","userId": "84292292@N00","secret": "788b6e3885","title": "Singapore","loc": {"type": "Point","coordinates": [103.835,1.310833]}} 
{"id": "8624357492","server": "8387","farm": "9","userId": "62158995@N08","secret": "c1b2c84351","title": "Again and again, the legendary lava cake","loc": {"type": "Point","coordinates": [103.832085,1.306401]}} 
{"id": "8623236177","server": "8250","farm": "9","userId": "62158995@N08","secret": "15b47544e6","title": "Half-baked Chocolate Cake","loc": {"type": "Point","coordinates": [103.832085,1.306401]}} 
{"id": "8623234137","server": "8258","farm": "9","userId": "62158995@N08","secret": "c8906173e1","title": "upload","loc": {"type": "Point","coordinates": [103.832085,1.306401]}} 
{"id": "8619279300","server": "8537","farm": "9","userId": "92593934@N04","secret": "55680cce80","title": "$25 3-course lunch set - Tiramisu","loc": {"type": "Point","coordinates": [103.832,1.306315]}} 
{"id": "8612983761","server": "8246","farm": "9","userId": "18338366@N00","secret": "59fb3ccf78","title": "SBS Transit Volvo Olympian 3-Axle Walter Alexander Royale VO3X","loc": {"type": "Point","coordinates": [103.8283,1.306991]}} 
{"id": "8613340492","server": "8380","farm": "9","userId": "92593934@N04","secret": "36882cb3a8","title": "Avail this Apr, @GrandHyattSing serves up oysters from 9 diff countries. More on Six&Seven!","loc": {"type": "Point","coordinates": [103.83273,1.306669]}} 
{"id": "8609761150","server": "8391","farm": "9","userId": "9454157@N08","secret": "3810cd9785","title": "Someone's getting maawwrriieed!! #sk&m","loc": {"type": "Point","coordinates": [103.83438,1.308236]}} 
{"id": "8603949101","server": "8388","farm": "9","userId": "92593934@N04","secret": "1b6f7d2ba6","title": "Can you believe it's been 50 years?!","loc": {"type": "Point","coordinates": [103.834175,1.308925]}} 
{"id": "8602549108","server": "8534","farm": "9","userId": "92593934@N04","secret": "0fbe722474","title": "Table.","loc": {"type": "Point","coordinates": [103.834175,1.308925]}} 
{"id": "8601307250","server": "8090","farm": "9","userId": "71141369@N03","secret": "7c6c2e3114","title": "Warm-down stretch built into the routine #latergram","loc": {"type": "Point","coordinates": [103.833206,1.30761]}} 
{"id": "8599953698","server": "8087","farm": "9","userId": "48889054224@N01","secret": "8f6bf1b03c","title": "That's why must put a sticker on the outside saying so.","loc": {"type": "Point","coordinates": [103.82726,1.306732]}} 
{"id": "8597002271","server": "8241","farm": "9","userId": "75757595@N08","secret": "d2b9b5532c","title": "upload","loc": {"type": "Point","coordinates": [103.82793,1.309619]}} 
{"id": "8597008711","server": "8391","farm": "9","userId": "75757595@N08","secret": "209d242f20","title": "upload","loc": {"type": "Point","coordinates": [103.82793,1.309619]}} 
{"id": "8589346734","server": "8377","farm": "9","userId": "24989432@N06","secret": "84ff818afe","title": "A healthy dinner ;)","loc": {"type": "Point","coordinates": [103.8329,1.306583]}} 
{"id": "8584430495","server": "8246","farm": "9","userId": "7310714@N06","secret": "1b3b9666c8","title": "","loc": {"type": "Point","coordinates": [103.83666,1.311333]}} 
{"id": "8581625515","server": "8251","farm": "9","userId": "52135377@N05","secret": "164bf8ca46","title": "Pool","loc": {"type": "Point","coordinates": [103.83247,1.307044]}} 
{"id": "8582691438","server": "8098","farm": "9","userId": "54696848@N00","secret": "b8ef7aa560","title": "Gintama marathoning final! @nuggetmeal @yueqian","loc": {"type": "Point","coordinates": [103.82829,1.306364]}} 
{"id": "8582417008","server": "8379","farm": "9","userId": "54696848@N00","secret": "19c3e3858e","title": "Gintama marathoning pt 2! @nuggetmeal @yueqian","loc": {"type": "Point","coordinates": [103.82829,1.306364]}} 
{"id": "8581226191","server": "8239","farm": "9","userId": "7310714@N06","secret": "44ffea67ba","title": "","loc": {"type": "Point","coordinates": [103.83683,1.312833]}} 
{"id": "8570184429","server": "8382","farm": "9","userId": "92593934@N04","secret": "f1af709269","title": "I'm your fire.","loc": {"type": "Point","coordinates": [103.83273,1.306669]}} 
{"id": "8563349229","server": "8090","farm": "9","userId": "92593934@N04","secret": "a02aba68fc","title": "Thank you @ShangriLaHotels Singapore for the Turkish treats! Lucky draw for plane tickets & hotel stay with their Turkish-themed buffet http://bit.ly/10UG4Sf","loc": {"type": "Point","coordinates": [103.8267,1.311196]}} 
{"id": "8562040976","server": "8532","farm": "9","userId": "19282426@N00","secret": "ecb1edcaa8","title": "Ni-Tamago","loc": {"type": "Point","coordinates": [103.82726,1.306732]}} 
{"id": "8562035000","server": "8371","farm": "9","userId": "19282426@N00","secret": "2c6f042480","title": "Aburi chashu","loc": {"type": "Point","coordinates": [103.82726,1.306732]}} 
{"id": "8560927217","server": "8246","farm": "9","userId": "19282426@N00","secret": "07a60c7127","title": "Bari-Uma","loc": {"type": "Point","coordinates": [103.82726,1.306732]}} 
{"id": "8562031528","server": "8103","farm": "9","userId": "19282426@N00","secret": "23c88b3bf1","title": "Miso-Uma","loc": {"type": "Point","coordinates": [103.82726,1.306732]}} 
{"id": "8562029700","server": "8532","farm": "9","userId": "19282426@N00","secret": "021947976a","title": "Egg salad","loc": {"type": "Point","coordinates": [103.82726,1.306732]}} 
{"id": "8559011739","server": "8365","farm": "9","userId": "17528871@N00","secret": "d059ff9625","title": "OMELETTE.","loc": {"type": "Point","coordinates": [103.82959,1.3073]}} 
{"id": "8556245591","server": "8507","farm": "9","userId": "15170730@N07","secret": "8440fc7b04","title": "no Jollibee","loc": {"type": "Point","coordinates": [103.832985,1.307418]}} 
{"id": "8555486465","server": "8517","farm": "9","userId": "92593934@N04","secret": "f50e94472a","title": "Wonderful spread of Turkish delicacies headed your way at The Line come Mar 15!","loc": {"type": "Point","coordinates": [103.82676,1.31109]}} 
{"id": "8552569357","server": "8243","farm": "9","userId": "14385475@N05","secret": "6299ebcb31","title": "IMG_3681","loc": {"type": "Point","coordinates": [103.83617,1.3095]}} 
{"id": "8552566877","server": "8225","farm": "9","userId": "14385475@N05","secret": "a73a08ecfb","title": "IMG_3679","loc": {"type": "Point","coordinates": [103.83617,1.3095]}} 
{"id": "8552564775","server": "8241","farm": "9","userId": "14385475@N05","secret": "a9f627d3e5","title": "IMG_3677","loc": {"type": "Point","coordinates": [103.83583,1.309166]}} 
{"id": "8552568173","server": "8092","farm": "9","userId": "14385475@N05","secret": "7426dbb93b","title": "IMG_3680","loc": {"type": "Point","coordinates": [103.83617,1.3095]}} 
{"id": "8553668980","server": "8107","farm": "9","userId": "14385475@N05","secret": "12756363bb","title": "IMG_3678","loc": {"type": "Point","coordinates": [103.83583,1.309166]}} 
{"id": "8549756479","server": "8384","farm": "9","userId": "64937321@N00","secret": "3aaeeaf0e2","title": "Singapore training trip","loc": {"type": "Point","coordinates": [103.83517,1.3065]}} 
{"id": "8549757349","server": "8228","farm": "9","userId": "64937321@N00","secret": "8c25b7d672","title": "Singapore training trip","loc": {"type": "Point","coordinates": [103.83517,1.3065]}} 
{"id": "8550855088","server": "8386","farm": "9","userId": "64937321@N00","secret": "0fe069dcdd","title": "Singapore training trip","loc": {"type": "Point","coordinates": [103.83517,1.306333]}} 
{"id": "8550854442","server": "8379","farm": "9","userId": "64937321@N00","secret": "f5e7251784","title": "Singapore training trip","loc": {"type": "Point","coordinates": [103.835335,1.307]}} 
{"id": "8549754049","server": "8518","farm": "9","userId": "64937321@N00","secret": "b0f4ac6515","title": "Singapore training trip","loc": {"type": "Point","coordinates": [103.8355,1.307]}} 
{"id": "8550460320","server": "8112","farm": "9","userId": "49111993@N00","secret": "85b5e2ae15","title": "Premium Economy Meal","loc": {"type": "Point","coordinates": [103.83683,1.311]}} 
{"id": "8548547906","server": "8513","farm": "9","userId": "9454157@N08","secret": "26a7509110","title": "And so it begins #wedding","loc": {"type": "Point","coordinates": [103.834595,1.308671]}} 
{"id": "8548464178","server": "8091","farm": "9","userId": "9454157@N08","secret": "da3f69415d","title": "The countdown to max's wedding begins here","loc": {"type": "Point","coordinates": [103.83438,1.308236]}} 
{"id": "8540612443","server": "8519","farm": "9","userId": "43866013@N00","secret": "b860f1feb2","title": "making woolly sheep and spiders with aunty denise.","loc": {"type": "Point","coordinates": [103.82871,1.306317]}} 
{"id": "8541441320","server": "8251","farm": "9","userId": "40381455@N00","secret": "67e561af50","title": "Buffet at Straits Kitchen is well worth the money in desserts. And North Indian food. And satay. And almost everything else!","loc": {"type": "Point","coordinates": [103.8329,1.306583]}} 
{"id": "8539307586","server": "8105","farm": "9","userId": "7195567@N07","secret": "eaf4f3326d","title": "Singapore 2011","loc": {"type": "Point","coordinates": [103.82866,1.306972]}} 
{"id": "8539307470","server": "8373","farm": "9","userId": "7195567@N07","secret": "47beae80ee","title": "Singapore 2011","loc": {"type": "Point","coordinates": [103.82832,1.30638]}} 
{"id": "8539307900","server": "8519","farm": "9","userId": "7195567@N07","secret": "32587346fd","title": "Singapore 2011","loc": {"type": "Point","coordinates": [103.828896,1.30675]}} 
{"id": "8539307740","server": "8250","farm": "9","userId": "7195567@N07","secret": "80d29b43a1","title": "Singapore 2011","loc": {"type": "Point","coordinates": [103.82873,1.306736]}} 
{"id": "8535746079","server": "8379","farm": "9","userId": "63283397@N08","secret": "7a9d75f390","title": "Beauty","loc": {"type": "Point","coordinates": [103.82963,1.306505]}} 
{"id": "8529145843","server": "8227","farm": "9","userId": "25802865@N08","secret": "099ffa862a","title": "Orchard Hotel Shopping Arcade","loc": {"type": "Point","coordinates": [103.82873,1.306973]}} 
{"id": "8529146311","server": "8244","farm": "9","userId": "25802865@N08","secret": "e26c506717","title": "Harley Davidson","loc": {"type": "Point","coordinates": [103.82878,1.306902]}} 
{"id": "8527617210","server": "8244","farm": "9","userId": "19282426@N00","secret": "38a919dd4f","title": "pork aka chasiew","loc": {"type": "Point","coordinates": [103.82726,1.306732]}} 
{"id": "8522592745","server": "8383","farm": "9","userId": "48889054224@N01","secret": "899416bdac","title": "This ramen gets our stamp of approval","loc": {"type": "Point","coordinates": [103.82726,1.306732]}} 
{"id": "8523477630","server": "8519","farm": "9","userId": "25802865@N08","secret": "ec0a2326a1","title": "Indo Cafe - The White House","loc": {"type": "Point","coordinates": [103.83541,1.310856]}} 
{"id": "8517116287","server": "8521","farm": "9","userId": "60026216@N00","secret": "7e9ca8fb54","title": "Steno captioners for the event. #APRICOT2013 #APNIC35","loc": {"type": "Point","coordinates": [103.8266,1.311078]}} 
{"id": "8517819176","server": "8365","farm": "9","userId": "60026216@N00","secret": "19b340ed97","title": "Last day of #APRICOT2013 - #APNIC Member Meeting.","loc": {"type": "Point","coordinates": [103.8266,1.311078]}} 
{"id": "8512150107","server": "8226","farm": "9","userId": "74683311@N06","secret": "d427bb736e","title": "#abercrombiehot #throwback #universalstudios #singapore #i❤sg #bumblebee #transformer #abercrombie #ae #converse #ripcurlwatch","loc": {"type": "Point","coordinates": [103.83169,1.306638]}} 
{"id": "8513134326","server": "8530","farm": "9","userId": "60026216@N00","secret": "b070fc3d02","title": "Swimming pool.","loc": {"type": "Point","coordinates": [103.82648,1.311264]}} 
{"id": "8510572950","server": "8524","farm": "9","userId": "19282426@N00","secret": "67512d36cf","title": "Spicy soup ramen","loc": {"type": "Point","coordinates": [103.82726,1.306732]}} 
{"id": "8510576586","server": "8514","farm": "9","userId": "19282426@N00","secret": "885e6352ea","title": "#ramen","loc": {"type": "Point","coordinates": [103.82726,1.306732]}} 
{"id": "8510557570","server": "8519","farm": "9","userId": "19282426@N00","secret": "b032442c89","title": "Yakitori combo","loc": {"type": "Point","coordinates": [103.82726,1.306732]}} 
{"id": "8509366631","server": "8232","farm": "9","userId": "78686549@N00","secret": "89be19b65c","title": "This piece that went to my mouth: left side - was lean meat that is not 'siap' but tender, nicely marinated and melty. Right side - the stress of hanging on the chopsticks, showed the jellified pork fat layer that's softened and broke out nicely into tiny","loc": {"type": "Point","coordinates": [103.82726,1.306732]}} 
{"id": "8509292533","server": "8511","farm": "9","userId": "18673521@N00","secret": "603ebc3091","title": "Yakitori Combo #yum #japanesefood","loc": {"type": "Point","coordinates": [103.82726,1.306732]}} 
{"id": "8509165553","server": "8244","farm": "9","userId": "19282426@N00","secret": "6ed08f3516","title": "Crispy Gyoza","loc": {"type": "Point","coordinates": [103.82726,1.306732]}} 
{"id": "8509159871","server": "8530","farm": "9","userId": "78686549@N00","secret": "19dee2219c","title": "Oh. How I adore thee!","loc": {"type": "Point","coordinates": [103.82726,1.306732]}} 
{"id": "8509144949","server": "8375","farm": "9","userId": "18673521@N00","secret": "58db8b4d9f","title": "Ajitama - Flavoured Lava Egg. #EggPorn #FoodPorn","loc": {"type": "Point","coordinates": [103.82726,1.306732]}} 
{"id": "8509136267","server": "8100","farm": "9","userId": "78686549@N00","secret": "4dc76b7662","title": "Aburi Chashu. Thick cut flamed chashu. Well marinated and just charred. You will order seconds!","loc": {"type": "Point","coordinates": [103.82726,1.306732]}} 
{"id": "8510237660","server": "8527","farm": "9","userId": "18673521@N00","secret": "4cd5f97fe1","title": "Aburi Chashu. This Char Siew kicks 8ss! #love #yum","loc": {"type": "Point","coordinates": [103.82726,1.306732]}} 
{"id": "8510214944","server": "8385","farm": "9","userId": "78686549@N00","secret": "6a8f8f7022","title": "Miso-Uma. Pork flavoured miso soup with diced flamed chashu and corn.","loc": {"type": "Point","coordinates": [103.82726,1.306732]}} 
{"id": "8509880848","server": "8111","farm": "9","userId": "60026216@N00","secret": "c3b3b2cdf2","title": "Bijal Sanghani of Euro-IX is presenting Euro-IX update on #APRICOT2013 peering forum.","loc": {"type": "Point","coordinates": [103.8266,1.311078]}} 
{"id": "8508691911","server": "8377","farm": "9","userId": "60026216@N00","secret": "1159900360","title": "Met Eko BH of Orion / JakNet. Berasa kurus di samping beliau. :) #BemoNet","loc": {"type": "Point","coordinates": [103.82648,1.311264]}} 
{"id": "8509367122","server": "8245","farm": "9","userId": "60026216@N00","secret": "8b9c36fff1","title": "BGP traffic engineering for Internet networks, by Andy Davidson of LoNAP @ Peering Forum. #APRICOT2013","loc": {"type": "Point","coordinates": [103.8266,1.311078]}} 
{"id": "8509349032","server": "8377","farm": "9","userId": "60026216@N00","secret": "42ee0216d9","title": "'The unknown arguments for peering' by Marco Brandstaetter of DE-CIX @ Peering Forum. #APRICOT2013","loc": {"type": "Point","coordinates": [103.8266,1.311078]}} 
{"id": "8508195909","server": "8514","farm": "9","userId": "60026216@N00","secret": "5408663074","title": "'Making the decision not to peer' by Aaron Hughes, 6connect @ Peering Forum. #APRICOT2013","loc": {"type": "Point","coordinates": [103.8266,1.311078]}} 
{"id": "8505682805","server": "8519","farm": "9","userId": "60026216@N00","secret": "a5184db39b","title": "'Innovation at the Waist' by Olaf Kolkman @ APOPS session. #APRICOT2013","loc": {"type": "Point","coordinates": [103.82648,1.311264]}} 
{"id": "8506764702","server": "8509","farm": "9","userId": "60026216@N00","secret": "b58233de73","title": "Philip Smith on APOPS Plenary session #APRICOT2013.","loc": {"type": "Point","coordinates": [103.826416,1.311149]}} 
{"id": "8505546261","server": "8507","farm": "9","userId": "60026216@N00","secret": "89b01d102a","title": "ICANN multi-stakeholder model and Asia Pacific strategy, by Fadi Chehade of ICANN. #APRICOT2013","loc": {"type": "Point","coordinates": [103.826416,1.311149]}} 
{"id": "8506611888","server": "8522","farm": "9","userId": "60026216@N00","secret": "42beb4812f","title": "Keynote: Preserving the Internet for Future Generations by Internet Society (ISOC). #APRICOT2013","loc": {"type": "Point","coordinates": [103.82648,1.311264]}} 
{"id": "8506583914","server": "8241","farm": "9","userId": "60026216@N00","secret": "b3b63b13ae","title": "Paul Wilson of #APNIC on #APRICOT2013 opening plenary.","loc": {"type": "Point","coordinates": [103.82648,1.311264]}} 
{"id": "8506518758","server": "8229","farm": "9","userId": "60026216@N00","secret": "abd862abdd","title": "Ready for opening plenary. #APRICOT2013","loc": {"type": "Point","coordinates": [103.826416,1.311149]}} 
{"id": "8505381993","server": "8530","farm": "9","userId": "60026216@N00","secret": "a858cd40fd","title": "Good spread of #food. #APRICOT2013 #lunch","loc": {"type": "Point","coordinates": [103.82648,1.311264]}} 
{"id": "8506414686","server": "8096","farm": "9","userId": "60026216@N00","secret": "283b905c6c","title": "First time attending #APRICOT2013 in #Singapore.","loc": {"type": "Point","coordinates": [103.82648,1.311264]}} 
{"id": "8500535758","server": "8103","farm": "9","userId": "9454157@N08","secret": "a904cc0f51","title": "It's the weekend alrite! #chocolate mud pie","loc": {"type": "Point","coordinates": [103.82808,1.306183]}} 
{"id": "8499411057","server": "8370","farm": "9","userId": "67158451@N06","secret": "23206c74cb","title": "S A L A D","loc": {"type": "Point","coordinates": [103.82698,1.311335]}} 
{"id": "8497476218","server": "8512","farm": "9","userId": "92593934@N04","secret": "dea1bac4ef","title": "Strawberry on coffee mousse.","loc": {"type": "Point","coordinates": [103.83011,1.307533]}} 
{"id": "8497225360","server": "8099","farm": "9","userId": "76804634@N00","secret": "e464fec524","title": "Before:","loc": {"type": "Point","coordinates": [103.83293,1.306541]}} 
{"id": "8497227652","server": "8225","farm": "9","userId": "76804634@N00","secret": "d24667c27b","title": "After: Gong Xi Fa Cai!","loc": {"type": "Point","coordinates": [103.83293,1.306541]}} 
{"id": "8495217736","server": "8111","farm": "9","userId": "14932126@N08","secret": "b605998af2","title": "","loc": {"type": "Point","coordinates": [103.83283,1.306166]}} 
{"id": "8495017862","server": "8514","farm": "9","userId": "91511540@N02","secret": "d65453ce57","title": "Mix pics","loc": {"type": "Point","coordinates": [103.8305,1.3115]}} 
{"id": "8491753292","server": "8087","farm": "9","userId": "24989432@N06","secret": "635922c464","title": "My kinda breakfast ;)","loc": {"type": "Point","coordinates": [103.8284,1.306222]}} 
{"id": "8490546293","server": "8237","farm": "9","userId": "30552649@N00","secret": "118e09ee0e","title": "Happy Lunar New Year ..","loc": {"type": "Point","coordinates": [103.82819,1.30804]}} 
{"id": "8489360598","server": "8369","farm": "9","userId": "9454157@N08","secret": "52e50f4c97","title": "Who says being #vegan means we don't get #burgers awesome vege burger fm &Made with truffle fries","loc": {"type": "Point","coordinates": [103.832085,1.306401]}} 
{"id": "8489363008","server": "8112","farm": "9","userId": "9454157@N08","secret": "f327daceba","title": "Lychee, raspberry smoothie done with yogurt and added rose essence!","loc": {"type": "Point","coordinates": [103.832085,1.306401]}} 
{"id": "8489206486","server": "8086","farm": "9","userId": "9454157@N08","secret": "1f188c2ed3","title": "Caramello sundae! #nomnomnom","loc": {"type": "Point","coordinates": [103.832085,1.306401]}} 
{"id": "8488014837","server": "8103","farm": "9","userId": "9454157@N08","secret": "8908f931da","title": "Dinner with Charmian at a Michelin star Chef's restaurant #nomnomnom","loc": {"type": "Point","coordinates": [103.832085,1.306401]}} 
{"id": "8477293475","server": "8108","farm": "9","userId": "15170730@N07","secret": "f529cf76ff","title": "lunch","loc": {"type": "Point","coordinates": [103.82808,1.306183]}} 
{"id": "8478010160","server": "8232","farm": "9","userId": "54048808@N00","secret": "430ac66be6","title": "Leaving Scott's Square","loc": {"type": "Point","coordinates": [103.832344,1.306256]}} 
{"id": "8475611573","server": "8373","farm": "9","userId": "92923304@N08","secret": "ccf29a3abf","title": "Fried Chicken Wings @ Cuscaden Patio","loc": {"type": "Point","coordinates": [103.82817,1.306272]}} 
{"id": "8472125683","server": "8246","farm": "9","userId": "54696848@N00","secret": "0b6b9b58a1","title": "Virtual V-Day chocolate for anyone who knows this song LOL","loc": {"type": "Point","coordinates": [103.82829,1.306364]}} 
{"id": "8473216376","server": "8513","farm": "9","userId": "54696848@N00","secret": "95a346d486","title": "For a rainy Valentine's Day loool","loc": {"type": "Point","coordinates": [103.82829,1.306364]}} 
{"id": "8471455067","server": "8107","farm": "9","userId": "19454593@N00","secret": "a019ed9b34","title": "","loc": {"type": "Point","coordinates": [103.829865,1.306213]}} 
{"id": "8470958761","server": "8383","farm": "9","userId": "69379954@N08","secret": "80f9d4cf0b","title": "Dizzy black","loc": {"type": "Point","coordinates": [103.83671,1.312513]}} 
{"id": "8461790633","server": "8365","farm": "9","userId": "28625927@N07","secret": "3989389b34","title": "King bed","loc": {"type": "Point","coordinates": [103.82655,1.306221]}} 
{"id": "8462884326","server": "8085","farm": "9","userId": "28625927@N07","secret": "ac57b479b8","title": "Desk and TV","loc": {"type": "Point","coordinates": [103.82655,1.306221]}} 
{"id": "8461794123","server": "8087","farm": "9","userId": "28625927@N07","secret": "0324c46614","title": "Bathroom","loc": {"type": "Point","coordinates": [103.82655,1.306221]}} 
{"id": "8462889808","server": "8516","farm": "9","userId": "28625927@N07","secret": "d372cf2ea4","title": "Mini-bar area","loc": {"type": "Point","coordinates": [103.82655,1.306221]}} 
{"id": "8462886230","server": "8091","farm": "9","userId": "28625927@N07","secret": "9bc43b910a","title": "Sitting area","loc": {"type": "Point","coordinates": [103.82655,1.306221]}} 
