{"id": "8609424064","server": "8381","farm": "9","userId": "35266357@N00","secret": "f6759755f3","title": "GreenWood Sanctuary @ Admiralty","loc": {"type": "Point","coordinates": [103.80652,1.4391]}} 
{"id": "8602350832","server": "8405","farm": "9","userId": "35266357@N00","secret": "ac3e42ce73","title": "GreenWood Sanctuary @ Admiralty","loc": {"type": "Point","coordinates": [103.806854,1.439911]}} 
{"id": "8601257595","server": "8523","farm": "9","userId": "35266357@N00","secret": "b831388b89","title": "GreenWood Sanctuary @ Admiralty","loc": {"type": "Point","coordinates": [103.806854,1.439919]}} 
{"id": "8602358414","server": "8262","farm": "9","userId": "35266357@N00","secret": "9cce55c0a0","title": "Yellow-vented Bulbul","loc": {"type": "Point","coordinates": [103.80699,1.439705]}} 
{"id": "8601255999","server": "8106","farm": "9","userId": "35266357@N00","secret": "6d272405be","title": "GreenWood Sanctuary @ Admiralty","loc": {"type": "Point","coordinates": [103.806854,1.439911]}} 
{"id": "8548544248","server": "8096","farm": "9","userId": "44065876@N03","secret": "e7b4529525","title": "070/365 - 肉丁 Meat cubes","loc": {"type": "Point","coordinates": [103.80783,1.4435]}} 
{"id": "8249609398","server": "8345","farm": "9","userId": "65512718@N08","secret": "43516ebcc8","title": "是时侯...就放手 (When It's Time...Just Let Go)","loc": {"type": "Point","coordinates": [103.80844,1.442489]}} 
{"id": "8240291967","server": "8202","farm": "9","userId": "78037110@N03","secret": "42aa085e9f","title": "Tamiya Hummer P1250261","loc": {"type": "Point","coordinates": [103.80679,1.439761]}} 
{"id": "8241359878","server": "8064","farm": "9","userId": "78037110@N03","secret": "3285b0a21b","title": "Tamiya Hummer P1250263","loc": {"type": "Point","coordinates": [103.80679,1.439761]}} 
{"id": "8240292237","server": "8486","farm": "9","userId": "78037110@N03","secret": "299f7a909c","title": "Tamiya Hummer P1250255","loc": {"type": "Point","coordinates": [103.80679,1.439761]}} 
{"id": "8241359722","server": "8203","farm": "9","userId": "78037110@N03","secret": "5dc94b521f","title": "Tamiya Hummer P1250267","loc": {"type": "Point","coordinates": [103.80679,1.439761]}} 
{"id": "8241359184","server": "8480","farm": "9","userId": "78037110@N03","secret": "87fc18215f","title": "Tamiya Hummer P1250274","loc": {"type": "Point","coordinates": [103.80679,1.439761]}} 
{"id": "8241358944","server": "8342","farm": "9","userId": "78037110@N03","secret": "8a20ed54b2","title": "Tamiya Hummer P1250277","loc": {"type": "Point","coordinates": [103.80679,1.439761]}} 
{"id": "8241360262","server": "8204","farm": "9","userId": "78037110@N03","secret": "9c77a2d66b","title": "Tamiya Hummer P1250259","loc": {"type": "Point","coordinates": [103.80679,1.439761]}} 
{"id": "8240291387","server": "8065","farm": "9","userId": "78037110@N03","secret": "87220b6f1c","title": "Tamiya Hummer P1250271","loc": {"type": "Point","coordinates": [103.80679,1.439761]}} 
{"id": "8241360016","server": "8205","farm": "9","userId": "78037110@N03","secret": "355ac15523","title": "Tamiya Hummer P1250262","loc": {"type": "Point","coordinates": [103.80679,1.439761]}} 
{"id": "8147516655","server": "8473","farm": "9","userId": "44065876@N03","secret": "fe449a0224","title": "New ERP system in testing","loc": {"type": "Point","coordinates": [103.8075,1.437]}} 
