{"id": "9334873616","server": "5322","farm": "6","userId": "92593934@N04","secret": "334f35e56a","title": "Eating out as a mini-celebration for Bro.","loc": {"type": "Point","coordinates": [103.826546,1.428104]}} 
{"id": "9139081458","server": "3775","farm": "4","userId": "38909255@N03","secret": "3c5f4d14ca","title": "This is food #hawker #dumpling #wanton...","loc": {"type": "Point","coordinates": [103.83584,1.427813]}} 
{"id": "8634174385","server": "8381","farm": "9","userId": "18338366@N00","secret": "6e0960835d","title": "SBS Transit Volvo B10M Mark 4 Walter Alexander Strider","loc": {"type": "Point","coordinates": [103.83522,1.427946]}} 
{"id": "8157480345","server": "7107","farm": "8","userId": "85252992@N06","secret": "59c8288617","title": "Mercedes-Benz Citaro","loc": {"type": "Point","coordinates": [103.831924,1.426176]}} 
{"id": "8102459278","server": "8186","farm": "9","userId": "85252992@N06","secret": "e609d0fd5c","title": "Scania L113CRL Walter Alexander Strider","loc": {"type": "Point","coordinates": [103.8353,1.425758]}} 
{"id": "8099622303","server": "8054","farm": "9","userId": "85252992@N06","secret": "6bc76964ef","title": "Bendy Buses in the early morning","loc": {"type": "Point","coordinates": [103.83671,1.427774]}} 
{"id": "8099611466","server": "8184","farm": "9","userId": "85252992@N06","secret": "d97f2f4680","title": "Bendy Buses at Yishun Bus Interchange","loc": {"type": "Point","coordinates": [103.83611,1.428997]}} 
{"id": "8066202982","server": "8033","farm": "9","userId": "85252992@N06","secret": "a777dd1683","title": "MAN NL323F A22","loc": {"type": "Point","coordinates": [103.83498,1.424406]}} 
{"id": "8066199361","server": "8029","farm": "9","userId": "85252992@N06","secret": "0d8f301bbb","title": "Mercedes-Benz Citaro","loc": {"type": "Point","coordinates": [103.83519,1.424428]}} 
{"id": "9444534856","server": "7403","farm": "8","userId": "94346589@N03","secret": "dfab9b873b","title": "#instaplace #instaplaceapp #instagood #photooftheday #instamood #picoftheday #instadaily #photo #instacool #instapic #picture #pic @instaplacemobi #place #earth #world  #singapore #SG #yishun #pizzahut #food #foodporn #restaurant #street #night oh my ECs.","loc": {"type": "Point","coordinates": [103.83651,1.429375]}} 
{"id": "9436460648","server": "5445","farm": "6","userId": "94346589@N03","secret": "a4e36db0e8","title": "#instaplace #instaplaceapp #instagood #photooftheday #instamood #picoftheday #instadaily #photo #instacool #instapic #picture #pic @instaplacemobi #place #earth #world  #singapore #SG #yishun #expressteppanyaki@northpoint #food #foodporn #restaurant #stre","loc": {"type": "Point","coordinates": [103.83558,1.429433]}} 
{"id": "9413823886","server": "2894","farm": "3","userId": "23791372@N07","secret": "0402a0d3c3","title": "","loc": {"type": "Point","coordinates": [103.8335,1.426833]}} 
{"id": "9411062565","server": "5457","farm": "6","userId": "23791372@N07","secret": "b03cf98c2e","title": "","loc": {"type": "Point","coordinates": [103.83317,1.426666]}} 
{"id": "9411059525","server": "7318","farm": "8","userId": "23791372@N07","secret": "49cb2864e3","title": "","loc": {"type": "Point","coordinates": [103.8335,1.426833]}} 
{"id": "9413821284","server": "3765","farm": "4","userId": "23791372@N07","secret": "948f6d5122","title": "","loc": {"type": "Point","coordinates": [103.833336,1.427]}} 
{"id": "9411060481","server": "3673","farm": "4","userId": "23791372@N07","secret": "f8468c80b9","title": "","loc": {"type": "Point","coordinates": [103.8335,1.426833]}} 
{"id": "9355062621","server": "5461","farm": "6","userId": "23791372@N07","secret": "f38f7bd9ac","title": "","loc": {"type": "Point","coordinates": [103.8335,1.427333]}} 
{"id": "9348794485","server": "7429","farm": "8","userId": "23791372@N07","secret": "6af9e9eab5","title": "","loc": {"type": "Point","coordinates": [103.833664,1.427166]}} 
{"id": "9318509740","server": "3691","farm": "4","userId": "96233672@N05","secret": "ce23727b91","title": "Ishimura at North Point","loc": {"type": "Point","coordinates": [103.8365,1.429216]}} 
{"id": "9253790520","server": "3732","farm": "4","userId": "23791372@N07","secret": "3a22193b5d","title": "","loc": {"type": "Point","coordinates": [103.833664,1.427]}} 
{"id": "9251010063","server": "7429","farm": "8","userId": "23791372@N07","secret": "e8b2d19592","title": "","loc": {"type": "Point","coordinates": [103.833664,1.427166]}} 
{"id": "9228193010","server": "3772","farm": "4","userId": "94346589@N03","secret": "c28bc23837","title": "#instaplace #instaplaceapp #instagood #photooftheday #instamood #picoftheday #instadaily #photo #instacool #instapic #picture #pic @instaplacemobi #place #earth #world  #singapore #SG #yishun  #day #hotcakeswithsausage #orangejuice #sister @mayanur","loc": {"type": "Point","coordinates": [103.83561,1.429372]}} 
{"id": "9139098614","server": "5544","farm": "6","userId": "38909255@N03","secret": "c7785ca9f9","title": "Ang mahal ng mami dito. Sa...","loc": {"type": "Point","coordinates": [103.83423,1.429578]}} 
{"id": "9139089408","server": "5523","farm": "6","userId": "38909255@N03","secret": "701e1bedfe","title": "Mrt mode #airmax #nike #sneakerhead #black...","loc": {"type": "Point","coordinates": [103.83503,1.429254]}} 
{"id": "9124565081","server": "7418","farm": "8","userId": "94346589@N03","secret": "10f69007d6","title": "#instaplace #instaplaceapp #instagood #photooftheday #instamood #picoftheday #instadaily #photo #instacool #instapic #picture #pic @instaplacemobi #place #earth #world  #singapore #SG #yishun #pizzahut #food #foodporn #restaurant #street #night #dessert","loc": {"type": "Point","coordinates": [103.83674,1.429475]}} 
{"id": "9124321711","server": "5505","farm": "6","userId": "94346589@N03","secret": "b580c92905","title": "#latedinner #appetizer #pizzahut","loc": {"type": "Point","coordinates": [103.83674,1.429475]}} 
{"id": "9124297323","server": "2858","farm": "3","userId": "94346589@N03","secret": "1729d197a1","title": "#instaplace #instaplaceapp #instagood #photooftheday #instamood #picoftheday #instadaily #photo #instacool #instapic #picture #pic @instaplacemobi #place #earth #world  #singapore #SG #yishun #pizzahut #food #foodporn #restaurant #street #night #latedinne","loc": {"type": "Point","coordinates": [103.83674,1.429475]}} 
{"id": "8840252567","server": "5461","farm": "6","userId": "96233672@N05","secret": "3f3e71832e","title": "North Point Four Season","loc": {"type": "Point","coordinates": [103.836006,1.429155]}} 
{"id": "8784541727","server": "8394","farm": "9","userId": "96233672@N05","secret": "6ca4a0ebb9","title": "","loc": {"type": "Point","coordinates": [103.8355,1.429333]}} 
{"id": "8739970491","server": "7289","farm": "8","userId": "94346589@N03","secret": "ec10a45017","title": "#instaplace #instaplaceapp #instagood #photooftheday #instamood #picoftheday #instadaily #photo #instacool #instapic #picture #pic  @instaplacemobi #place #earth #world  #singapore #SG #yishun #swensens #food #foodporn #restaurant #shopping #street #day #","loc": {"type": "Point","coordinates": [103.83561,1.429372]}} 
{"id": "8734853326","server": "7314","farm": "8","userId": "94346589@N03","secret": "936e9f143f","title": "Poor maya having #fever...","loc": {"type": "Point","coordinates": [103.83707,1.423741]}} 
{"id": "8717016862","server": "7417","farm": "8","userId": "94346589@N03","secret": "064d4dcc57","title": "Lunch with ❤❤❤","loc": {"type": "Point","coordinates": [103.83555,1.429772]}} 
{"id": "8713563320","server": "8119","farm": "9","userId": "94346589@N03","secret": "d248db8f81","title": "Lunch","loc": {"type": "Point","coordinates": [103.835594,1.429346]}} 
{"id": "8706062077","server": "8397","farm": "9","userId": "73295885@N03","secret": "2cdbef53d2","title": "McDonald's","loc": {"type": "Point","coordinates": [103.83567,1.429511]}} 
{"id": "8686668041","server": "8119","farm": "9","userId": "8919548@N06","secret": "780fa2838b","title": "I'm grateful to Allah (Syukur Alhamdullilah!) because the Spaghetti Seafood that I cook has completely finished. Garnishing using trafficlight Capsicums; red, yellow and green make the spaghetti more attractive. I just love to play with colours in the foo","loc": {"type": "Point","coordinates": [103.831825,1.423963]}} 
{"id": "8641910571","server": "8105","farm": "9","userId": "91815173@N03","secret": "3f64aa178b","title": "birthday dinner","loc": {"type": "Point","coordinates": [103.83573,1.429404]}} 
{"id": "8632213298","server": "8388","farm": "9","userId": "18338366@N00","secret": "4510ba5813","title": "SMRT Buses Dennis Lance Volgren","loc": {"type": "Point","coordinates": [103.83564,1.42801]}} 
{"id": "8624347447","server": "8248","farm": "9","userId": "39824929@N00","secret": "67f0aac6e2","title": "SEMS at KTPH or they like to call it, an oasis. #TooNice #Hospital #tranquility #sgig #singapore #igsg #igers #ink361 #instasg #instagood #instamood #instaaaaah #instadaily #webstagram #jj #hipstamatic","loc": {"type": "Point","coordinates": [103.8367,1.424555]}} 
{"id": "8619366512","server": "8239","farm": "9","userId": "24989432@N06","secret": "a71446de38","title": "Reward for bring the hired muscle.... Thanks @lxass :)","loc": {"type": "Point","coordinates": [103.83613,1.429246]}} 
{"id": "8603794607","server": "8257","farm": "9","userId": "92423922@N07","secret": "349767d2ce","title": "#touched","loc": {"type": "Point","coordinates": [103.83137,1.426275]}} 
{"id": "8595461720","server": "8252","farm": "9","userId": "26452579@N02","secret": "7bbfba180c","title": "IMG_0279","loc": {"type": "Point","coordinates": [103.83417,1.426]}} 
{"id": "8594364403","server": "8368","farm": "9","userId": "26452579@N02","secret": "81d4de1074","title": "IMG_0277","loc": {"type": "Point","coordinates": [103.834335,1.426]}} 
{"id": "8595461780","server": "8098","farm": "9","userId": "26452579@N02","secret": "780c804299","title": "IMG_0273","loc": {"type": "Point","coordinates": [103.83417,1.425833]}} 
{"id": "8594363841","server": "8378","farm": "9","userId": "26452579@N02","secret": "d285fd1cba","title": "IMG_0276","loc": {"type": "Point","coordinates": [103.834335,1.426]}} 
{"id": "8594986882","server": "8234","farm": "9","userId": "87827301@N06","secret": "f77474a9e9","title": "Uno day ze doctorro said.. Uno day..","loc": {"type": "Point","coordinates": [103.836334,1.426333]}} 
{"id": "8582160443","server": "8099","farm": "9","userId": "26452579@N02","secret": "a3c537cab6","title": "Shangri la Rasa Sentosa 2014 wedding price list","loc": {"type": "Point","coordinates": [103.83417,1.425833]}} 
{"id": "8582161101","server": "8507","farm": "9","userId": "26452579@N02","secret": "7c535889c9","title": "perks","loc": {"type": "Point","coordinates": [103.83417,1.425833]}} 
{"id": "8500880616","server": "8096","farm": "9","userId": "93476195@N02","secret": "8f3f7c86ce","title": "Watching The Beast of the Southern Wild","loc": {"type": "Point","coordinates": [103.83417,1.425]}} 
{"id": "8491195849","server": "8384","farm": "9","userId": "23791372@N07","secret": "f55f5d8488","title": "","loc": {"type": "Point","coordinates": [103.83383,1.427166]}} 
{"id": "8491180167","server": "8380","farm": "9","userId": "23791372@N07","secret": "85c71fcf6e","title": "","loc": {"type": "Point","coordinates": [103.8335,1.427166]}} 
{"id": "8491181739","server": "8111","farm": "9","userId": "23791372@N07","secret": "5d91cbb973","title": "","loc": {"type": "Point","coordinates": [103.833664,1.427166]}} 
{"id": "8491179839","server": "8248","farm": "9","userId": "23791372@N07","secret": "f68225c5fb","title": "","loc": {"type": "Point","coordinates": [103.8335,1.427333]}} 
{"id": "8492281820","server": "8231","farm": "9","userId": "23791372@N07","secret": "df05dce821","title": "","loc": {"type": "Point","coordinates": [103.8335,1.427166]}} 
{"id": "8491180569","server": "8365","farm": "9","userId": "23791372@N07","secret": "297d4c509e","title": "","loc": {"type": "Point","coordinates": [103.8335,1.427166]}} 
{"id": "8449146739","server": "8211","farm": "9","userId": "23791372@N07","secret": "40c2215ee7","title": "","loc": {"type": "Point","coordinates": [103.8335,1.427]}} 
{"id": "8450228304","server": "8465","farm": "9","userId": "23791372@N07","secret": "da7216f5d5","title": "","loc": {"type": "Point","coordinates": [103.8335,1.427]}} 
{"id": "8430696937","server": "8365","farm": "9","userId": "23791372@N07","secret": "74ea6648c4","title": "","loc": {"type": "Point","coordinates": [103.833664,1.427]}} 
{"id": "8349699699","server": "8043","farm": "9","userId": "16102830@N05","secret": "0a4c19e141","title": "1212_DecemberRandoms_HR_146","loc": {"type": "Point","coordinates": [103.83517,1.4235]}} 
{"id": "8350624664","server": "8464","farm": "9","userId": "16102830@N05","secret": "e48685850e","title": "1211_NovemberRandoms_HR_094","loc": {"type": "Point","coordinates": [103.836,1.428833]}} 
{"id": "8349563475","server": "8081","farm": "9","userId": "16102830@N05","secret": "d42df215eb","title": "1211_NovemberRandoms_HR_095","loc": {"type": "Point","coordinates": [103.836,1.428833]}} 
{"id": "8349564037","server": "8358","farm": "9","userId": "16102830@N05","secret": "1d2a9b3bbd","title": "1211_NovemberRandoms_HR_093","loc": {"type": "Point","coordinates": [103.836,1.428833]}} 
{"id": "8349577105","server": "8053","farm": "9","userId": "16102830@N05","secret": "0476d78985","title": "1211_NovemberRandoms_HR_059","loc": {"type": "Point","coordinates": [103.83517,1.429333]}} 
{"id": "8349562991","server": "8215","farm": "9","userId": "16102830@N05","secret": "270411803f","title": "1211_NovemberRandoms_HR_096","loc": {"type": "Point","coordinates": [103.836,1.428833]}} 
{"id": "8350614426","server": "8054","farm": "9","userId": "16102830@N05","secret": "050b61e396","title": "1211_NovemberRandoms_HR_127","loc": {"type": "Point","coordinates": [103.8355,1.4295]}} 
{"id": "8349105975","server": "8505","farm": "9","userId": "16102830@N05","secret": "e711673e6a","title": "1210_OctoberRandoms_HR_073","loc": {"type": "Point","coordinates": [103.8355,1.4295]}} 
{"id": "8350167258","server": "8508","farm": "9","userId": "16102830@N05","secret": "7365643a1c","title": "1210_OctoberRandoms_HR_074","loc": {"type": "Point","coordinates": [103.83566,1.429333]}} 
{"id": "8349131645","server": "8513","farm": "9","userId": "16102830@N05","secret": "4e1c122d87","title": "1210_OctoberRandoms_HR_005","loc": {"type": "Point","coordinates": [103.8355,1.429333]}} 
{"id": "8349131897","server": "8497","farm": "9","userId": "16102830@N05","secret": "ed22edfd8f","title": "1210_OctoberRandoms_HR_004","loc": {"type": "Point","coordinates": [103.8355,1.429333]}} 
{"id": "8350193450","server": "8232","farm": "9","userId": "16102830@N05","secret": "9e92bffd87","title": "1210_OctoberRandoms_HR_006","loc": {"type": "Point","coordinates": [103.83566,1.429666]}} 
{"id": "8348571247","server": "8323","farm": "9","userId": "16102830@N05","secret": "3329714753","title": "1208_AugustRandoms_HR_055","loc": {"type": "Point","coordinates": [103.8355,1.4295]}} 
{"id": "8348256791","server": "8326","farm": "9","userId": "16102830@N05","secret": "18a5e3d9fd","title": "1207_JulyRandoms_HR_096","loc": {"type": "Point","coordinates": [103.836334,1.4285]}} 
{"id": "8349314920","server": "8360","farm": "9","userId": "16102830@N05","secret": "7f86e76f4f","title": "1207_JulyRandoms_HR_093","loc": {"type": "Point","coordinates": [103.836334,1.4285]}} 
{"id": "8349251742","server": "8232","farm": "9","userId": "16102830@N05","secret": "ff11f9d07d","title": "1206_JuneRandoms_HR_033","loc": {"type": "Point","coordinates": [103.8355,1.4295]}} 
{"id": "8349237542","server": "8353","farm": "9","userId": "16102830@N05","secret": "24e01e8bfc","title": "1206_JuneRandoms_HR_092","loc": {"type": "Point","coordinates": [103.836334,1.428666]}} 
{"id": "8349260056","server": "8090","farm": "9","userId": "16102830@N05","secret": "8f0c72689f","title": "1206_JuneRandoms_HR_002","loc": {"type": "Point","coordinates": [103.8365,1.429]}} 
{"id": "8349237282","server": "8378","farm": "9","userId": "16102830@N05","secret": "16187a9c7b","title": "1206_JuneRandoms_HR_093","loc": {"type": "Point","coordinates": [103.836334,1.428666]}} 
{"id": "8348193209","server": "8471","farm": "9","userId": "16102830@N05","secret": "2a696d9660","title": "1206_JuneRandoms_HR_034","loc": {"type": "Point","coordinates": [103.83566,1.4295]}} 
{"id": "8349260328","server": "8361","farm": "9","userId": "16102830@N05","secret": "299dd2ac76","title": "1206_JuneRandoms_HR_001","loc": {"type": "Point","coordinates": [103.8365,1.429]}} 
{"id": "8348192965","server": "8195","farm": "9","userId": "16102830@N05","secret": "726635bb42","title": "1206_JuneRandoms_HR_035","loc": {"type": "Point","coordinates": [103.8355,1.4295]}} 
{"id": "8349088970","server": "8183","farm": "9","userId": "16102830@N05","secret": "795eeb1061","title": "1205_MayRandoms_HR_085","loc": {"type": "Point","coordinates": [103.836334,1.428666]}} 
{"id": "8349125072","server": "8056","farm": "9","userId": "16102830@N05","secret": "9a2066f090","title": "1205_MayRandoms_HR_054","loc": {"type": "Point","coordinates": [103.83617,1.4285]}} 
{"id": "8349136690","server": "8215","farm": "9","userId": "16102830@N05","secret": "8e46094c80","title": "1205_MayRandoms_HR_012","loc": {"type": "Point","coordinates": [103.83583,1.429166]}} 
{"id": "8349124476","server": "8043","farm": "9","userId": "16102830@N05","secret": "14585e2dae","title": "1205_MayRandoms_HR_056","loc": {"type": "Point","coordinates": [103.83566,1.429166]}} 
{"id": "8349124338","server": "8091","farm": "9","userId": "16102830@N05","secret": "666390ddbb","title": "1205_MayRandoms_HR_057","loc": {"type": "Point","coordinates": [103.83566,1.429166]}} 
{"id": "8347965645","server": "8217","farm": "9","userId": "16102830@N05","secret": "f48c72c457","title": "1204_AprRandoms_HR_005","loc": {"type": "Point","coordinates": [103.83683,1.423]}} 
{"id": "8349024482","server": "8232","farm": "9","userId": "16102830@N05","secret": "f3b4af716a","title": "1204_AprRandoms_HR_004","loc": {"type": "Point","coordinates": [103.83683,1.423]}} 
{"id": "8346062951","server": "8214","farm": "9","userId": "16102830@N05","secret": "35153b0943","title": "1203_MarRandoms_HR_088","loc": {"type": "Point","coordinates": [103.834335,1.429166]}} 
{"id": "8346067519","server": "8074","farm": "9","userId": "16102830@N05","secret": "5d82aaf6eb","title": "1203_MarRandoms_HR_069","loc": {"type": "Point","coordinates": [103.836334,1.428666]}} 
{"id": "8346055877","server": "8221","farm": "9","userId": "16102830@N05","secret": "dcfe6ab62e","title": "1203_MarRandoms_HR_107","loc": {"type": "Point","coordinates": [103.83517,1.429]}} 
{"id": "8347121100","server": "8081","farm": "9","userId": "16102830@N05","secret": "ef9ff79219","title": "1203_MarRandoms_HR_071","loc": {"type": "Point","coordinates": [103.836334,1.428666]}} 
{"id": "8346066435","server": "8502","farm": "9","userId": "16102830@N05","secret": "f5cc0e957c","title": "1203_MarRandoms_HR_072","loc": {"type": "Point","coordinates": [103.836334,1.428666]}} 
{"id": "8346062507","server": "8364","farm": "9","userId": "16102830@N05","secret": "1531352397","title": "1203_MarRandoms_HR_089","loc": {"type": "Point","coordinates": [103.834335,1.429166]}} 
{"id": "8347130990","server": "8503","farm": "9","userId": "16102830@N05","secret": "9bc91c4aee","title": "1203_MarRandoms_HR_039","loc": {"type": "Point","coordinates": [103.836334,1.428666]}} 
{"id": "8346076331","server": "8220","farm": "9","userId": "16102830@N05","secret": "99bd0f23ba","title": "1203_MarRandoms_HR_040","loc": {"type": "Point","coordinates": [103.836334,1.428666]}} 
{"id": "8346056187","server": "8356","farm": "9","userId": "16102830@N05","secret": "8a535d3f66","title": "1203_MarRandoms_HR_106","loc": {"type": "Point","coordinates": [103.83517,1.429]}} 
{"id": "8347129530","server": "8213","farm": "9","userId": "16102830@N05","secret": "12a222e239","title": "1203_MarRandoms_HR_043","loc": {"type": "Point","coordinates": [103.836334,1.4285]}} 
{"id": "8346075621","server": "8218","farm": "9","userId": "16102830@N05","secret": "e1ca21ab79","title": "1203_MarRandoms_HR_042","loc": {"type": "Point","coordinates": [103.836334,1.4285]}} 
{"id": "8345922879","server": "8492","farm": "9","userId": "16102830@N05","secret": "1fec3697b1","title": "1202_FebRandoms_HR_078","loc": {"type": "Point","coordinates": [103.836334,1.4285]}} 
{"id": "8325961674","server": "8221","farm": "9","userId": "21051211@N08","secret": "fbbb6c60da","title": "Yishun Bus stop","loc": {"type": "Point","coordinates": [103.83539,1.428716]}} 
{"id": "8316319457","server": "8073","farm": "9","userId": "15170730@N07","secret": "501c2b707f","title": "cranberry white chocolate mocha☕","loc": {"type": "Point","coordinates": [103.83548,1.429233]}} 
{"id": "8309927717","server": "8494","farm": "9","userId": "39926850@N04","secret": "3831ce8d6f","title": "Devine moonlight","loc": {"type": "Point","coordinates": [103.831436,1.423245]}} 
{"id": "8309477802","server": "8078","farm": "9","userId": "42594504@N00","secret": "ac2f0fcb71","title": "#shapes #clouds #rain","loc": {"type": "Point","coordinates": [103.8338,1.429671]}} 
{"id": "8286175235","server": "8083","farm": "9","userId": "22458558@N05","secret": "6045ca5c55","title": "*","loc": {"type": "Point","coordinates": [103.83517,1.429]}} 
{"id": "8206828441","server": "8200","farm": "9","userId": "82735610@N05","secret": "092ffbd943","title": "DSC01791","loc": {"type": "Point","coordinates": [103.83567,1.429352]}} 
{"id": "8206829803","server": "8350","farm": "9","userId": "82735610@N05","secret": "12348bc09b","title": "DSC01717","loc": {"type": "Point","coordinates": [103.83574,1.429552]}} 
{"id": "8207916082","server": "8485","farm": "9","userId": "82735610@N05","secret": "664561464d","title": "DSC01868","loc": {"type": "Point","coordinates": [103.83565,1.429322]}} 
{"id": "8206830109","server": "8490","farm": "9","userId": "82735610@N05","secret": "5653ee015d","title": "DSC01711","loc": {"type": "Point","coordinates": [103.83575,1.429561]}} 
{"id": "8206828857","server": "8206","farm": "9","userId": "82735610@N05","secret": "350250a93d","title": "DSC01775","loc": {"type": "Point","coordinates": [103.835686,1.429358]}} 
{"id": "8207915704","server": "8347","farm": "9","userId": "82735610@N05","secret": "fb8b29c199","title": "DSC01881","loc": {"type": "Point","coordinates": [103.835655,1.42933]}} 
{"id": "8206829475","server": "8202","farm": "9","userId": "82735610@N05","secret": "878883aa65","title": "DSC01732","loc": {"type": "Point","coordinates": [103.83569,1.429538]}} 
{"id": "8206829225","server": "8347","farm": "9","userId": "82735610@N05","secret": "990f5b8c8a","title": ":D","loc": {"type": "Point","coordinates": [103.83572,1.42948]}} 
{"id": "8207920242","server": "8199","farm": "9","userId": "82735610@N05","secret": "933409cf73","title": "Paper Ball","loc": {"type": "Point","coordinates": [103.83569,1.429525]}} 
{"id": "8206827623","server": "8067","farm": "9","userId": "82735610@N05","secret": "362d37b943","title": "DSC01824","loc": {"type": "Point","coordinates": [103.83555,1.429288]}} 
{"id": "8207920550","server": "8067","farm": "9","userId": "82735610@N05","secret": "81464d80ce","title": "DSC01693","loc": {"type": "Point","coordinates": [103.83569,1.429461]}} 
{"id": "8207917434","server": "8486","farm": "9","userId": "82735610@N05","secret": "f23316e531","title": "Collect Water","loc": {"type": "Point","coordinates": [103.83564,1.429366]}} 
{"id": "8206827243","server": "8479","farm": "9","userId": "82735610@N05","secret": "4fb370ab6e","title": "DSC01839","loc": {"type": "Point","coordinates": [103.83556,1.429286]}} 
{"id": "8207914930","server": "8350","farm": "9","userId": "82735610@N05","secret": "eddc181996","title": "DSC01807","loc": {"type": "Point","coordinates": [103.83567,1.429305]}} 
{"id": "8206830309","server": "8479","farm": "9","userId": "82735610@N05","secret": "6d6363b708","title": "DSC01708","loc": {"type": "Point","coordinates": [103.83569,1.429563]}} 
{"id": "8207914610","server": "8343","farm": "9","userId": "82735610@N05","secret": "369b2708f1","title": "DSC01709","loc": {"type": "Point","coordinates": [103.835754,1.429572]}} 
