{"id": "8730552977","server": "7417","farm": "8","userId": "94423547@N04","secret": "9ccffece3c","title": "Neighbourhood of Singapore","loc": {"type": "Point","coordinates": [103.77271,1.340167]}} 
{"id": "8707338532","server": "8412","farm": "9","userId": "69316898@N00","secret": "7f1919eb2f","title": "","loc": {"type": "Point","coordinates": [103.775276,1.336944]}} 
{"id": "8706222735","server": "8408","farm": "9","userId": "69316898@N00","secret": "7d9335a1b1","title": "olympus zuiko","loc": {"type": "Point","coordinates": [103.775276,1.336944]}} 
{"id": "8707339288","server": "8265","farm": "9","userId": "69316898@N00","secret": "c4773bc5a7","title": "","loc": {"type": "Point","coordinates": [103.775276,1.336944]}} 
{"id": "9429326416","server": "3793","farm": "4","userId": "58055661@N00","secret": "08a784ec2f","title": "crab beehoon","loc": {"type": "Point","coordinates": [103.772835,1.340333]}} 
{"id": "9426555007","server": "3822","farm": "4","userId": "58055661@N00","secret": "333916b243","title": "Steamed squid with golden garlic","loc": {"type": "Point","coordinates": [103.77267,1.340166]}} 
{"id": "9426556837","server": "2848","farm": "3","userId": "58055661@N00","secret": "f127194d67","title": "Prawn paste chicken","loc": {"type": "Point","coordinates": [103.77267,1.339999]}} 
{"id": "9404137161","server": "5522","farm": "6","userId": "96909191@N06","secret": "d2f5186d63","title": "Kids got red hair . Let me help him out with red's complement . #hair #green #commutors #students #singapore #art #drawing #doodles #drawings #sketchoftheday #sketchbook #bus #singaporeartists #cherngzhi","loc": {"type": "Point","coordinates": [103.77924,1.336809]}} 
{"id": "9398130835","server": "2831","farm": "3","userId": "96909191@N06","secret": "de4be63785","title": "A messy and ultra fast loose sketch of a hawker store. This is call a hawker because back in the days, these guys would hawk around with their portable kitchen in the streets. Hence these guys are called hawker. They are now at a pivotal stage of transfor","loc": {"type": "Point","coordinates": [103.77606,1.339201]}} 
{"id": "9355645317","server": "3771","farm": "4","userId": "96909191@N06","secret": "e6ef01c049","title": "Love the clouds today . #clouds #singapore #sunset #colors","loc": {"type": "Point","coordinates": [103.77659,1.335316]}} 
{"id": "9323235847","server": "7325","farm": "8","userId": "51489026@N02","secret": "c01e8910e9","title": "The condominium by the Park","loc": {"type": "Point","coordinates": [103.779594,1.33652]}} 
{"id": "9290942618","server": "3738","farm": "4","userId": "74006149@N07","secret": "70de06e449","title": "Maki for lunch #lunch #foodporn  #japanese #supermarket #food","loc": {"type": "Point","coordinates": [103.7786,1.338015]}} 
{"id": "9287887865","server": "2879","farm": "3","userId": "51489026@N02","secret": "cdaa6511a1","title": "The turn of the pie","loc": {"type": "Point","coordinates": [103.77861,1.338633]}} 
{"id": "9253829990","server": "7319","farm": "8","userId": "96909191@N06","secret": "bc9657e7da","title": "Crying babies, pretty students, slow elderies , mad packed my bus today #people #travel #work #picoftheday #drawingoftheday #urbansketchers #urbansketch #art #drawing #sketches #sketch #doodles #cherngzhi #Singapore #commute #ngeeannpoly","loc": {"type": "Point","coordinates": [103.77393,1.340123]}} 
{"id": "9243394257","server": "7452","farm": "8","userId": "96909191@N06","secret": "853078938f","title": "Riding my bus 61 to work with the people I meet #bus61 #61 #bukitbatok #bussketch #commute #moleskine #sketches #sketchoftheday #drawing #drawings #doodles #urbansketchers #urbansketch #art #sketchbook #work #ngeeannpoly","loc": {"type": "Point","coordinates": [103.77539,1.340097]}} 
{"id": "9187910675","server": "5328","farm": "6","userId": "21997205@N00","secret": "5e906479dd","title": "Sean, at his father's clinic.","loc": {"type": "Point","coordinates": [103.773415,1.340308]}} 
{"id": "8917192110","server": "7374","farm": "8","userId": "26687436@N06","secret": "7a19f805de","title": "Completion of the Green Corridor 10k run in. The run was along the area where the Singapore to Malaysia railway once existed,","loc": {"type": "Point","coordinates": [103.78077,1.334997]}} 
{"id": "8837392641","server": "8259","farm": "9","userId": "31283968@N02","secret": "f9e9f9dbe6","title": "FYP BBQ","loc": {"type": "Point","coordinates": [103.77504,1.336038]}} 
{"id": "8838012408","server": "3820","farm": "4","userId": "31283968@N02","secret": "9aba513506","title": "FYP BBQ","loc": {"type": "Point","coordinates": [103.774734,1.335266]}} 
{"id": "8837394733","server": "7332","farm": "8","userId": "31283968@N02","secret": "31d8019f1e","title": "FYP BBQ","loc": {"type": "Point","coordinates": [103.776146,1.334597]}} 
{"id": "8837393777","server": "3756","farm": "4","userId": "31283968@N02","secret": "e568629f6d","title": "FYP BBQ","loc": {"type": "Point","coordinates": [103.77546,1.335677]}} 
{"id": "8837380109","server": "7321","farm": "8","userId": "31283968@N02","secret": "092e6f2d32","title": "FYP BBQ","loc": {"type": "Point","coordinates": [103.774864,1.335977]}} 
{"id": "8838022230","server": "2865","farm": "3","userId": "31283968@N02","secret": "a11a5d7cf2","title": "FYP BBQ","loc": {"type": "Point","coordinates": [103.77515,1.336033]}} 
{"id": "8838024928","server": "8128","farm": "9","userId": "31283968@N02","secret": "b5878a86dc","title": "FYP BBQ","loc": {"type": "Point","coordinates": [103.77566,1.335361]}} 
{"id": "8838026888","server": "7333","farm": "8","userId": "31283968@N02","secret": "767cc9c31c","title": "FYP BBQ","loc": {"type": "Point","coordinates": [103.77507,1.336069]}} 
{"id": "8838015888","server": "8114","farm": "9","userId": "31283968@N02","secret": "8c87d255e7","title": "FYP BBQ","loc": {"type": "Point","coordinates": [103.77482,1.336105]}} 
{"id": "8838025946","server": "8279","farm": "9","userId": "31283968@N02","secret": "198e0791ac","title": "FYP BBQ","loc": {"type": "Point","coordinates": [103.77519,1.336205]}} 
{"id": "8837380687","server": "7332","farm": "8","userId": "31283968@N02","secret": "3c9b25360b","title": "FYP BBQ","loc": {"type": "Point","coordinates": [103.775024,1.335961]}} 
{"id": "8837395863","server": "7358","farm": "8","userId": "31283968@N02","secret": "11fedc18fd","title": "FYP BBQ","loc": {"type": "Point","coordinates": [103.77509,1.336102]}} 
{"id": "8820521242","server": "7293","farm": "8","userId": "76725468@N03","secret": "a50ca3ea21","title": "europe trip 2005","loc": {"type": "Point","coordinates": [103.77871,1.337839]}} 
{"id": "8784391679","server": "3764","farm": "4","userId": "69316898@N00","secret": "a7001273c6","title": "","loc": {"type": "Point","coordinates": [103.775,1.3375]}} 
{"id": "8784387221","server": "7420","farm": "8","userId": "69316898@N00","secret": "373f122e35","title": "","loc": {"type": "Point","coordinates": [103.775,1.3375]}} 
{"id": "8752689920","server": "5341","farm": "6","userId": "78686549@N00","secret": "91492fc42d","title": "There are always folks who don't eat tau geh. Why? I love bean sprouts. Do you?","loc": {"type": "Point","coordinates": [103.77601,1.339509]}} 
{"id": "8752675334","server": "3764","farm": "4","userId": "78686549@N00","secret": "cc702b9e10","title": "Carbo loading. Satay Bee Hoon. One one my fav carbo.","loc": {"type": "Point","coordinates": [103.77601,1.339509]}} 
{"id": "8750015706","server": "5453","farm": "6","userId": "45099369@N08","secret": "9e60e94a8a","title": "My fav!....","loc": {"type": "Point","coordinates": [103.77606,1.3398]}} 
{"id": "8725251337","server": "7420","farm": "8","userId": "54766247@N06","secret": "12b027c6bf","title": "Taking a Photo","loc": {"type": "Point","coordinates": [103.777336,1.335897]}} 
{"id": "8690146192","server": "7052","farm": "8","userId": "67682426@N06","secret": "7d8aab6f5d","title": "forest cockroach","loc": {"type": "Point","coordinates": [103.77651,1.336091]}} 
{"id": "8686884679","server": "8262","farm": "9","userId": "60026216@N00","secret": "c8f306dc08","title": "Ex-KTM rail corridor near Rifle Range Road.","loc": {"type": "Point","coordinates": [103.77926,1.340038]}} 
{"id": "8641242103","server": "8389","farm": "9","userId": "14385475@N05","secret": "eca202ef91","title": "IMG_4473","loc": {"type": "Point","coordinates": [103.77817,1.339333]}} 
{"id": "8604716490","server": "8381","farm": "9","userId": "78686549@N00","secret": "0fd35c3192","title": "The Son had risen. A Blessed Easter to all.","loc": {"type": "Point","coordinates": [103.775764,1.338643]}} 
{"id": "8541288925","server": "8368","farm": "9","userId": "26774111@N00","secret": "958c8df904","title": "upper bukit timah road","loc": {"type": "Point","coordinates": [103.777306,1.338686]}} 
{"id": "8541457942","server": "8091","farm": "9","userId": "55486190@N00","secret": "f94b3af68e","title": "S$4.00 #MeePok #Fishball & Fishcake #Noodle Dry","loc": {"type": "Point","coordinates": [103.77606,1.339201]}} 
{"id": "8526154915","server": "8511","farm": "9","userId": "24946237@N03","secret": "06aaecb72d","title": "","loc": {"type": "Point","coordinates": [103.78,1.338166]}} 
{"id": "8526154553","server": "8366","farm": "9","userId": "24946237@N03","secret": "f77f9e2733","title": "","loc": {"type": "Point","coordinates": [103.78,1.338166]}} 
{"id": "8512465858","server": "8376","farm": "9","userId": "78686549@N00","secret": "27db64b91d","title": "C.K.T.  Burp.","loc": {"type": "Point","coordinates": [103.77606,1.339201]}} 
{"id": "8509035979","server": "8378","farm": "9","userId": "64519864@N00","secret": "626c63806f","title": "Dogs frolicking in the mud","loc": {"type": "Point","coordinates": [103.78077,1.334997]}} 
{"id": "8521508762","server": "8240","farm": "9","userId": "43225758@N03","secret": "ba5801907e","title": "Chosen 1's Shoot | IMG_9520","loc": {"type": "Point","coordinates": [103.781296,1.334267]}} 
{"id": "8477556147","server": "8387","farm": "9","userId": "27578890@N07","secret": "f2c63247d9","title": "Carpenter bee visiting flower of creeper.","loc": {"type": "Point","coordinates": [103.782,1.334333]}} 
{"id": "8476165366","server": "8532","farm": "9","userId": "33685507@N00","secret": "d1b568bf95","title": "Swirls","loc": {"type": "Point","coordinates": [103.77862,1.338633]}} 
{"id": "8403036876","server": "8047","farm": "9","userId": "59353887@N00","secret": "126ffb10a8","title": "","loc": {"type": "Point","coordinates": [103.78183,1.339166]}} 
{"id": "8396783761","server": "8498","farm": "9","userId": "21438119@N07","secret": "ab5cf1e205","title": "P1070745","loc": {"type": "Point","coordinates": [103.781166,1.333999]}} 
{"id": "8397870140","server": "8196","farm": "9","userId": "21438119@N07","secret": "484e1b010d","title": "P1070747","loc": {"type": "Point","coordinates": [103.781166,1.333999]}} 
{"id": "8394023007","server": "8194","farm": "9","userId": "55486190@N00","secret": "3cac046d75","title": "#McDonald's #Curly #Fries @McDonaldsCorp @McDonalds","loc": {"type": "Point","coordinates": [103.77934,1.337067]}} 
{"id": "8348028373","server": "8215","farm": "9","userId": "16102830@N05","secret": "206cc25bf6","title": "1205_MayRandoms_HR_165","loc": {"type": "Point","coordinates": [103.781166,1.3365]}} 
{"id": "8348029047","server": "8494","farm": "9","userId": "16102830@N05","secret": "f9c3760c27","title": "1205_MayRandoms_HR_162","loc": {"type": "Point","coordinates": [103.781166,1.3365]}} 
{"id": "8348036215","server": "8092","farm": "9","userId": "16102830@N05","secret": "d717d7ecff","title": "1205_MayRandoms_HR_161","loc": {"type": "Point","coordinates": [103.781166,1.3365]}} 
{"id": "8349087518","server": "8367","farm": "9","userId": "16102830@N05","secret": "2b398cd2f8","title": "1205_MayRandoms_HR_163","loc": {"type": "Point","coordinates": [103.781166,1.3365]}} 
{"id": "8349095250","server": "8506","farm": "9","userId": "16102830@N05","secret": "2884a96fee","title": "1205_MayRandoms_HR_159","loc": {"type": "Point","coordinates": [103.781,1.337]}} 
{"id": "8349087242","server": "8502","farm": "9","userId": "16102830@N05","secret": "768a9d8b08","title": "1205_MayRandoms_HR_164","loc": {"type": "Point","coordinates": [103.781166,1.3375]}} 
{"id": "8349095026","server": "8356","farm": "9","userId": "16102830@N05","secret": "26b0d55190","title": "1205_MayRandoms_HR_160","loc": {"type": "Point","coordinates": [103.781,1.337]}} 
{"id": "8308437135","server": "8497","farm": "9","userId": "42594504@N00","secret": "8254a431a3","title": "23:11:11 11/11/11 Hehe..","loc": {"type": "Point","coordinates": [103.7782,1.339525]}} 
{"id": "8308438393","server": "8359","farm": "9","userId": "42594504@N00","secret": "ddc389ab5f","title": "We built this city #zengliwei #singapore #iphone4gs #sgig #iphone #instasg #singapore","loc": {"type": "Point","coordinates": [103.7769,1.338814]}} 
{"id": "8308435509","server": "8211","farm": "9","userId": "42594504@N00","secret": "07c9276bcf","title": "Spiderwoman! :)","loc": {"type": "Point","coordinates": [103.7789,1.337835]}} 
{"id": "8296397950","server": "8221","farm": "9","userId": "41935268@N03","secret": "05f31fbd24","title": "“I know that you can do all things; no purpose of yours can be thwarted.    You asked, ‘Who is this that obscures my plans without knowledge?’ Surely I spoke of things I did not understand, things too wonderful for me to know. (Job 42:2, 3 NIV)","loc": {"type": "Point","coordinates": [103.775185,1.338799]}} 
{"id": "8229922116","server": "8206","farm": "9","userId": "14544905@N08","secret": "b86ba6c353","title": "SHA_3829","loc": {"type": "Point","coordinates": [103.775314,1.334116]}} 
{"id": "8229922362","server": "8345","farm": "9","userId": "14544905@N08","secret": "894cfbc1a1","title": "SHA_3827","loc": {"type": "Point","coordinates": [103.775314,1.334116]}} 
{"id": "8228856769","server": "8202","farm": "9","userId": "14544905@N08","secret": "5e356dcba4","title": "SHA_3819","loc": {"type": "Point","coordinates": [103.775314,1.334116]}} 
{"id": "8229919490","server": "8201","farm": "9","userId": "14544905@N08","secret": "d78121476c","title": "SHA_3834","loc": {"type": "Point","coordinates": [103.775314,1.334116]}} 
{"id": "8228855715","server": "8201","farm": "9","userId": "14544905@N08","secret": "9aa715ced2","title": "SHA_3831","loc": {"type": "Point","coordinates": [103.775314,1.334116]}} 
{"id": "8228857797","server": "8487","farm": "9","userId": "14544905@N08","secret": "f920979612","title": "SHA_3804","loc": {"type": "Point","coordinates": [103.775314,1.334116]}} 
{"id": "8228857461","server": "8205","farm": "9","userId": "14544905@N08","secret": "192c7a9dbb","title": "SHA_3807","loc": {"type": "Point","coordinates": [103.775314,1.334116]}} 
{"id": "8228852177","server": "8065","farm": "9","userId": "14544905@N08","secret": "70e7e236dc","title": "SHA_3841","loc": {"type": "Point","coordinates": [103.775314,1.334116]}} 
{"id": "8229924230","server": "8204","farm": "9","userId": "14544905@N08","secret": "0412983a4a","title": "SHA_3803","loc": {"type": "Point","coordinates": [103.775314,1.334116]}} 
{"id": "8229922018","server": "8210","farm": "9","userId": "14544905@N08","secret": "6d3a86377f","title": "SHA_3830","loc": {"type": "Point","coordinates": [103.775314,1.334116]}} 
{"id": "8229923444","server": "8198","farm": "9","userId": "14544905@N08","secret": "88278ac33b","title": "SHA_3812","loc": {"type": "Point","coordinates": [103.775314,1.334116]}} 
{"id": "8228858111","server": "8198","farm": "9","userId": "14544905@N08","secret": "c342e0a5d3","title": "SHA_3798","loc": {"type": "Point","coordinates": [103.775314,1.334116]}} 
{"id": "8229918678","server": "8198","farm": "9","userId": "14544905@N08","secret": "89aa4c160e","title": "SHA_3839","loc": {"type": "Point","coordinates": [103.775314,1.334116]}} 
{"id": "8228857657","server": "8486","farm": "9","userId": "14544905@N08","secret": "21057ca110","title": "SHA_3805","loc": {"type": "Point","coordinates": [103.775314,1.334116]}} 
{"id": "8229924296","server": "8483","farm": "9","userId": "14544905@N08","secret": "69f9d70899","title": "SHA_3802","loc": {"type": "Point","coordinates": [103.775314,1.334116]}} 
{"id": "8228854291","server": "8206","farm": "9","userId": "14544905@N08","secret": "17c134e49b","title": "SHA_3833","loc": {"type": "Point","coordinates": [103.775314,1.334116]}} 
{"id": "8228852635","server": "8069","farm": "9","userId": "14544905@N08","secret": "41aaef0ea6","title": "SHA_3838","loc": {"type": "Point","coordinates": [103.775314,1.334116]}} 
{"id": "8228852071","server": "8488","farm": "9","userId": "14544905@N08","secret": "b88d756dfe","title": "SHA_3842","loc": {"type": "Point","coordinates": [103.775314,1.334116]}} 
{"id": "8229924516","server": "8204","farm": "9","userId": "14544905@N08","secret": "c9ce95b572","title": "SHA_3797","loc": {"type": "Point","coordinates": [103.775314,1.334116]}} 
{"id": "8229923332","server": "8060","farm": "9","userId": "14544905@N08","secret": "a1a6937224","title": "SHA_3813","loc": {"type": "Point","coordinates": [103.775314,1.334116]}} 
{"id": "8229923246","server": "8197","farm": "9","userId": "14544905@N08","secret": "c7a807fece","title": "SHA_3817","loc": {"type": "Point","coordinates": [103.775314,1.334116]}} 
{"id": "8229918492","server": "8063","farm": "9","userId": "14544905@N08","secret": "b0927efe0d","title": "SHA_3840","loc": {"type": "Point","coordinates": [103.775314,1.334116]}} 
{"id": "8228856269","server": "8206","farm": "9","userId": "14544905@N08","secret": "87004241cf","title": "SHA_3824","loc": {"type": "Point","coordinates": [103.775314,1.334116]}} 
{"id": "8123940223","server": "8188","farm": "9","userId": "88199293@N03","secret": "27b682df1b","title": "Chicken Chop with Fries","loc": {"type": "Point","coordinates": [103.77649,1.335126]}} 
{"id": "8123961620","server": "8188","farm": "9","userId": "88199293@N03","secret": "1c0e514462","title": "Bento Set","loc": {"type": "Point","coordinates": [103.774666,1.333774]}} 
{"id": "8085111799","server": "8195","farm": "9","userId": "55486190@N00","secret": "9d47014edf","title": "#Nyonya #Kueh for customers' sampling #Singapore #Peranakan #Food @PeranakanMuseum","loc": {"type": "Point","coordinates": [103.7788,1.33869]}} 
{"id": "8050283698","server": "8460","farm": "9","userId": "69379954@N08","secret": "0ef6c47298","title": "Outstanding","loc": {"type": "Point","coordinates": [103.77395,1.340286]}} 
{"id": "8049961985","server": "8178","farm": "9","userId": "69379954@N08","secret": "0d1b9c932a","title": "Rolling shutter","loc": {"type": "Point","coordinates": [103.773994,1.340216]}} 
{"id": "8046141709","server": "8033","farm": "9","userId": "87827337@N08","secret": "74621317ef","title": "Disused Rail Bridge","loc": {"type": "Point","coordinates": [103.781166,1.337333]}} 
