{"id": "9215670808","server": "7282","farm": "8","userId": "30552649@N00","secret": "0e05d81fcf","title": "吃呀吃之吃煮炒最好是一桌子的菜","loc": {"type": "Point","coordinates": [103.80376,1.285863]}} 
{"id": "8990851149","server": "2811","farm": "3","userId": "26163384@N00","secret": "7d8c418f15","title": "The green leaf - substrate for mom Lynx (Oxyopes ? or Hamalawi ?) laying eggs","loc": {"type": "Point","coordinates": [103.802216,1.286288]}} 
{"id": "9343704536","server": "7307","farm": "8","userId": "42561859@N06","secret": "1a3172a1ee","title": "IMG_2031","loc": {"type": "Point","coordinates": [103.802666,1.286666]}} 
{"id": "9343551764","server": "3828","farm": "4","userId": "42561859@N06","secret": "1b08a68abd","title": "IMG_1298","loc": {"type": "Point","coordinates": [103.80383,1.287999]}} 
{"id": "9340164493","server": "7315","farm": "8","userId": "30951754@N04","secret": "e781c6006c","title": "Yummylicious Katong Laksa!!","loc": {"type": "Point","coordinates": [103.803474,1.287582]}} 
{"id": "9013508366","server": "7318","farm": "8","userId": "17366099@N00","secret": "1d02382b80","title": "Lunch is a light Tuna Pasta with Furikake. Love how much $4 can get you still nowadays.","loc": {"type": "Point","coordinates": [103.80296,1.290757]}} 
{"id": "9012069687","server": "7321","farm": "8","userId": "96364464@N05","secret": "b8ee04886b","title": "Going home to get her bus card, Becoz her baby card is expired! Didn't know that SMRT does kept track of that.","loc": {"type": "Point","coordinates": [103.803474,1.287582]}} 
{"id": "8992050494","server": "8407","farm": "9","userId": "26163384@N00","secret": "5fef2c1265","title": "Green insect","loc": {"type": "Point","coordinates": [103.80204,1.286174]}} 
{"id": "8990844755","server": "3741","farm": "4","userId": "26163384@N00","secret": "557531b3a9","title": "Cicada Inflating and drying wings","loc": {"type": "Point","coordinates": [103.80263,1.286669]}} 
{"id": "8992048692","server": "7410","farm": "8","userId": "26163384@N00","secret": "8a2031eb6c","title": "Spiderlings - Lynx - just hatched","loc": {"type": "Point","coordinates": [103.80225,1.286211]}} 
{"id": "8990846639","server": "3725","farm": "4","userId": "26163384@N00","secret": "4095c5e496","title": "Cicada Aligning vertical","loc": {"type": "Point","coordinates": [103.80243,1.286702]}} 
{"id": "8990848625","server": "7434","farm": "8","userId": "26163384@N00","secret": "1e098ab1af","title": "Cicada Extracting abdomen","loc": {"type": "Point","coordinates": [103.80243,1.286702]}} 
{"id": "8939518818","server": "5350","farm": "6","userId": "52689468@N00","secret": "3e4dbfd429","title": "IMG_0093","loc": {"type": "Point","coordinates": [103.80417,1.291499]}} 
{"id": "8938891311","server": "3737","farm": "4","userId": "52689468@N00","secret": "230c2e7d3d","title": "IMG_0095","loc": {"type": "Point","coordinates": [103.80417,1.291499]}} 
{"id": "8939510958","server": "8557","farm": "9","userId": "52689468@N00","secret": "e9f47bb4f6","title": "IMG_0097","loc": {"type": "Point","coordinates": [103.80417,1.291499]}} 
{"id": "8939507520","server": "8415","farm": "9","userId": "52689468@N00","secret": "4a510bf32d","title": "IMG_0098","loc": {"type": "Point","coordinates": [103.80417,1.291499]}} 
{"id": "8826642314","server": "2840","farm": "3","userId": "26163384@N00","secret": "52ed7e167f","title": "Extracting legs","loc": {"type": "Point","coordinates": [103.802246,1.286236]}} 
{"id": "8826640840","server": "7431","farm": "8","userId": "26163384@N00","secret": "e3ea104aea","title": "Moulting - Extracting Legs","loc": {"type": "Point","coordinates": [103.802246,1.286236]}} 
{"id": "8816045517","server": "3784","farm": "4","userId": "26163384@N00","secret": "7dd47488d6","title": "Hanging out to dry","loc": {"type": "Point","coordinates": [103.802246,1.286236]}} 
{"id": "8826637174","server": "3687","farm": "4","userId": "26163384@N00","secret": "cae5a15f67","title": "Legs free","loc": {"type": "Point","coordinates": [103.802246,1.286236]}} 
{"id": "8816040269","server": "3792","farm": "4","userId": "26163384@N00","secret": "c4af683214","title": "Leg control of twisting","loc": {"type": "Point","coordinates": [103.802246,1.286236]}} 
{"id": "8826627044","server": "3796","farm": "4","userId": "26163384@N00","secret": "c5f3f944c7","title": "Post Moult - controlling twisting motion","loc": {"type": "Point","coordinates": [103.802246,1.286236]}} 
{"id": "8826632720","server": "3673","farm": "4","userId": "26163384@N00","secret": "0a0a07cfdd","title": "Twisting","loc": {"type": "Point","coordinates": [103.802246,1.286236]}} 
{"id": "8826638764","server": "5456","farm": "6","userId": "26163384@N00","secret": "7175410490","title": "Extracting Legs","loc": {"type": "Point","coordinates": [103.802246,1.286236]}} 
{"id": "8816049303","server": "8261","farm": "9","userId": "26163384@N00","secret": "6d36ba37de","title": "Crane Fly","loc": {"type": "Point","coordinates": [103.80205,1.285922]}} 
{"id": "8826506820","server": "8403","farm": "9","userId": "26163384@N00","secret": "8d34dc1554","title": "Hamataliwa (lynx-like) Guarding Eggs","loc": {"type": "Point","coordinates": [103.80221,1.286236]}} 
{"id": "8690900271","server": "8262","farm": "9","userId": "17366099@N00","secret": "117df6c911","title": "The new baby. It feels odd and like another phase has passed. #iphone4s #iphone5 #tech #life #singapore #love #phone #new","loc": {"type": "Point","coordinates": [103.802475,1.290567]}} 
{"id": "8687144311","server": "8539","farm": "9","userId": "61670399@N07","secret": "582f346bd4","title": "Curry Chicken for lunch","loc": {"type": "Point","coordinates": [103.80386,1.287616]}} 
{"id": "8674845886","server": "8528","farm": "9","userId": "17366099@N00","secret": "02ff54c129","title": "Am glad I got my hands on this in JB. It's cheaper and I didn't need to wait for Kino to stock it. I won't personally recommend it, but I thought its an interesting read.","loc": {"type": "Point","coordinates": [103.802475,1.290567]}} 
{"id": "8624429154","server": "8546","farm": "9","userId": "34811143@N00","secret": "7bac31e468","title": "Cycling along Railway to Tanjong Pagar","loc": {"type": "Point","coordinates": [103.79884,1.291358]}} 
{"id": "8571396316","server": "8238","farm": "9","userId": "48889054224@N01","secret": "8bdc31d922","title": "AH, the hospital in a garden","loc": {"type": "Point","coordinates": [103.80143,1.286519]}} 
{"id": "8527790233","server": "8375","farm": "9","userId": "92932950@N06","secret": "9434c6c40b","title": "Sole power in my hands.","loc": {"type": "Point","coordinates": [103.804,1.287833]}} 
{"id": "8470421002","server": "8233","farm": "9","userId": "77256638@N00","secret": "67ef4a458f","title": "When the clouds give way","loc": {"type": "Point","coordinates": [103.79366,1.287833]}} 
{"id": "8437672846","server": "8237","farm": "9","userId": "58072194@N08","secret": "87443d9585","title": "1_15","loc": {"type": "Point","coordinates": [103.80283,1.290666]}} 
{"id": "8434010825","server": "8469","farm": "9","userId": "31118131@N07","secret": "5d9151d38f","title": "IMAG2667","loc": {"type": "Point","coordinates": [103.794464,1.291811]}} 
{"id": "8381961175","server": "8046","farm": "9","userId": "8583503@N07","secret": "ea6bf9dc4d","title": "Highly rated, highly criticised. 30mins queue for it. I personally don't fancy it.","loc": {"type": "Point","coordinates": [103.80378,1.285886]}} 
{"id": "8363336013","server": "8238","farm": "9","userId": "48889054224@N01","secret": "82f4bf0646","title": "Willing to bet she doesn't really speak Malay","loc": {"type": "Point","coordinates": [103.801605,1.286678]}} 
{"id": "8364402652","server": "8502","farm": "9","userId": "48889054224@N01","secret": "aea011f648","title": "Adidas for dyslexics","loc": {"type": "Point","coordinates": [103.801605,1.286678]}} 
{"id": "8364210610","server": "8230","farm": "9","userId": "48889054224@N01","secret": "2907e74bbf","title": "Indeed","loc": {"type": "Point","coordinates": [103.801605,1.286678]}} 
{"id": "8362252422","server": "8506","farm": "9","userId": "61038036@N00","secret": "813b3ec7f4","title": "IMG_0315","loc": {"type": "Point","coordinates": [103.8005,1.292166]}} 
{"id": "8361192677","server": "8086","farm": "9","userId": "61038036@N00","secret": "71ef639c44","title": "IMG_0320","loc": {"type": "Point","coordinates": [103.80116,1.291333]}} 
{"id": "8362251614","server": "8184","farm": "9","userId": "61038036@N00","secret": "9b235ede80","title": "IMG_0313","loc": {"type": "Point","coordinates": [103.8005,1.291999]}} 
{"id": "8362253450","server": "8218","farm": "9","userId": "61038036@N00","secret": "a1c7e8a0c2","title": "IMG_0319","loc": {"type": "Point","coordinates": [103.80067,1.291999]}} 
{"id": "8361190191","server": "8369","farm": "9","userId": "61038036@N00","secret": "0ba3268bb9","title": "IMG_0310","loc": {"type": "Point","coordinates": [103.800835,1.291833]}} 
{"id": "8362252010","server": "8233","farm": "9","userId": "61038036@N00","secret": "053ece411e","title": "IMG_0314","loc": {"type": "Point","coordinates": [103.8005,1.292166]}} 
{"id": "8359677697","server": "8502","farm": "9","userId": "24125024@N06","secret": "0e1c7c1c32","title": "Queensway Shopping Centre","loc": {"type": "Point","coordinates": [103.8035,1.287333]}} 
{"id": "8335901877","server": "8218","farm": "9","userId": "91670890@N04","secret": "54fb24dfcc","title": "","loc": {"type": "Point","coordinates": [103.802666,1.285833]}} 
{"id": "8308444317","server": "8084","farm": "9","userId": "42594504@N00","secret": "0c4a754b55","title": "Sunshine or sunshine please shine and take away the gloom.","loc": {"type": "Point","coordinates": [103.8003,1.286509]}} 
{"id": "8309474028","server": "8503","farm": "9","userId": "42594504@N00","secret": "4c27fab42e","title": "Evening dawns..","loc": {"type": "Point","coordinates": [103.803474,1.287582]}} 
{"id": "8281313104","server": "8060","farm": "9","userId": "13889411@N04","secret": "373a761425","title": "IMG_6113","loc": {"type": "Point","coordinates": [103.8024,1.286165]}} 
{"id": "8262628271","server": "8203","farm": "9","userId": "37344314@N05","secret": "b294bb36c0","title": "Bai bai","loc": {"type": "Point","coordinates": [103.80265,1.291744]}} 
{"id": "8251551247","server": "8063","farm": "9","userId": "37344314@N05","secret": "cd3b29b556","title": "Tofu with seafood??","loc": {"type": "Point","coordinates": [103.802734,1.291755]}} 
{"id": "8251032803","server": "8066","farm": "9","userId": "37344314@N05","secret": "21190cb332","title": "At bus stop","loc": {"type": "Point","coordinates": [103.8025,1.291127]}} 
{"id": "8251776430","server": "8479","farm": "9","userId": "37344314@N05","secret": "f2de41b99b","title": "Spore","loc": {"type": "Point","coordinates": [103.80254,1.291588]}} 
{"id": "8190363824","server": "8070","farm": "9","userId": "10179767@N00","secret": "6425763cb3","title": "Countryside","loc": {"type": "Point","coordinates": [103.80093,1.285828]}} 
{"id": "8190363666","server": "8348","farm": "9","userId": "10179767@N00","secret": "ae43ccda38","title": "Pond Plants","loc": {"type": "Point","coordinates": [103.802,1.286153]}} 
{"id": "8135151390","server": "8053","farm": "9","userId": "60385541@N00","secret": "969d667d5a","title": "Tea Time at SMART","loc": {"type": "Point","coordinates": [103.797165,1.292166]}} 
{"id": "8089684736","server": "8048","farm": "9","userId": "27166109@N03","secret": "d6f47fcb58","title": "PA111747-1.jpg","loc": {"type": "Point","coordinates": [103.8,1.291944]}} 
{"id": "8086099189","server": "8048","farm": "9","userId": "21596674@N00","secret": "06b64ed483","title": "San Luo Hor Fun @Hong Kong Street Zhen Ji. #foodporn Aweome stuff and a great way to end the weekend.","loc": {"type": "Point","coordinates": [103.80246,1.28548]}} 
{"id": "8070235957","server": "8460","farm": "9","userId": "85252992@N06","secret": "635e32e8af","title": "Volvo B9TL CDGE","loc": {"type": "Point","coordinates": [103.801674,1.290162]}} 
