{"id": "8666558415","server": "8255","farm": "9","userId": "19109134@N00","secret": "bbe50520bd","title": "Night Pool","loc": {"type": "Point","coordinates": [103.791336,1.31303]}} 
{"id": "8667599802","server": "8261","farm": "9","userId": "19109134@N00","secret": "eb616dd813","title": "Midnight Dip","loc": {"type": "Point","coordinates": [103.791336,1.313051]}} 
{"id": "9288630616","server": "3769","farm": "4","userId": "25530545@N04","secret": "76320419db","title": "2013-06-28 at 22-31-27","loc": {"type": "Point","coordinates": [103.78633,1.313333]}} 
{"id": "8672459292","server": "8532","farm": "9","userId": "24125024@N06","secret": "28a8d72c06","title": "Project Continuation #142 'Backlit'","loc": {"type": "Point","coordinates": [103.78767,1.317666]}} 
{"id": "8403819888","server": "8229","farm": "9","userId": "32950184@N06","secret": "6f49bc27f5","title": "#goodmorning #tagheuerindonesia #tagheuer #aquaracer #landrover #discoverytdi3 #tagheueraquaracer500m","loc": {"type": "Point","coordinates": [103.78484,1.316143]}} 
{"id": "8302460046","server": "8358","farm": "9","userId": "88140054@N04","secret": "9e9cb25c4b","title": "How does it feel to see the ray of light after a whole lot of time in darkness?","loc": {"type": "Point","coordinates": [103.78733,1.3175]}} 
{"id": "8288069084","server": "8485","farm": "9","userId": "29693607@N00","secret": "620948a7f6","title": "Rain","loc": {"type": "Point","coordinates": [103.7872,1.317833]}} 
{"id": "8265069413","server": "8340","farm": "9","userId": "99381909@N00","secret": "a0a22d6423","title": "Breakfast for the weary. Last night was sheer, utter exhaustion with a feverish, fussy baby. We reward ourselves with a cuppa while waiting for the little man to pee (for the urine test). Grateful for a wonderful paediatrician.","loc": {"type": "Point","coordinates": [103.78288,1.316101]}} 
{"id": "8143110797","server": "8329","farm": "9","userId": "66152716@N03","secret": "b04840c3da","title": "Un morceau de 'mo! #movember","loc": {"type": "Point","coordinates": [103.783066,1.313351]}} 
{"id": "8034949308","server": "8041","farm": "9","userId": "92982109@N00","secret": "12edaf7d8b","title": "Henry Congressional - Panorama","loc": {"type": "Point","coordinates": [103.78283,1.316167]}} 
{"id": "8034895313","server": "8181","farm": "9","userId": "99381909@N00","secret": "6674b2e3e9","title": "Our non-existent next house shall have such lights.","loc": {"type": "Point","coordinates": [103.78288,1.316101]}} 
{"id": "8034854203","server": "8310","farm": "9","userId": "99381909@N00","secret": "2d8397e880","title": "Chocolate tracks.","loc": {"type": "Point","coordinates": [103.78288,1.316101]}} 
{"id": "8034835958","server": "8178","farm": "9","userId": "92982109@N00","secret": "cf33e0c30d","title": "Mess (was too hungry...eat first shoot later)","loc": {"type": "Point","coordinates": [103.78288,1.316101]}} 
{"id": "8034791271","server": "8312","farm": "9","userId": "92982109@N00","secret": "4135d2a3a6","title": "Bee Hoon","loc": {"type": "Point","coordinates": [103.78288,1.316101]}} 
{"id": "8034800041","server": "8461","farm": "9","userId": "99381909@N00","secret": "840631d088","title": "Can't go wrong with coffee and cake.","loc": {"type": "Point","coordinates": [103.78288,1.316101]}} 
{"id": "8034794841","server": "8169","farm": "9","userId": "92982109@N00","secret": "8dbbb58c55","title": "Mocha with bee hoon","loc": {"type": "Point","coordinates": [103.78288,1.316101]}} 
